%time,field.name0,field.name1,field.pose0.position.x,field.pose0.position.y,field.pose0.position.z,field.pose0.orientation.x,field.pose0.orientation.y,field.pose0.orientation.z,field.pose0.orientation.w,field.pose1.position.x,field.pose1.position.y,field.pose1.position.z,field.pose1.orientation.x,field.pose1.orientation.y,field.pose1.orientation.z,field.pose1.orientation.w,field.twist0.linear.x,field.twist0.linear.y,field.twist0.linear.z,field.twist0.angular.x,field.twist0.angular.y,field.twist0.angular.z,field.twist1.linear.x,field.twist1.linear.y,field.twist1.linear.z,field.twist1.angular.x,field.twist1.angular.y,field.twist1.angular.z
18103000000,ocean_waves,wamv,0.0,0.0,0.0,0.0,0.0,0.0,1.0,0.459367661343,7.56690551487,1.1678076963,0.22190257317,-0.128528231017,0.661821046082,0.704437821824,0.0,0.0,0.0,0.0,0.0,0.0,-0.000607903038514,2.05653861924,2.3301957975,-0.531178163458,0.349790547065,0.103524920353
18104000000,ocean_waves,wamv,0.0,0.0,0.0,0.0,0.0,0.0,1.0,0.459366717293,7.56896153929,1.17013609343,0.221836444002,-0.128216120992,0.661853045695,0.704485460698,0.0,0.0,0.0,0.0,0.0,0.0,-0.000947831774211,2.05600440674,2.32844526534,-0.535657853447,0.350237167017,0.103543766112
18105000000,ocean_waves,wamv,0.0,0.0,0.0,0.0,0.0,0.0,1.0,0.459365432359,7.57101702897,1.17246274128,0.221768862348,-0.12790235494,0.661885219553,0.704533544574,0.0,0.0,0.0,0.0,0.0,0.0,-0.00128875499019,2.05546940879,2.32669656612,-0.540138575238,0.350684602282,0.103562492298
18106000000,ocean_waves,wamv,0.0,0.0,0.0,0.0,0.0,0.0,1.0,0.459363805508,7.57307198311,1.17478764165,0.221699827724,-0.12758693201,0.661917566038,0.704582072535,0.0,0.0,0.0,0.0,0.0,0.0,-0.00163070999907,2.05493360939,2.32494968491,-0.544620361969,0.351132889215,0.103581080311
18107000000,ocean_waves,wamv,0.0,0.0,0.0,0.0,0.0,0.0,1.0,0.45936183567,7.5751264009,1.17711079635,0.221629339642,-0.127269851328,0.661950083511,0.704631043662,0.0,0.0,0.0,0.0,0.0,0.0,-0.00197373544292,2.05439699277,2.32320460805,-0.549103244181,0.351582063727,0.103599512732
18108000000,ocean_waves,wamv,0.0,0.0,0.0,0.0,0.0,0.0,1.0,0.459359521734,7.5771802815,1.17943220716,0.221557397613,-0.126951112001,0.661982770315,0.704680457038,0.0,0.0,0.0,0.0,0.0,0.0,-0.00231787023154,2.0538595435,2.32146132308,-0.553587249204,0.352032160167,0.103617773969
18109000000,ocean_waves,wamv,0.0,0.0,0.0,0.0,0.0,0.0,1.0,0.459356862555,7.57923362406,1.18175187586,0.221484001145,-0.126630713118,0.662015624776,0.704730311739,0.0,0.0,0.0,0.0,0.0,0.0,-0.00266315243974,2.05332124645,2.31971981884,-0.558072400644,0.352483210212,0.103635850865
18110000000,ocean_waves,wamv,0.0,0.0,0.0,0.0,0.0,0.0,1.0,0.459353856948,7.58128642774,1.18406980422,0.221409149747,-0.126308653751,0.662048645204,0.704780606842,0.0,0.0,0.0,0.0,0.0,0.0,-0.00300961821715,2.05278208685,2.31798008534,-0.562558718001,0.352935241833,0.103653733238
18111000000,ocean_waves,wamv,0.0,0.0,0.0,0.0,0.0,0.0,1.0,0.459350503695,7.58333869164,1.18638599398,0.221332842924,-0.125984932959,0.662081829892,0.704831341412,0.0,0.0,0.0,0.0,0.0,0.0,-0.00335730076521,2.05224205028,2.3162421137,-0.567046216421,0.353388278391,0.103671414332
18112000000,ocean_waves,wamv,0.0,0.0,0.0,0.0,0.0,0.0,1.0,0.459346801552,7.58539041488,1.18870044691,0.221255080183,-0.125659549791,0.662115177123,0.704882514511,0.0,0.0,0.0,0.0,0.0,0.0,-0.00370622943174,2.05170112265,2.31450589605,-0.57153490661,0.353842337894,0.103688891137
18113000000,ocean_waves,wamv,0.0,0.0,0.0,0.0,0.0,0.0,1.0,0.459342749246,7.58744159657,1.19101316473,0.221175861027,-0.125332503288,0.662148685166,0.704934125186,0.0,0.0,0.0,0.0,0.0,0.0,-0.00405642896405,2.05115929017,2.31277142535,-0.576024794887,0.35429743247,0.103706164573
18114000000,ocean_waves,wamv,0.0,0.0,0.0,0.0,0.0,0.0,1.0,0.459338345487,7.58949223577,1.19332414919,0.221095184961,-0.125003792487,0.662182352281,0.704986172473,0.0,0.0,0.0,0.0,0.0,0.0,-0.00440791894989,2.05061653935,2.31103869522,-0.580515883377,0.354753568062,0.103723239532
18119000000,ocean_waves,wamv,0.0,0.0,0.0,0.0,0.0,0.0,1.0,0.459333588971,7.59154233157,1.19563340202,0.221013051485,-0.124673416424,0.662216176721,0.705038655394,0.0,0.0,0.0,0.0,0.0,0.0,-0.00476071346161,2.05007285694,2.30930769981,-0.585008170332,0.355210744357,0.103740124766
18119000000,ocean_waves,wamv,0.0,0.0,0.0,0.0,0.0,0.0,1.0,0.459328478385,7.59359188301,1.19794092494,0.220929460099,-0.124341374136,0.662250156731,0.705091572952,0.0,0.0,0.0,0.0,0.0,0.0,-0.00511482090427,2.04952822989,2.30757843355,-0.589501650548,0.355668954936,0.103756832639
18119000000,ocean_waves,wamv,0.0,0.0,0.0,0.0,0.0,0.0,1.0,0.459323012412,7.59564088914,1.20024671967,0.220844410298,-0.124007664667,0.662284290553,0.705144924133,0.0,0.0,0.0,0.0,0.0,0.0,-0.00547024405617,2.04898264529,2.30585089105,-0.59399631586,0.356128187627,0.103773378772
18119000000,ocean_waves,wamv,0.0,0.0,0.0,0.0,0.0,0.0,1.0,0.45931718974,7.597689349,1.20255078792,0.220757901576,-0.123672287066,0.662318576425,0.705198707902,0.0,0.0,0.0,0.0,0.0,0.0,-0.0058269802799,2.04843609034,2.3041250669,-0.598492155694,0.356588425022,0.103789781576
18119000000,ocean_waves,wamv,0.0,0.0,0.0,0.0,0.0,0.0,1.0,0.459311009062,7.5997372616,1.2048531314,0.220669933418,-0.12333524039,0.662353012584,0.705252923202,0.0,0.0,0.0,0.0,0.0,0.0,-0.00618502187524,2.04788855231,2.30240095555,-0.602989157644,0.357049645122,0.103806061732
18120000000,ocean_waves,wamv,0.0,0.0,0.0,0.0,0.0,0.0,1.0,0.459304469086,7.60178462595,1.20715375181,0.220580505308,-0.122996523709,0.662387597264,0.705307568955,0.0,0.0,0.0,0.0,0.0,0.0,-0.00654435654228,2.04734001846,2.30067855115,-0.607487308069,0.35751182208,0.103822241623
18121000000,ocean_waves,wamv,0.0,0.0,0.0,0.0,0.0,0.0,1.0,0.459297568535,7.60383144103,1.20945265085,0.220489616722,-0.122656136102,0.6624223287,0.705362644059,0.0,0.0,0.0,0.0,0.0,0.0,-0.00690496792339,2.04679047602,2.29895784744,-0.611986592679,0.357974926982,0.10383834475
18122000000,ocean_waves,wamv,0.0,0.0,0.0,0.0,0.0,0.0,1.0,0.459290306151,7.60587770584,1.2117498302,0.22039726713,-0.122314076663,0.662457205127,0.70541814739,0.0,0.0,0.0,0.0,0.0,0.0,-0.00726683619557,2.04623991215,2.2972388377,-0.616486997112,0.358438928661,0.103854395155
18123000000,ocean_waves,wamv,0.0,0.0,0.0,0.0,0.0,0.0,1.0,0.459282680872,7.60792341937,1.21404529232,0.220303455842,-0.121970344922,0.662492224768,0.705474077784,0.0,0.0,0.0,0.0,0.0,0.0,-0.00762976727959,2.04568835731,2.29552228278,-0.620988150227,0.358902993652,0.103870191396
18124000000,ocean_waves,wamv,0.0,0.0,0.0,0.0,0.0,0.0,1.0,0.459274692733,7.60996858091,1.21633904445,0.2202081812,-0.121624943091,0.662527385764,0.705530433974,0.0,0.0,0.0,0.0,0.0,0.0,-0.0079926622604,2.04513607131,2.29381298307,-0.625487801552,0.359362071798,0.103884346934
18125000000,ocean_waves,wamv,0.0,0.0,0.0,0.0,0.0,0.0,1.0,0.459266342437,7.61201318987,1.21863109669,0.220111440969,-0.121277874979,0.662562686213,0.705587214619,0.0,0.0,0.0,0.0,0.0,0.0,-0.00835485540994,2.04458320616,2.29211377905,-0.629984608742,0.359813141859,0.10389605018
18126000000,ocean_waves,wamv,0.0,0.0,0.0,0.0,0.0,0.0,1.0,0.459257631185,7.61405724578,1.22092146122,0.220013232484,-0.120929145585,0.662598124182,0.705644418323,0.0,0.0,0.0,0.0,0.0,0.0,-0.00871584522315,2.04402987261,2.29042676136,-0.634477577251,0.360253955675,0.103904708298
18127000000,ocean_waves,wamv,0.0,0.0,0.0,0.0,0.0,0.0,1.0,0.459248560608,7.61610074827,1.22321015197,0.219913552714,-0.120578760906,0.662633697714,0.705702043645,0.0,0.0,0.0,0.0,0.0,0.0,-0.00907520500902,2.04347616288,2.2887536759,-0.638965872885,0.360682618353,0.103909828146
18128000000,ocean_waves,wamv,0.0,0.0,0.0,0.0,0.0,0.0,1.0,0.459239132716,7.61814369704,1.2254971844,0.219812398304,-0.120226727825,0.662669404833,0.7057600891,0.0,0.0,0.0,0.0,0.0,0.0,-0.00943255419352,2.04292215803,2.28709605594,-0.643448761034,0.361097452053,0.103910977254
18129000000,ocean_waves,wamv,0.0,0.0,0.0,0.0,0.0,0.0,1.0,0.459229349867,7.62018609188,1.22778257537,0.219709765605,-0.119873054027,0.662705243547,0.705818553165,0.0,0.0,0.0,0.0,0.0,0.0,-0.00978754441798,2.04236793153,2.28545528756,-0.647925576766,0.361496928862,0.103907764352
18130000000,ocean_waves,wamv,0.0,0.0,0.0,0.0,0.0,0.0,1.0,0.459219214744,7.62222793263,1.23006634299,0.219605650693,-0.119517747939,0.662741211846,0.705877434285,0.0,0.0,0.0,0.0,0.0,0.0,-0.0101398519167,2.04181355131,2.28383264685,-0.652395707973,0.361879632924,0.103899828213
18131000000,ocean_waves,wamv,0.0,0.0,0.0,0.0,0.0,0.0,1.0,0.459208730333,7.62426921919,1.23234850658,0.219500049384,-0.119160818686,0.662777307708,0.705936730874,0.0,0.0,0.0,0.0,0.0,0.0,-0.0104891729034,2.04125908104,2.28222932366,-0.656858584729,0.362244236541,0.103886830488
18132000000,ocean_waves,wamv,0.0,0.0,0.0,0.0,0.0,0.0,1.0,0.459197899905,7.62630995155,1.23462908657,0.21939295725,-0.118802276047,0.662813529099,0.705996441321,0.0,0.0,0.0,0.0,0.0,0.0,-0.0108352213615,2.0407045808,2.28064643451,-0.661313673589,0.362589487434,0.103868451727
18133000000,ocean_waves,wamv,0.0,0.0,0.0,0.0,0.0,0.0,1.0,0.459186727004,7.62835012972,1.23690810446,0.219284369627,-0.118442130424,0.662849873973,0.706056563989,0.0,0.0,0.0,0.0,0.0,0.0,-0.0111777260853,2.04015010799,2.27908503891,-0.665760470262,0.362914192477,0.103844386478
18134000000,ocean_waves,wamv,0.0,0.0,0.0,0.0,0.0,0.0,1.0,0.45917521543,7.6303897538,1.23918558275,0.219174281625,-0.118080392814,0.662886340269,0.706117097224,0.0,0.0,0.0,0.0,0.0,0.0,-0.0115164301346,2.03959571758,2.27754614478,-0.670198497248,0.363217212653,0.103814341581
18135000000,ocean_waves,wamv,0.0,0.0,0.0,0.0,0.0,0.0,1.0,0.459163369228,7.63242882391,1.24146154489,0.219062688138,-0.117717074781,0.662922925917,0.706178039353,0.0,0.0,0.0,0.0,0.0,0.0,-0.0118510895935,2.03904146261,2.276030717,-0.674627299984,0.363497454848,0.103778033648
18136000000,ocean_waves,wamv,0.0,0.0,0.0,0.0,0.0,0.0,1.0,0.459151192671,7.63446734024,1.24373601529,0.21894958385,-0.117352188439,0.662959628834,0.706239388689,0.0,0.0,0.0,0.0,0.0,0.0,-0.0121814734218,2.03848739435,2.27453968078,-0.679046445234,0.363753868828,0.103735188064
18137000000,ocean_waves,wamv,0.0,0.0,0.0,0.0,0.0,0.0,1.0,0.459138690254,7.63650530303,1.24600901921,0.21883496324,-0.116985746424,0.662996446927,0.706301143535,0.0,0.0,0.0,0.0,0.0,0.0,-0.0125073630742,2.03793356255,2.27307392588,-0.68345551904,0.363985443382,0.103685537846
18138000000,ocean_waves,wamv,0.0,0.0,0.0,0.0,0.0,0.0,1.0,0.459125866678,7.63854271256,1.24828058281,0.21871882059,-0.116617761882,0.663033378089,0.706363302185,0.0,0.0,0.0,0.0,0.0,0.0,-0.0128285512312,2.03738001592,2.2716343143,-0.687854122892,0.364191198657,0.103628821575
18139000000,ocean_waves,wamv,0.0,0.0,0.0,0.0,0.0,0.0,1.0,0.459112726838,7.64057956917,1.25055073306,0.218601149993,-0.116248248451,0.663070420199,0.706425862926,0.0,0.0,0.0,0.0,0.0,0.0,-0.0131448428535,2.03682680193,2.27022167711,-0.692241874868,0.364370189766,0.103564784564
18140000000,ocean_waves,wamv,0.0,0.0,0.0,0.0,0.0,0.0,1.0,0.459099275815,7.64261587324,1.25281949773,0.218481945351,-0.115877220241,0.663107571128,0.706488824043,0.0,0.0,0.0,0.0,0.0,0.0,-0.0134560538574,2.03627396728,2.26883682106,-0.696618406046,0.364521499917,0.103493177288
18141000000,ocean_waves,wamv,0.0,0.0,0.0,0.0,0.0,0.0,1.0,0.459085518862,7.64465162518,1.2550869054,0.21836120039,-0.115504691827,0.663144828729,0.70655218382,0.0,0.0,0.0,0.0,0.0,0.0,-0.0137620105524,2.03572155806,2.26748053107,-0.700983358781,0.364644237809,0.103413755156
18142000000,ocean_waves,wamv,0.0,0.0,0.0,0.0,0.0,0.0,1.0,0.459071461395,7.64668682548,1.25735298539,0.218238908657,-0.115130678233,0.663182190846,0.706615940538,0.0,0.0,0.0,0.0,0.0,0.0,-0.0140625500149,2.03516961966,2.26615356747,-0.705336387257,0.364737540169,0.103326279869
18144000000,ocean_waves,wamv,0.0,0.0,0.0,0.0,0.0,0.0,1.0,0.459057108987,7.64872147464,1.25961776777,0.21811506353,-0.114755194918,0.663219655309,0.706680092483,0.0,0.0,0.0,0.0,0.0,0.0,-0.0143575176907,2.03461819731,2.2648566745,-0.709677152721,0.364800562313,0.103230517651
18144000000,ocean_waves,wamv,0.0,0.0,0.0,0.0,0.0,0.0,1.0,0.459042467352,7.65075557322,1.26188128333,0.217989658221,-0.114378257771,0.663257219937,0.706744637942,0.0,0.0,0.0,0.0,0.0,0.0,-0.0146467679278,2.03406733585,2.26359057481,-0.714005325199,0.364832483188,0.103126241631
18145000000,ocean_waves,wamv,0.0,0.0,0.0,0.0,0.0,0.0,1.0,0.459027542349,7.65278912184,1.26414356358,0.217862685777,-0.1139998831,0.663294882537,0.706809575204,0.0,0.0,0.0,0.0,0.0,0.0,-0.014930161669,2.03351708012,2.26235597542,-0.718320579806,0.364832498121,0.103013230965
18146000000,ocean_waves,wamv,0.0,0.0,0.0,0.0,0.0,0.0,1.0,0.459012339963,7.65482212114,1.2664046407,0.217734139093,-0.113620087619,0.663332640906,0.706874902561,0.0,0.0,0.0,0.0,0.0,0.0,-0.0152075662105,2.03296747481,2.26115356365,-0.72262259775,0.364799821893,0.102891272902
18146000000,ocean_waves,wamv,0.0,0.0,0.0,0.0,0.0,0.0,1.0,0.458996866315,7.65685457181,1.26866454756,0.217604010908,-0.113238888451,0.663370492836,0.706940618308,0.0,0.0,0.0,0.0,0.0,0.0,-0.0154788519376,2.03241856498,2.25998401574,-0.726911061477,0.364733678428,0.102760161223
18149000000,ocean_waves,wamv,0.0,0.0,0.0,0.0,0.0,0.0,1.0,0.458981127649,7.6588864746,1.27092331769,0.217472293812,-0.112856303115,0.663408436109,0.707006720739,0.0,0.0,0.0,0.0,0.0,0.0,-0.0157438918757,2.0318703959,2.25884799249,-0.731185655942,0.364633303926,0.102619698353
18149000000,ocean_waves,wamv,0.0,0.0,0.0,0.0,0.0,0.0,1.0,0.458965130335,7.66091783029,1.27318098524,0.217338980248,-0.112472349524,0.663446468507,0.70707320815,0.0,0.0,0.0,0.0,0.0,0.0,-0.0160025601071,2.03132301304,2.25774613979,-0.735446067726,0.364497944903,0.102469695993
18151000000,ocean_waves,wamv,0.0,0.0,0.0,0.0,0.0,0.0,1.0,0.458948880871,7.66294863971,1.27543758504,0.217204062517,-0.112087045982,0.663484587808,0.707140078832,0.0,0.0,0.0,0.0,0.0,0.0,-0.0162547302803,2.0307764622,2.2566790889,-0.73969198443,0.364326856543,0.102309975708
18151000000,ocean_waves,wamv,0.0,0.0,0.0,0.0,0.0,0.0,1.0,0.458932385883,7.66497890374,1.27769315249,0.217067532781,-0.111700411177,0.663522791795,0.707207331073,0.0,0.0,0.0,0.0,0.0,0.0,-0.0165002741839,2.03023078942,2.25564745697,-0.743923094147,0.364119300991,0.102140369291
18152000000,ocean_waves,wamv,0.0,0.0,0.0,0.0,0.0,0.0,1.0,0.458915652128,7.66700862331,1.27994772363,0.216929383063,-0.111312464182,0.663561078256,0.707274963155,0.0,0.0,0.0,0.0,0.0,0.0,-0.0167390599411,2.02968604122,2.2546518499,-0.748139083985,0.36387454328,0.101960718254
18153000000,ocean_waves,wamv,0.0,0.0,0.0,0.0,0.0,0.0,1.0,0.458898686498,7.66903779937,1.28220133507,0.21678960525,-0.11092322445,0.663599444987,0.707342973349,0.0,0.0,0.0,0.0,0.0,0.0,-0.0169709523361,2.02914226424,2.25369285692,-0.752339642693,0.363591856328,0.101770875494
18155000000,ocean_waves,wamv,0.0,0.0,0.0,0.0,0.0,0.0,1.0,0.458881496026,7.67106643296,1.284454024,0.216648191099,-0.110532711812,0.663637889799,0.707411359915,0.0,0.0,0.0,0.0,0.0,0.0,-0.0171958108426,2.02859950547,2.25277105638,-0.756524458191,0.363270514393,0.101570703555
18155000000,ocean_waves,wamv,0.0,0.0,0.0,0.0,0.0,0.0,1.0,0.458864087893,7.67309452513,1.2867058282,0.216505132231,-0.110140946476,0.663676410517,0.707480121099,0.0,0.0,0.0,0.0,0.0,0.0,-0.0174134891823,2.0280578123,2.25188701598,-0.76069321785,0.36290979263,0.101360074264
18156000000,ocean_waves,wamv,0.0,0.0,0.0,0.0,0.0,0.0,1.0,0.458846469426,7.675122077,1.28895678595,0.216360420139,-0.109747949023,0.663715004985,0.707549255133,0.0,0.0,0.0,0.0,0.0,0.0,-0.0176238372801,2.02751723185,2.25104128379,-0.764845613245,0.362508976744,0.101138870826
18158000000,ocean_waves,wamv,0.0,0.0,0.0,0.0,0.0,0.0,1.0,0.458828648112,7.67714908972,1.29120693613,0.216214046188,-0.109353740402,0.663753671072,0.70761876023,0.0,0.0,0.0,0.0,0.0,0.0,-0.0178266986605,2.02697781167,2.25023440022,-0.768981335144,0.362067350696,0.100906983797
18158000000,ocean_waves,wamv,0.0,0.0,0.0,0.0,0.0,0.0,1.0,0.458810631598,7.6791755645,1.2934563181,0.216066001613,-0.108958341934,0.663792406669,0.707688634583,0.0,0.0,0.0,0.0,0.0,0.0,-0.0180219121206,2.0264395993,2.24946689236,-0.773100076883,0.361584203369,0.100664311989
18159000000,ocean_waves,wamv,0.0,0.0,0.0,0.0,0.0,0.0,1.0,0.458792427695,7.6812015026,1.29570497176,0.215916277524,-0.108561775298,0.663831209697,0.707758876368,0.0,0.0,0.0,0.0,0.0,0.0,-0.0182093137829,2.02590264179,2.24873926733,-0.777201538203,0.361058836331,0.100410763539
18160000000,ocean_waves,wamv,0.0,0.0,0.0,0.0,0.0,0.0,1.0,0.458774044383,7.68322690531,1.29795293749,0.215764864906,-0.108164062535,0.663870078103,0.707829483737,0.0,0.0,0.0,0.0,0.0,0.0,-0.0183887341262,2.02536698664,2.24805202817,-0.781285418527,0.360490547947,0.100146250581
18162000000,ocean_waves,wamv,0.0,0.0,0.0,0.0,0.0,0.0,1.0,0.458755489813,7.68525177399,1.30020025615,0.215611754621,-0.107765226038,0.663909009868,0.707900454826,0.0,0.0,0.0,0.0,0.0,0.0,-0.0185600023605,2.02483268071,2.24740565813,-0.785351425096,0.359878650998,0.0998706928667
18162000000,ocean_waves,wamv,0.0,0.0,0.0,0.0,0.0,0.0,1.0,0.45873677231,7.68727611002,1.30244696911,0.215456937406,-0.107365288552,0.663948003005,0.707971787745,0.0,0.0,0.0,0.0,0.0,0.0,-0.0187229450146,2.02429977081,2.24680063037,-0.789399269127,0.35922246341,0.0995840142116
18163000000,ocean_waves,wamv,0.0,0.0,0.0,0.0,0.0,0.0,1.0,0.458717900372,7.68929991486,1.30469311816,0.215300403882,-0.106964273161,0.66398705556,0.708043480589,0.0,0.0,0.0,0.0,0.0,0.0,-0.0188773883583,2.02376830318,2.24623740108,-0.793428669726,0.358521316535,0.0992861436752
18164000000,ocean_waves,wamv,0.0,0.0,0.0,0.0,0.0,0.0,1.0,0.458698882673,7.69132318998,1.30693874554,0.215142144543,-0.10656220329,0.664026165611,0.708115531432,0.0,0.0,0.0,0.0,0.0,0.0,-0.0190231568227,2.02323832408,2.24571642001,-0.797439349596,0.357774544961,0.098977011897
18165000000,ocean_waves,wamv,0.0,0.0,0.0,0.0,0.0,0.0,1.0,0.458679728061,7.69334593691,1.30918389395,0.214982149772,-0.106159102691,0.664065331275,0.708187938329,0.0,0.0,0.0,0.0,0.0,0.0,-0.0191600770067,2.02270987892,2.24523811667,-0.801431042128,0.356981502038,0.0986565543498
18167000000,ocean_waves,wamv,0.0,0.0,0.0,0.0,0.0,0.0,1.0,0.458660445554,7.69536815725,1.31142860649,0.21482040983,-0.105754995442,0.664104550699,0.70826069932,0.0,0.0,0.0,0.0,0.0,0.0,-0.0192879760156,2.0221830128,2.2448029111,-0.805403486922,0.356141549368,0.0983247077586
18167000000,ocean_waves,wamv,0.0,0.0,0.0,0.0,0.0,0.0,1.0,0.458641044344,7.6973898526,1.31367292665,0.214656914865,-0.105349905932,0.664143822065,0.708333812431,0.0,0.0,0.0,0.0,0.0,0.0,-0.0194066839836,2.02165777007,2.24441120639,-0.809356433839,0.355254065553,0.0979814117163
18168000000,ocean_waves,wamv,0.0,0.0,0.0,0.0,0.0,0.0,1.0,0.458621533787,7.69941102463,1.31591689834,0.214491654912,-0.10494385886,0.664183143592,0.708407275675,0.0,0.0,0.0,0.0,0.0,0.0,-0.0195160331218,2.0211341947,2.24406339612,-0.813289639947,0.354318439001,0.0976266061581
18169000000,ocean_waves,wamv,0.0,0.0,0.0,0.0,0.0,0.0,1.0,0.458601923406,7.70143167506,1.31816056583,0.214324619892,-0.104536879224,0.664222513527,0.708481087054,0.0,0.0,0.0,0.0,0.0,0.0,-0.0196158593205,2.02061233,2.24375986084,-0.817202871658,0.353334072468,0.0972602320122
18170000000,ocean_waves,wamv,0.0,0.0,0.0,0.0,0.0,0.0,1.0,0.458582222883,7.70345180563,1.32040397378,0.214155799617,-0.104128992315,0.664261930155,0.708555244563,0.0,0.0,0.0,0.0,0.0,0.0,-0.0197060028505,2.02009221867,2.24350096835,-0.82109590498,0.352300383446,0.096882230816
18171000000,ocean_waves,wamv,0.0,0.0,0.0,0.0,0.0,0.0,1.0,0.458562442052,7.70547141813,1.32264716718,0.213985183789,-0.103720223703,0.664301391787,0.708629746188,0.0,0.0,0.0,0.0,0.0,0.0,-0.0197863099834,2.01957390245,2.24328707,-0.824968527583,0.351216808746,0.0964925454897
18172000000,ocean_waves,wamv,0.0,0.0,0.0,0.0,0.0,0.0,1.0,0.458542590897,7.70749051441,1.32489019137,0.213812762005,-0.103310599233,0.66434089677,0.708704589917,0.0,0.0,0.0,0.0,0.0,0.0,-0.0198566320909,2.01905742257,2.24311850796,-0.828820535664,0.350082797491,0.0960911181259
18173000000,ocean_waves,wamv,0.0,0.0,0.0,0.0,0.0,0.0,1.0,0.458522679542,7.70950909634,1.32713309201,0.213638523757,-0.102900145009,0.664380443475,0.708779773733,0.0,0.0,0.0,0.0,0.0,0.0,-0.0199168288465,2.01854281909,2.2429956047,-0.832651739102,0.348897822926,0.0956778927688
18175000000,ocean_waves,wamv,0.0,0.0,0.0,0.0,0.0,0.0,1.0,0.458502718248,7.71152716582,1.3293759151,0.213462458433,-0.102488887393,0.664420030304,0.708855295622,0.0,0.0,0.0,0.0,0.0,0.0,-0.0199667647101,2.01803013203,2.24291868139,-0.836461952882,0.347661363487,0.0952528102176
18175000000,ocean_waves,wamv,0.0,0.0,0.0,0.0,0.0,0.0,1.0,0.458482717399,7.71354472482,1.3316187069,0.213284555323,-0.102076852989,0.664459655686,0.708931153576,0.0,0.0,0.0,0.0,0.0,0.0,-0.0200063147322,2.01751939995,2.24288803601,-0.840251007446,0.346372926687,0.0948158140959
18177000000,ocean_waves,wamv,0.0,0.0,0.0,0.0,0.0,0.0,1.0,0.458462687495,7.71556177533,1.333861514,0.213104803617,-0.101664068634,0.664499318072,0.709007345594,0.0,0.0,0.0,0.0,0.0,0.0,-0.0200353617082,2.01701066098,2.24290395839,-0.844018741459,0.345032033603,0.0943668467194
18177000000,ocean_waves,wamv,0.0,0.0,0.0,0.0,0.0,0.0,1.0,0.458442639149,7.71757831937,1.33610438325,0.212923192411,-0.101250561393,0.66453901594,0.709083869683,0.0,0.0,0.0,0.0,0.0,0.0,-0.020053797614,2.01650395252,2.24296672655,-0.847765003332,0.343638223286,0.0939058502829
18178000000,ocean_waves,wamv,0.0,0.0,0.0,0.0,0.0,0.0,1.0,0.458422583067,7.71959435901,1.33834736175,0.212739710709,-0.100836358542,0.664578747788,0.709160723865,0.0,0.0,0.0,0.0,0.0,0.0,-0.0200615238372,2.01599931141,2.24307660752,-0.851489650416,0.342191052127,0.0934327668667
18179000000,ocean_waves,wamv,0.0,0.0,0.0,0.0,0.0,0.0,1.0,0.458402530047,7.72160989635,1.34059049689,0.212554347424,-0.100421487566,0.664618512135,0.709237906173,0.0,0.0,0.0,0.0,0.0,0.0,-0.0200584514897,2.01549677393,2.24323385719,-0.855192548558,0.340690094214,0.0929475388543
18180000000,ocean_waves,wamv,0.0,0.0,0.0,0.0,0.0,0.0,1.0,0.458382490964,7.72362493352,1.34283383629,0.212367091385,-0.100005976146,0.664658307522,0.70931541466,0.0,0.0,0.0,0.0,0.0,0.0,-0.0200445022714,2.01499637564,2.24343871692,-0.858873573047,0.339134944945,0.0924501103692
18181000000,ocean_waves,wamv,0.0,0.0,0.0,0.0,0.0,0.0,1.0,0.458362476764,7.72563947271,1.34507742777,0.212177931337,-0.0995898521507,0.664698132504,0.709393247393,0.0,0.0,0.0,0.0,0.0,0.0,-0.0200196072881,2.01449815172,2.24369141779,-0.862532605758,0.337525216188,0.0919404267145
18182000000,ocean_waves,wamv,0.0,0.0,0.0,0.0,0.0,0.0,1.0,0.45834249845,7.72765351612,1.34732131943,0.211986855946,-0.0991731436272,0.664737985658,0.709471402462,0.0,0.0,0.0,0.0,0.0,0.0,-0.0199837065045,2.01400213712,2.24399218105,-0.866169534018,0.335860535303,0.0914184350185
18183000000,ocean_waves,wamv,0.0,0.0,0.0,0.0,0.0,0.0,1.0,0.45832256708,7.72966706599,1.34956555952,0.211793853804,-0.0987558787968,0.664777865576,0.709549877975,0.0,0.0,0.0,0.0,0.0,0.0,-0.0199367480867,2.01350836658,2.24434121776,-0.869784249725,0.334140544713,0.090884085209
18184000000,ocean_waves,wamv,0.0,0.0,0.0,0.0,0.0,0.0,1.0,0.458302693753,7.7316801246,1.35181019654,0.21159891343,-0.0983380860476,0.664817770868,0.709628672058,0.0,0.0,0.0,0.0,0.0,0.0,-0.0198786871619,2.01301687482,2.24473872979,-0.873376647798,0.332364899826,0.0903373307393
18185000000,ocean_waves,wamv,0.0,0.0,0.0,0.0,0.0,0.0,1.0,0.45828288961,7.73369269425,1.35405527915,0.211402023274,-0.0979197939269,0.664857700159,0.70970778286,0.0,0.0,0.0,0.0,0.0,0.0,-0.0198094855153,2.01252769634,2.24518490564,-0.876946627037,0.330533272197,0.0897781307902
18186000000,ocean_waves,wamv,0.0,0.0,0.0,0.0,0.0,0.0,1.0,0.458263165824,7.7357047773,1.35630085621,0.211203171723,-0.0975010311391,0.664897652097,0.709787208547,0.0,0.0,0.0,0.0,0.0,0.0,-0.0197291081943,2.01204086601,2.24567992849,-0.880494085209,0.328645339391,0.0892064491584
18188000000,ocean_waves,wamv,0.0,0.0,0.0,0.0,0.0,0.0,1.0,0.458243533602,7.73771637613,1.35854697673,0.211002347103,-0.0970818265399,0.664937625347,0.709866947301,0.0,0.0,0.0,0.0,0.0,0.0,-0.0196375236487,2.01155641866,2.24622396858,-0.884018921681,0.326700791571,0.0886222574429
18188000000,ocean_waves,wamv,0.0,0.0,0.0,0.0,0.0,0.0,1.0,0.45822400418,7.73972749315,1.3607936899,0.210799537681,-0.0966622091311,0.664977618595,0.709946997322,0.0,0.0,0.0,0.0,0.0,0.0,-0.0195347020463,2.01107438912,2.2468171829,-0.887521036677,0.324699330091,0.0880255361316
18189000000,ocean_waves,wamv,0.0,0.0,0.0,0.0,0.0,0.0,1.0,0.458204588824,7.74173813081,1.36304104504,0.210594731671,-0.0962422080607,0.665017630553,0.710027356821,0.0,0.0,0.0,0.0,0.0,0.0,-0.0194206116167,2.01059481273,2.24745972333,-0.891000326718,0.32264065715,0.0874162732968
18190000000,ocean_waves,wamv,0.0,0.0,0.0,0.0,0.0,0.0,1.0,0.458185298837,7.7437482916,1.36528909164,0.210387917233,-0.095821852621,0.665057659959,0.710108024017,0.0,0.0,0.0,0.0,0.0,0.0,-0.019295218051,2.01011772513,2.2481517321,-0.894456686267,0.320524479066,0.0867944665584
18191000000,ocean_waves,wamv,0.0,0.0,0.0,0.0,0.0,0.0,1.0,0.458166145558,7.74575797804,1.36753787929,0.210179082478,-0.0954011722455,0.66509770558,0.710188997138,0.0,0.0,0.0,0.0,0.0,0.0,-0.0191584839146,2.00964316192,2.24889333805,-0.89789000926,0.318350509038,0.0861601246403
18192000000,ocean_waves,wamv,0.0,0.0,0.0,0.0,0.0,0.0,1.0,0.458147140368,7.7477671927,1.36978745771,0.209968215469,-0.0949801965075,0.665137766217,0.710270274414,0.0,0.0,0.0,0.0,0.0,0.0,-0.0190103665518,2.00917115892,2.24968466015,-0.901300187351,0.3161184622,0.0855132666665
18193000000,ocean_waves,wamv,0.0,0.0,0.0,0.0,0.0,0.0,1.0,0.458128294697,7.74977593816,1.37203787674,0.209755304225,-0.0945589551172,0.665177840707,0.710351854075,0.0,0.0,0.0,0.0,0.0,0.0,-0.0188508182293,2.00870175176,2.25052580302,-0.904687112279,0.313828059828,0.0848539234287
18195000000,ocean_waves,wamv,0.0,0.0,0.0,0.0,0.0,0.0,1.0,0.45810962003,7.75178421706,1.37428918629,0.20954033672,-0.0941374779223,0.665217927928,0.710433734349,0.0,0.0,0.0,0.0,0.0,0.0,-0.0186797835884,2.0082349764,2.25141686501,-0.908050672376,0.311479020183,0.0841821349465
18195000000,ocean_waves,wamv,0.0,0.0,0.0,0.0,0.0,0.0,1.0,0.458091127913,7.75379203206,1.37654143637,0.209323300886,-0.0937157949051,0.665258026798,0.710515913454,0.0,0.0,0.0,0.0,0.0,0.0,-0.0184972012526,2.00777086849,2.25235793028,-0.911390756926,0.30907106705,0.0834979521564
18196000000,ocean_waves,wamv,0.0,0.0,0.0,0.0,0.0,0.0,1.0,0.458072829961,7.75579938586,1.37879467707,0.209104184612,-0.0932939361803,0.665298136284,0.710598389603,0.0,0.0,0.0,0.0,0.0,0.0,-0.018303003127,2.00730946348,2.25334907198,-0.914707255378,0.306603926682,0.0828014353895
18196000000,ocean_waves,wamv,0.0,0.0,0.0,0.0,0.0,0.0,1.0,0.458054737862,7.75780628119,1.38104895853,0.20888297575,-0.092871931993,0.665338255399,0.710681160995,0.0,0.0,0.0,0.0,0.0,0.0,-0.018097114722,2.00685079654,2.25439035219,-0.918000058157,0.304077328373,0.0820926535288
18196000000,ocean_waves,wamv,0.0,0.0,0.0,0.0,0.0,0.0,1.0,0.458036863385,7.75981272084,1.38330433094,0.208659662111,-0.0924498127132,0.665378383207,0.710764225815,0.0,0.0,0.0,0.0,0.0,0.0,-0.017879456742,2.00639490217,2.25548181779,-0.921269059568,0.301491009907,0.081371684201
18199000000,ocean_waves,wamv,0.0,0.0,0.0,0.0,0.0,0.0,1.0,0.458019218381,7.7618187076,1.38556084452,0.20843423147,-0.0920276088327,0.665418518826,0.710847582234,0.0,0.0,0.0,0.0,0.0,0.0,-0.0176499448505,2.00594181438,2.25662350456,-0.924514156722,0.298844714069,0.0806386116247
18200000000,ocean_waves,wamv,0.0,0.0,0.0,0.0,0.0,0.0,1.0,0.458001814792,7.76382424431,1.38781854954,0.208206671564,-0.0916053509608,0.665458661426,0.710931228408,0.0,0.0,0.0,0.0,0.0,0.0,-0.0174084905939,2.00549156657,2.25781543711,-0.927735250498,0.296138189902,0.0798935255949
18202000000,ocean_waves,wamv,0.0,0.0,0.0,0.0,0.0,0.0,1.0,0.457984664648,7.76582933385,1.39007749623,0.207976970097,-0.0911830698171,0.665498810232,0.711015162474,0.0,0.0,0.0,0.0,0.0,0.0,-0.0171550035462,2.00504419116,2.25905762402,-0.930932248771,0.293371199189,0.0791365217599
18202000000,ocean_waves,wamv,0.0,0.0,0.0,0.0,0.0,0.0,1.0,0.457967780075,7.76783397911,1.39233773488,0.207745114739,-0.0907607962288,0.665538964523,0.711099382556,0.0,0.0,0.0,0.0,0.0,0.0,-0.0168893901042,2.00459972006,2.26035006714,-0.934105062822,0.290543507583,0.0783676981416
18205000000,ocean_waves,wamv,0.0,0.0,0.0,0.0,0.0,0.0,1.0,0.457951173291,7.76983818303,1.39459931572,0.207511093124,-0.0903385611217,0.665579123636,0.711183886758,0.0,0.0,0.0,0.0,0.0,0.0,-0.0166115566461,2.00415818406,2.26169275266,-0.937253612407,0.287654895429,0.077587156612
18205000000,ocean_waves,wamv,0.0,0.0,0.0,0.0,0.0,0.0,1.0,0.457934856606,7.77184194857,1.39686228898,0.207274892861,-0.089916395512,0.665619286959,0.711268673172,0.0,0.0,0.0,0.0,0.0,0.0,-0.0163214106041,2.00371961265,2.26308565092,-0.940377826635,0.284705159172,0.0767950021224
18205000000,ocean_waves,wamv,0.0,0.0,0.0,0.0,0.0,0.0,1.0,0.457918842425,7.77384527872,1.39912670483,0.207036501524,-0.0894943305012,0.665659453935,0.711353739873,0.0,0.0,0.0,0.0,0.0,0.0,-0.0160188592004,2.00328403467,2.26452872571,-0.943477640188,0.281694102254,0.0759913394706
18206000000,ocean_waves,wamv,0.0,0.0,0.0,0.0,0.0,0.0,1.0,0.457903143241,7.77584817651,1.4013926134,0.206795906662,-0.0890723972661,0.665699624061,0.711439084925,0.0,0.0,0.0,0.0,0.0,0.0,-0.015703812695,2.00285147753,2.26602192476,-0.94655299855,0.27862154649,0.0751762752115
18207000000,ocean_waves,wamv,0.0,0.0,0.0,0.0,0.0,0.0,1.0,0.457887771634,7.77785064497,1.40366006476,0.206553095796,-0.0886506270486,0.665739796882,0.711524706379,0.0,0.0,0.0,0.0,0.0,0.0,-0.0153761851216,2.0024219672,2.26756518043,-0.94960385824,0.275487332171,0.0743499168917
18208000000,ocean_waves,wamv,0.0,0.0,0.0,0.0,0.0,0.0,1.0,0.457872740265,7.77985268718,1.40592910889,0.206308056426,-0.0882290511498,0.665779971996,0.711610602279,0.0,0.0,0.0,0.0,0.0,0.0,-0.015035893032,2.0019955288,2.26915841869,-0.952630183061,0.272291309227,0.0735123702085
18209000000,ocean_waves,wamv,0.0,0.0,0.0,0.0,0.0,0.0,1.0,0.457858061876,7.78185430624,1.40819979569,0.206060776023,-0.0878077009185,0.665820149047,0.711696770659,0.0,0.0,0.0,0.0,0.0,0.0,-0.0146828586636,2.00157218585,2.27080154955,-0.955631949152,0.269033348391,0.0726637411393
18209000000,ocean_waves,wamv,0.0,0.0,0.0,0.0,0.0,0.0,1.0,0.45784374928,7.78385550525,1.41047217496,0.205811242042,-0.0873866077426,0.665860327726,0.711783209549,0.0,0.0,0.0,0.0,0.0,0.0,-0.0143170094508,2.00115196063,2.2724944727,-0.95860914271,0.265713335878,0.071804134123
18211000000,ocean_waves,wamv,0.0,0.0,0.0,0.0,0.0,0.0,1.0,0.457829815354,7.78585628736,1.41274629637,0.205559441916,-0.0869658030373,0.665900507767,0.711869916977,0.0,0.0,0.0,0.0,0.0,0.0,-0.0139382801281,2.00073487374,2.27423707232,-0.961561762813,0.262331179759,0.0709336531551
18212000000,ocean_waves,wamv,0.0,0.0,0.0,0.0,0.0,0.0,1.0,0.457816273037,7.78785665572,1.41502220949,0.205305363062,-0.0865453182376,0.665940688944,0.711956890969,0.0,0.0,0.0,0.0,0.0,0.0,-0.0135466112867,2.00032094481,2.27602922657,-0.96448981713,0.258886800346,0.070052399078
18213000000,ocean_waves,wamv,0.0,0.0,0.0,0.0,0.0,0.0,1.0,0.457803135316,7.78985661351,1.41729996374,0.20504899288,-0.0861251847842,0.665980871072,0.712044129553,0.0,0.0,0.0,0.0,0.0,0.0,-0.0131419533563,1.99991019148,2.27787079459,-0.967393328349,0.255380145079,0.0691604728638
18214000000,ocean_waves,wamv,0.0,0.0,0.0,0.0,0.0,0.0,1.0,0.457790415221,7.79185616391,1.41957960839,0.204790318759,-0.0857054341156,0.666021054001,0.712131630763,0.0,0.0,0.0,0.0,0.0,0.0,-0.0127242642298,1.99950263035,2.27976162964,-0.970272327925,0.251811174857,0.0682579720781
18215000000,ocean_waves,wamv,0.0,0.0,0.0,0.0,0.0,0.0,1.0,0.457778125811,7.79385531014,1.42186119253,0.204529328075,-0.0852860976563,0.666061237614,0.71221939264,0.0,0.0,0.0,0.0,0.0,0.0,-0.0122935119934,1.99909827641,2.28170157095,-0.973126859942,0.248179873542,0.0673449930261
18216000000,ocean_waves,wamv,0.0,0.0,0.0,0.0,0.0,0.0,1.0,0.457766280172,7.79585405541,1.42414476513,0.204266008199,-0.0848672068067,0.666101421827,0.712307413231,0.0,0.0,0.0,0.0,0.0,0.0,-0.0118496745483,1.99869714337,2.28369044805,-0.975956978832,0.244486243761,0.0664216297041
18217000000,ocean_waves,wamv,0.0,0.0,0.0,0.0,0.0,0.0,1.0,0.457754891398,7.79785240295,1.42643037493,0.204000346493,-0.0844487929337,0.666141606581,0.712395690599,0.0,0.0,0.0,0.0,0.0,0.0,-0.0113927399197,1.99829924376,2.28572808182,-0.978762748539,0.240730306212,0.0654879737357
18218000000,ocean_waves,wamv,0.0,0.0,0.0,0.0,0.0,0.0,1.0,0.457743972584,7.79985035601,1.42871807051,0.203732330319,-0.0840308873581,0.666181791846,0.712484222819,0.0,0.0,0.0,0.0,0.0,0.0,-0.0109227079154,1.99790458861,2.28781427923,-0.98154424451,0.23691210562,0.0645441160444
18219000000,ocean_waves,wamv,0.0,0.0,0.0,0.0,0.0,0.0,1.0,0.457733536816,7.80184791785,1.43100790022,0.203461947039,-0.0836135213462,0.666221977611,0.712573007981,0.0,0.0,0.0,0.0,0.0,0.0,-0.0104395888988,1.99751318796,2.28994883926,-0.984301550199,0.233031704427,0.0635901457832
18220000000,ocean_waves,wamv,0.0,0.0,0.0,0.0,0.0,0.0,1.0,0.457723597157,7.80384509171,1.43329991223,0.203189184021,-0.0831967260985,0.666262163889,0.712662044193,0.0,0.0,0.0,0.0,0.0,0.0,-0.00994340482221,1.9971250506,2.29213154843,-0.987034758378,0.229089187534,0.0626261520954
18221000000,ocean_waves,wamv,0.0,0.0,0.0,0.0,0.0,0.0,1.0,0.457714166638,7.80584188089,1.43559415447,0.202914028639,-0.0827805327438,0.666302350709,0.712751329581,0.0,0.0,0.0,0.0,0.0,0.0,-0.0094341867123,1.99674018482,2.29436218971,-0.989743965826,0.225084652093,0.0616522225504
18222000000,ocean_waves,wamv,0.0,0.0,0.0,0.0,0.0,0.0,1.0,0.457705258251,7.80783828864,1.43789067463,0.20263646828,-0.0823649723302,0.666342538119,0.712840862289,0.0,0.0,0.0,0.0,0.0,0.0,-0.00891197588488,1.99635859801,2.29664053496,-0.992429275877,0.221018215143,0.0606684460264
18223000000,ocean_waves,wamv,0.0,0.0,0.0,0.0,0.0,0.0,1.0,0.457696884937,7.80983431826,1.44018952021,0.202356490343,-0.0819500758183,0.666382726181,0.712930640482,0.0,0.0,0.0,0.0,0.0,0.0,-0.00837682198888,1.99598029702,2.29896634899,-0.995090795225,0.216890008139,0.0596749126954
18224000000,ocean_waves,wamv,0.0,0.0,0.0,0.0,0.0,0.0,1.0,0.45768905958,7.81182997304,1.44249073842,0.202074082249,-0.081535874076,0.66642291497,0.713020662341,0.0,0.0,0.0,0.0,0.0,0.0,-0.00782878169325,1.99560528833,2.3013393898,-0.997728632559,0.212700175458,0.0586717151318
18225000000,ocean_waves,wamv,0.0,0.0,0.0,0.0,0.0,0.0,1.0,0.457681795001,7.81382525627,1.44479437624,0.201789231441,-0.0811223978706,0.666463104578,0.713110926065,0.0,0.0,0.0,0.0,0.0,0.0,-0.00726791828736,1.99523357779,2.30375940387,-1.00034289954,0.20844887797,0.0576589507433
18226000000,ocean_waves,wamv,0.0,0.0,0.0,0.0,0.0,0.0,1.0,0.457675103954,7.81582017127,1.44710048039,0.201501925388,-0.0807096778635,0.666503295111,0.713201429871,0.0,0.0,0.0,0.0,0.0,0.0,-0.00669429955559,1.99486517085,2.30622612773,-1.00293370885,0.204136289682,0.0566367226386
18227000000,ocean_waves,wamv,0.0,0.0,0.0,0.0,0.0,0.0,1.0,0.457668999124,7.81781472133,1.44940909731,0.201212151588,-0.0802977446126,0.666543486688,0.713292171986,0.0,0.0,0.0,0.0,0.0,0.0,-0.00610799281981,1.99450007355,2.30873930038,-1.0055011671,0.199762582237,0.0556051376753
18228000000,ocean_waves,wamv,0.0,0.0,0.0,0.0,0.0,0.0,1.0,0.457663493128,7.81980890977,1.45172027317,0.200919897575,-0.0798866285627,0.666583679448,0.713383150648,0.0,0.0,0.0,0.0,0.0,0.0,-0.00550906840512,1.99413829092,2.31129864113,-1.00804538459,0.195327947337,0.0545643132673
18228000000,ocean_waves,wamv,0.0,0.0,0.0,0.0,0.0,0.0,1.0,0.457658598514,7.82180273991,1.45403405387,0.200625150915,-0.0794763600492,0.666623873546,0.713474364103,0.0,0.0,0.0,0.0,0.0,0.0,-0.0048975924602,1.99377982864,2.31390387101,-1.01056646421,0.190832571437,0.0535143728932
18231000000,ocean_waves,wamv,0.0,0.0,0.0,0.0,0.0,0.0,1.0,0.457654327769,7.82379621508,1.456350485,0.200327899215,-0.0790669692956,0.66666406916,0.713565810598,0.0,0.0,0.0,0.0,0.0,0.0,-0.00427362805272,1.99342469211,2.31655470109,-1.01306450666,0.186276646982,0.0524554498723
18231000000,ocean_waves,wamv,0.0,0.0,0.0,0.0,0.0,0.0,1.0,0.457650693321,7.8257893386,1.45866961187,0.20002813012,-0.0786584864107,0.666704266489,0.713657488381,0.0,0.0,0.0,0.0,0.0,0.0,-0.00363723403097,1.99307288635,2.31925083072,-1.01553961105,0.181660372901,0.0513876883068
18232000000,ocean_waves,wamv,0.0,0.0,0.0,0.0,0.0,0.0,1.0,0.457647707545,7.82778211382,1.46099147948,0.19972583132,-0.0782509413911,0.666744465762,0.713749395692,0.0,0.0,0.0,0.0,0.0,0.0,-0.00298846159921,1.99272441658,2.32199195638,-1.01799187071,0.176983943863,0.0503112410768
18233000000,ocean_waves,wamv,0.0,0.0,0.0,0.0,0.0,0.0,1.0,0.457645382774,7.82977454407,1.4633161325,0.199420990548,-0.0778443641166,0.666784667234,0.713841530766,0.0,0.0,0.0,0.0,0.0,0.0,-0.00232735656023,1.99237928722,2.32477775891,-1.02042137962,0.172247563642,0.049226273009
18234000000,ocean_waves,wamv,0.0,0.0,0.0,0.0,0.0,0.0,1.0,0.4576437313,7.8317666327,1.46564361529,0.199113595583,-0.0774387843554,0.666824871195,0.713933891819,0.0,0.0,0.0,0.0,0.0,0.0,-0.00165395448714,1.99203750304,2.32760792095,-1.02282822456,0.167451425652,0.0481329561127
18235000000,ocean_waves,wamv,0.0,0.0,0.0,0.0,0.0,0.0,1.0,0.45764276539,7.83375838305,1.46797397188,0.198803634248,-0.0770342317578,0.666865077968,0.714026477054,0.0,0.0,0.0,0.0,0.0,0.0,-0.000968285372237,1.99169906767,2.3304821075,-1.02521249521,0.162595734465,0.0470314738741
18236000000,ocean_waves,wamv,0.0,0.0,0.0,0.0,0.0,0.0,1.0,0.457642497287,7.83574979847,1.47030724595,0.198491094416,-0.0766307358594,0.666905287914,0.714119284652,0.0,0.0,0.0,0.0,0.0,0.0,-0.0002703699752,1.99136398461,2.33339998149,-1.02757427748,0.157680689125,0.045922016487
18237000000,ocean_waves,wamv,0.0,0.0,0.0,0.0,0.0,0.0,1.0,0.45764293922,7.83774088233,1.47264348084,0.198175964006,-0.0762283260759,0.666945501433,0.71421231277,0.0,0.0,0.0,0.0,0.0,0.0,0.000439776898085,1.99103225629,2.33636119258,-1.02991365993,0.152706496294,0.0448047826666
18238000000,ocean_waves,wamv,0.0,0.0,0.0,0.0,0.0,0.0,1.0,0.457644103412,7.83973163798,1.47498271954,0.197858230987,-0.0758270317017,0.666985718965,0.714305559541,0.0,0.0,0.0,0.0,0.0,0.0,0.00116214703043,1.99070388435,2.3393653827,-1.0322307321,0.147673365106,0.0436799771126
18239000000,ocean_waves,wamv,0.0,0.0,0.0,0.0,0.0,0.0,1.0,0.457646002078,7.84172206877,1.47732500464,0.197537883378,-0.0754268819042,0.667025940992,0.714399023068,0.0,0.0,0.0,0.0,0.0,0.0,0.00189673652165,1.99037886914,2.34241218071,-1.03452558814,0.142581514298,0.0425478106668
18240000000,ocean_waves,wamv,0.0,0.0,0.0,0.0,0.0,0.0,1.0,0.457648647437,7.84371217806,1.47967037839,0.197214909248,-0.0750279057241,0.667066168037,0.714492701427,0.0,0.0,0.0,0.0,0.0,0.0,0.00264354744438,1.99005721043,2.3455012133,-1.03679832255,0.137431161426,0.041408496382
18241000000,ocean_waves,wamv,0.0,0.0,0.0,0.0,0.0,0.0,1.0,0.457652051714,7.8457019692,1.48201888262,0.196889296717,-0.0746301320678,0.667106400668,0.714586592663,0.0,0.0,0.0,0.0,0.0,0.0,0.0034025838498,1.98973890643,2.34863209345,-1.03904903682,0.132222536933,0.0402622512401
18242000000,ocean_waves,wamv,0.0,0.0,0.0,0.0,0.0,0.0,1.0,0.457656227139,7.84769144555,1.4843705588,0.196561033957,-0.0742335897054,0.667146639489,0.714680694792,0.0,0.0,0.0,0.0,0.0,0.0,0.00417385323309,1.98942395449,2.35180443091,-1.04127783523,0.126955873841,0.0391092924349
18243000000,ocean_waves,wamv,0.0,0.0,0.0,0.0,0.0,0.0,1.0,0.457661185949,7.84968061046,1.48672544798,0.196230109192,-0.0738383072606,0.667186885148,0.714775005798,0.0,0.0,0.0,0.0,0.0,0.0,0.0049573619361,1.98911234998,2.35501781831,-1.04348483249,0.121631424363,0.0379498398116
18244000000,ocean_waves,wamv,0.0,0.0,0.0,0.0,0.0,0.0,1.0,0.457666940388,7.85166946726,1.48908359079,0.1958965107,-0.0734443132103,0.66722713833,0.714869523639,0.0,0.0,0.0,0.0,0.0,0.0,0.00575311881829,1.98880408763,2.35827185034,-1.04567014527,0.116249439892,0.0367841102107
18245000000,ocean_waves,wamv,0.0,0.0,0.0,0.0,0.0,0.0,1.0,0.457673502709,7.85365801929,1.49144502745,0.195560226815,-0.0730516358701,0.667267399759,0.714964246242,0.0,0.0,0.0,0.0,0.0,0.0,0.00656112822842,1.98849915966,2.36156609979,-1.04783390452,0.110810198558,0.0356123225851
18246000000,ocean_waves,wamv,0.0,0.0,0.0,0.0,0.0,0.0,1.0,0.457680885166,7.85564626988,1.49380979776,0.195221245922,-0.0726603033954,0.66730767019,0.715059171507,0.0,0.0,0.0,0.0,0.0,0.0,0.00738139593182,1.98819755782,2.36490014537,-1.04997624268,0.105313975455,0.0344346904427
18247000000,ocean_waves,wamv,0.0,0.0,0.0,0.0,0.0,0.0,1.0,0.457689100015,7.85763422235,1.49617794107,0.194879556468,-0.0722703437667,0.667347950415,0.715154297309,0.0,0.0,0.0,0.0,0.0,0.0,0.00821392144568,1.98789927129,2.36827354491,-1.05209730728,0.0997610732154,0.0332514278526
18248000000,ocean_waves,wamv,0.0,0.0,0.0,0.0,0.0,0.0,1.0,0.457698159509,7.85962187998,1.49854949629,0.194535146954,-0.071881784787,0.667388241251,0.715249621499,0.0,0.0,0.0,0.0,0.0,0.0,0.0090587027416,1.98760428834,2.37168585798,-1.05419725053,0.0941517978735,0.0320627433918
18249000000,ocean_waves,wamv,0.0,0.0,0.0,0.0,0.0,0.0,1.0,0.457708075893,7.86160924609,1.50092450187,0.19418800594,-0.0714946540688,0.667428543546,0.715345141906,0.0,0.0,0.0,0.0,0.0,0.0,0.00991573078838,1.98731259492,2.37513662768,-1.05627623857,0.0884864797603,0.0308688441735
18250000000,ocean_waves,wamv,0.0,0.0,0.0,0.0,0.0,0.0,1.0,0.457718861397,7.86359632393,1.50330299581,0.193838122048,-0.0711089790284,0.667468858168,0.715440856339,0.0,0.0,0.0,0.0,0.0,0.0,0.0107849920312,1.9870241756,2.37862539419,-1.05833444537,0.0827654593012,0.0296699321904
18251000000,ocean_waves,wamv,0.0,0.0,0.0,0.0,0.0,0.0,1.0,0.457730528232,7.86558311678,1.50568501563,0.193485483957,-0.070724786878,0.667509186008,0.715536762588,0.0,0.0,0.0,0.0,0.0,0.0,0.0116664668075,1.98673901338,2.38215169203,-1.06037205434,0.076989090809,0.02846620472
18252000000,ocean_waves,wamv,0.0,0.0,0.0,0.0,0.0,0.0,1.0,0.457743088582,7.86756962785,1.5080705984,0.193130080411,-0.0703421046173,0.667549527973,0.715632858428,0.0,0.0,0.0,0.0,0.0,0.0,0.012560128142,1.98645708959,2.38571504869,-1.06238925923,0.0711577446257,0.0272578544297
18253000000,ocean_waves,wamv,0.0,0.0,0.0,0.0,0.0,0.0,1.0,0.457756554595,7.86955586039,1.51045978067,0.192771900216,-0.0699609590214,0.667589884984,0.715729141622,0.0,0.0,0.0,0.0,0.0,0.0,0.0134659397268,1.98617838342,2.38931498006,-1.06438626648,0.0652718129294,0.0260450703492
18254000000,ocean_waves,wamv,0.0,0.0,0.0,0.0,0.0,0.0,1.0,0.457770938374,7.87154181757,1.51285259854,0.192410932244,-0.0695813766329,0.667630257972,0.715825609921,0.0,0.0,0.0,0.0,0.0,0.0,0.0143838567149,1.98590287257,2.39295099689,-1.06636329212,0.05933170323,0.0248280362399
18255000000,ocean_waves,wamv,0.0,0.0,0.0,0.0,0.0,0.0,1.0,0.457786251968,7.87352750257,1.51524908758,0.192047165434,-0.0692033837554,0.667670647875,0.715922261068,0.0,0.0,0.0,0.0,0.0,0.0,0.0153138258674,1.98563053343,2.39662260831,-1.06832055989,0.0533378349511,0.0236069297576
18256000000,ocean_waves,wamv,0.0,0.0,0.0,0.0,0.0,0.0,1.0,0.457802507362,7.87551291855,1.5176492829,0.191680588792,-0.068827006442,0.667711055632,0.716019092798,0.0,0.0,0.0,0.0,0.0,0.0,0.0162557826675,1.98536134055,2.40032931303,-1.07025830522,0.0472906497331,0.0223819247058
18257000000,ocean_waves,wamv,0.0,0.0,0.0,0.0,0.0,0.0,1.0,0.457819716468,7.87749806861,1.52005321908,0.191311191397,-0.0684522704878,0.667751482183,0.716116102845,0.0,0.0,0.0,0.0,0.0,0.0,0.017209652442,1.98509526711,2.40407060587,-1.07217677166,0.0411906045385,0.0211531897078
18258000000,ocean_waves,wamv,0.0,0.0,0.0,0.0,0.0,0.0,1.0,0.457837891109,7.87948295585,1.52246093018,0.1909389624,-0.0680792014213,0.667791928464,0.716213288937,0.0,0.0,0.0,0.0,0.0,0.0,0.0181753497381,1.98483228501,2.40784597662,-1.07407621076,0.0350381730944,0.0199208888621
18259000000,ocean_waves,wamv,0.0,0.0,0.0,0.0,0.0,0.0,1.0,0.457857043014,7.88146758334,1.52487244976,0.190563891027,-0.0677078244967,0.667832395401,0.716310648805,0.0,0.0,0.0,0.0,0.0,0.0,0.0191527782944,1.98457236495,2.41165491035,-1.07595688111,0.028833845515,0.0186851822058
18260000000,ocean_waves,wamv,0.0,0.0,0.0,0.0,0.0,0.0,1.0,0.457877183806,7.8834519541,1.52728781087,0.190185966586,-0.0673381646867,0.667872883912,0.716408180177,0.0,0.0,0.0,0.0,0.0,0.0,0.0201418314049,1.98431547663,2.4154968882,-1.07781904702,0.022578127147,0.017446226232
18261000000,ocean_waves,wamv,0.0,0.0,0.0,0.0,0.0,0.0,1.0,0.457898324989,7.88543607114,1.52970704601,0.189805178461,-0.0669702466772,0.667913394902,0.716505880785,0.0,0.0,0.0,0.0,0.0,0.0,0.021142392829,1.98406158903,2.41937138914,-1.07966297645,0.0162715360825,0.0162041743609
18262000000,ocean_waves,wamv,0.0,0.0,0.0,0.0,0.0,0.0,1.0,0.457920477945,7.88741993743,1.53213018719,0.189421516125,-0.0666040948608,0.667953929257,0.716603748362,0.0,0.0,0.0,0.0,0.0,0.0,0.022154337052,1.98381067038,2.42327788779,-1.08148894087,0.00991460468003,0.014959178497
18263000000,ocean_waves,wamv,0.0,0.0,0.0,0.0,0.0,0.0,1.0,0.457943653919,7.8894035559,1.53455726585,0.189034969137,-0.0662397333296,0.667994487849,0.716701780641,0.0,0.0,0.0,0.0,0.0,0.0,0.023177529621,1.98356268806,2.42721585132,-1.08329721539,0.00350788190607,0.0137113909686
18264000000,ocean_waves,wamv,0.0,0.0,0.0,0.0,0.0,0.0,1.0,0.457967864019,7.89138692946,1.53698831294,0.188645527146,-0.0658771858778,0.668035071531,0.716799975358,0.0,0.0,0.0,0.0,0.0,0.0,0.0242118324059,1.98331760996,2.43118475444,-1.0850880701,-0.00294808485374,0.0124609623075
18265000000,ocean_waves,wamv,0.0,0.0,0.0,0.0,0.0,0.0,1.0,0.457993119207,7.89337006098,1.53942335884,0.188253179895,-0.0655164759961,0.668075681135,0.716898330245,0.0,0.0,0.0,0.0,0.0,0.0,0.0252571015708,1.98307540338,2.43518406457,-1.08686177586,-0.00945273500598,0.0112080461432
18266000000,ocean_waves,wamv,0.0,0.0,0.0,0.0,0.0,0.0,1.0,0.458019430303,7.8953529533,1.54186243343,0.187857917223,-0.0651576268699,0.668116317476,0.716996843033,0.0,0.0,0.0,0.0,0.0,0.0,0.0263131906054,1.98283603556,2.43921324624,-1.08861860095,-0.0160055014407,0.00995279959598
18267000000,ocean_waves,wamv,0.0,0.0,0.0,0.0,0.0,0.0,1.0,0.458046807975,7.89733560922,1.54430556604,0.187459729067,-0.0648006613789,0.668156981351,0.717095511445,0.0,0.0,0.0,0.0,0.0,0.0,0.0273799526079,1.98259947379,2.44327176189,-1.09035880948,-0.0226058134843,0.00869538444085
18268000000,ocean_waves,wamv,0.0,0.0,0.0,0.0,0.0,0.0,1.0,0.45807526275,7.89931803154,1.54675278543,0.187058605469,-0.0644456020974,0.668197673537,0.717194333197,0.0,0.0,0.0,0.0,0.0,0.0,0.028457242209,1.98236568541,2.44735907127,-1.09208266076,-0.0292530981629,0.00743596850837
18269000000,ocean_waves,wamv,0.0,0.0,0.0,0.0,0.0,0.0,1.0,0.45810480501,7.90130022297,1.54920411988,0.186654536571,-0.0640924712982,0.668238394801,0.717293305987,0.0,0.0,0.0,0.0,0.0,0.0,0.0295449189903,1.98213463835,2.45147463695,-1.09379040595,-0.0359467882528,0.00617472546543
18270000000,ocean_waves,wamv,0.0,0.0,0.0,0.0,0.0,0.0,1.0,0.458135445006,7.90328218624,1.55165959706,0.186247512621,-0.0637412909514,0.668279145893,0.717392427501,0.0,0.0,0.0,0.0,0.0,0.0,0.0306428464249,1.98190630011,2.45561791301,-1.09548229309,-0.0426863113082,0.00491183826487
18271000000,ocean_waves,wamv,0.0,0.0,0.0,0.0,0.0,0.0,1.0,0.458167192855,7.90526392402,1.55411924415,0.185837523974,-0.0633920827259,0.668319927555,0.717491695397,0.0,0.0,0.0,0.0,0.0,0.0,0.0317508949425,1.98168063831,2.45978835102,-1.09715856409,-0.0494710976484,0.00364749828448
18272000000,ocean_waves,wamv,0.0,0.0,0.0,0.0,0.0,0.0,1.0,0.458200063505,7.90724543995,1.55658307249,0.185424555777,-0.0630448780799,0.668360740756,0.717591107581,0.0,0.0,0.0,0.0,0.0,0.0,0.0328738943709,1.98145861387,2.46397015081,-1.09881373363,-0.0563222168641,0.00237745298397
18273000000,ocean_waves,wamv,0.0,0.0,0.0,0.0,0.0,0.0,1.0,0.458234078429,7.90922673896,1.55905107251,0.18500858617,-0.0626997216692,0.668401586776,0.717690662292,0.0,0.0,0.0,0.0,0.0,0.0,0.0340183714327,1.98124152866,2.46814238072,-1.10044037872,-0.0632680582192,0.00109600385931
18274000000,ocean_waves,wamv,0.0,0.0,0.0,0.0,0.0,0.0,1.0,0.45826925901,7.91120782599,1.56152323419,0.184589593424,-0.0623566578247,0.668442466911,0.717790357733,0.0,0.0,0.0,0.0,0.0,0.0,0.0351842345481,1.98102935632,2.47230460596,-1.10203873882,-0.070308007147,-0.000196544947263
18275000000,ocean_waves,wamv,0.0,0.0,0.0,0.0,0.0,0.0,1.0,0.458305626545,7.9131887059,1.56399954707,0.18416755594,-0.0620157305465,0.668483382466,0.717890192071,0.0,0.0,0.0,0.0,0.0,0.0,0.0363713988559,1.98082207062,2.47645638047,-1.10360905797,-0.0774414395606,-0.0014998792868
18276000000,ocean_waves,wamv,0.0,0.0,0.0,0.0,0.0,0.0,1.0,0.458343196112,7.91516938157,1.56647997646,0.183742457188,-0.0616769694687,0.66852433461,0.71799016351,0.0,0.0,0.0,0.0,0.0,0.0,0.0375736442482,1.98061765567,2.48057345815,-1.1051632672,-0.0846409150601,-0.00280822613609
18277000000,ocean_waves,wamv,0.0,0.0,0.0,0.0,0.0,0.0,1.0,0.458381979941,7.91714985494,1.56896447649,0.183314283,-0.0613403975532,0.668565324451,0.718090270243,0.0,0.0,0.0,0.0,0.0,0.0,0.0387881231696,1.98041516756,2.48464470014,-1.10670688451,-0.0918936811801,-0.0041188396753
18278000000,ocean_waves,wamv,0.0,0.0,0.0,0.0,0.0,0.0,1.0,0.458421990338,7.91913012792,1.57145300152,0.182883019232,-0.0610060377506,0.668606353101,0.718190510399,0.0,0.0,0.0,0.0,0.0,0.0,0.040014910388,1.98021460328,2.48867030401,-1.10823987486,-0.0991997083354,-0.00543156391893
18281000000,ocean_waves,wamv,0.0,0.0,0.0,0.0,0.0,0.0,1.0,0.458463239686,7.92111020245,1.5739455061,0.182448651763,-0.0606739129971,0.668647421681,0.718290882047,0.0,0.0,0.0,0.0,0.0,0.0,0.0412540850834,1.98001596029,2.49265046736,-1.10976220436,-0.106558961532,-0.00674623709293
18281000000,ocean_waves,wamv,0.0,0.0,0.0,0.0,0.0,0.0,1.0,0.458505740455,7.92309008044,1.57644194497,0.182011166496,-0.0603440462126,0.668688531317,0.71839138319,0.0,0.0,0.0,0.0,0.0,0.0,0.0425057311901,1.97981923531,2.49658539245,-1.11127384077,-0.113971401849,-0.00806269437005
18281000000,ocean_waves,wamv,0.0,0.0,0.0,0.0,0.0,0.0,1.0,0.458549505201,7.9250697638,1.57894227308,0.181570549361,-0.0600164602985,0.668729683146,0.71849201177,0.0,0.0,0.0,0.0,0.0,0.0,0.0437699365551,1.97962442431,2.50047528497,-1.1127747542,-0.121436986676,-0.0093807694047
18282000000,ocean_waves,wamv,0.0,0.0,0.0,0.0,0.0,0.0,1.0,0.458594546569,7.92704925444,1.58144644561,0.181126786312,-0.0596911781344,0.66877087831,0.718592765659,0.0,0.0,0.0,0.0,0.0,0.0,0.0450467914865,1.97943152237,2.50432035482,-1.11426491826,-0.12895566735,-0.0107002952592
18283000000,ocean_waves,wamv,0.0,0.0,0.0,0.0,0.0,0.0,1.0,0.458640877298,7.92902855429,1.58395441793,0.180679863329,-0.0593682225745,0.668812117955,0.718693642668,0.0,0.0,0.0,0.0,0.0,0.0,0.04633638782,1.97924052364,2.50812081531,-1.11574431073,-0.136527389002,-0.0120211056598
18284000000,ocean_waves,wamv,0.0,0.0,0.0,0.0,0.0,0.0,1.0,0.458688510219,7.93100766522,1.58646614563,0.18022976642,-0.0590476164433,0.668853403233,0.718794640542,0.0,0.0,0.0,0.0,0.0,0.0,0.0476388176656,1.9790514213,2.51187688355,-1.11721291449,-0.144152088904,-0.0133430358224
18285000000,ocean_waves,wamv,0.0,0.0,0.0,0.0,0.0,0.0,1.0,0.458737458254,7.93298658913,1.58898158452,0.179776481618,-0.0587293825304,0.668894735295,0.718895756963,0.0,0.0,0.0,0.0,0.0,0.0,0.0489541722068,1.97886420743,2.51558878084,-1.11867071838,-0.151829694919,-0.0146659231684
18286000000,ocean_waves,wamv,0.0,0.0,0.0,0.0,0.0,0.0,1.0,0.45878773441,7.9349653279,1.59150069065,0.179319994989,-0.0584135435833,0.668936115293,0.718996989549,0.0,0.0,0.0,0.0,0.0,0.0,0.0502825396911,1.97867887278,2.51925673566,-1.120117719,-0.159560120308,-0.0159896071976
18287000000,ocean_waves,wamv,0.0,0.0,0.0,0.0,0.0,0.0,1.0,0.458839351787,7.9369438834,1.59402342028,0.178860292624,-0.0581001223038,0.668977544373,0.719098335859,0.0,0.0,0.0,0.0,0.0,0.0,0.0516240069022,1.97849540723,2.52288097624,-1.12155391842,-0.167343273555,-0.0173139322045
18288000000,ocean_waves,wamv,0.0,0.0,0.0,0.0,0.0,0.0,1.0,0.45889232356,7.9389222575,1.59654972994,0.178397360646,-0.0577891413391,0.669019023677,0.719199793392,0.0,0.0,0.0,0.0,0.0,0.0,0.0529786553879,1.97831379918,2.52646173918,-1.12297932798,-0.175179045343,-0.0186387453859
18289000000,ocean_waves,wamv,0.0,0.0,0.0,0.0,0.0,0.0,1.0,0.458946662988,7.94090045204,1.59907957635,0.177931185211,-0.0574806232785,0.669060554336,0.719301359591,0.0,0.0,0.0,0.0,0.0,0.0,0.0543465636113,1.97813403614,2.5299992602,-1.12439396515,-0.183067321194,-0.0199638999025
18290000000,ocean_waves,wamv,0.0,0.0,0.0,0.0,0.0,0.0,1.0,0.459002383397,7.94287846884,1.6016129165,0.177461752504,-0.0571745906438,0.669102137466,0.71940303184,0.0,0.0,0.0,0.0,0.0,0.0,0.0557278030934,1.97795610412,2.53349378313,-1.12579785726,-0.191007968026,-0.0212892527468
18291000000,ocean_waves,wamv,0.0,0.0,0.0,0.0,0.0,0.0,1.0,0.459059498182,7.94485630974,1.60414970762,0.176989048744,-0.0568710658848,0.66914377417,0.719504807475,0.0,0.0,0.0,0.0,0.0,0.0,0.0571224402341,1.9777799882,2.53694555187,-1.12719103861,-0.199000845311,-0.0226146673465
18292000000,ocean_waves,wamv,0.0,0.0,0.0,0.0,0.0,0.0,1.0,0.459118020796,7.94683397653,1.6066899072,0.176513060185,-0.0565700713693,0.669185465528,0.719606683776,0.0,0.0,0.0,0.0,0.0,0.0,0.0585305328533,1.97760567199,2.54035481827,-1.12857355361,-0.207045793333,-0.0239400116348
18294000000,ocean_waves,wamv,0.0,0.0,0.0,0.0,0.0,0.0,1.0,0.459177964742,7.94881147099,1.60923347296,0.176033773117,-0.0562716293789,0.669227212598,0.719708657978,0.0,0.0,0.0,0.0,0.0,0.0,0.0599521319455,1.9774331382,2.54372183454,-1.12994545375,-0.215142643942,-0.025265160408
18294000000,ocean_waves,wamv,0.0,0.0,0.0,0.0,0.0,0.0,1.0,0.459239343562,7.95078879489,1.6117803629,0.175551173866,-0.0559757620957,0.669269016408,0.719810727267,0.0,0.0,0.0,0.0,0.0,0.0,0.0613872770621,1.97726236793,2.54704686493,-1.13130680186,-0.223291203594,-0.0265899922427
18295000000,ocean_waves,wamv,0.0,0.0,0.0,0.0,0.0,0.0,1.0,0.459302170832,7.95276594998,1.61433053528,0.175065248799,-0.0556824916011,0.669310877956,0.719912888787,0.0,0.0,0.0,0.0,0.0,0.0,0.0628360009259,1.97709334179,2.55033016996,-1.1326576657,-0.23149127607,-0.0279143939378
18296000000,ocean_waves,wamv,0.0,0.0,0.0,0.0,0.0,0.0,1.0,0.459366460149,7.95474293798,1.61688394862,0.174575984323,-0.055391839865,0.669352798206,0.720015139638,0.0,0.0,0.0,0.0,0.0,0.0,0.0642983246405,1.9769260392,2.55357201932,-1.1339981223,-0.239742644136,-0.0292382569262
18297000000,ocean_waves,wamv,0.0,0.0,0.0,0.0,0.0,0.0,1.0,0.459432225119,7.95671976059,1.61944056173,0.174083366888,-0.0551038287391,0.669394778079,0.720117476883,0.0,0.0,0.0,0.0,0.0,0.0,0.0657742587517,1.97676043875,2.55677268769,-1.13532825555,-0.248045075981,-0.0305614782879
18298000000,ocean_waves,wamv,0.0,0.0,0.0,0.0,0.0,0.0,1.0,0.459499479352,7.9586964195,1.62200033368,0.173587382989,-0.0548184799528,0.669436818457,0.720219897543,0.0,0.0,0.0,0.0,0.0,0.0,0.067263804399,1.97659651871,2.55993245091,-1.13664815377,-0.256398331325,-0.031883961484
18299000000,ocean_waves,wamv,0.0,0.0,0.0,0.0,0.0,0.0,1.0,0.459568236442,7.96067291637,1.62456322383,0.173088019171,-0.0545358151019,0.669478920175,0.720322398604,0.0,0.0,0.0,0.0,0.0,0.0,0.0687669495016,1.97643425633,2.56305159783,-1.13795791303,-0.26480214525,-0.033205612654
18300000000,ocean_waves,wamv,0.0,0.0,0.0,0.0,0.0,0.0,1.0,0.459638509968,7.96264925283,1.62712919185,0.17258526203,-0.0542558556478,0.669521084018,0.720424977019,0.0,0.0,0.0,0.0,0.0,0.0,0.070283673934,1.97627362905,2.56613041608,-1.13925763042,-0.273256249799,-0.0345263438217
18301000000,ocean_waves,wamv,0.0,0.0,0.0,0.0,0.0,0.0,1.0,0.459710313472,7.9646254305,1.62969819766,0.172079098213,-0.0539786229104,0.66956331072,0.720527629702,0.0,0.0,0.0,0.0,0.0,0.0,0.0718139468215,1.97611461403,2.56916920235,-1.14054740647,-0.281760360461,-0.0358460692077
18302000000,ocean_waves,wamv,0.0,0.0,0.0,0.0,0.0,0.0,1.0,0.459783660463,7.96660145097,1.63227020154,0.171569514429,-0.0537041380643,0.66960560096,0.720630353535,0.0,0.0,0.0,0.0,0.0,0.0,0.073357728521,1.97595718849,2.5721682597,-1.14182734256,-0.29031418169,-0.0371647048977
18303000000,ocean_waves,wamv,0.0,0.0,0.0,0.0,0.0,0.0,1.0,0.459858564397,7.9685773158,1.63484516403,0.171056497444,-0.0534324221351,0.669647955363,0.720733145363,0.0,0.0,0.0,0.0,0.0,0.0,0.0749149719366,1.97580132995,2.57512789765,-1.1430975394,-0.298917408374,-0.03848216752
18304000000,ocean_waves,wamv,0.0,0.0,0.0,0.0,0.0,0.0,1.0,0.459935038681,7.97055302655,1.63742304601,0.170540034091,-0.0531634959976,0.669690374496,0.720836001995,0.0,0.0,0.0,0.0,0.0,0.0,0.0764856241352,1.97564701636,2.57804843237,-1.14435809551,-0.307569727511,-0.039798372784
18305000000,ocean_waves,wamv,0.0,0.0,0.0,0.0,0.0,0.0,1.0,0.460013096665,7.97252858473,1.64000380868,0.170020111268,-0.0528973803777,0.669732858871,0.720938920202,0.0,0.0,0.0,0.0,0.0,0.0,0.0780696298363,1.97549422662,2.58093018179,-1.14560910402,-0.316270827022,-0.0411132352183
18306000000,ocean_waves,wamv,0.0,0.0,0.0,0.0,0.0,0.0,1.0,0.460092751641,7.97450399186,1.64258741355,0.169496715943,-0.052634095849,0.669775408941,0.721041896714,0.0,0.0,0.0,0.0,0.0,0.0,0.0796669303203,1.97534294,2.58377347497,-1.14685065486,-0.325020384202,-0.0424266641078
18307000000,ocean_waves,wamv,0.0,0.0,0.0,0.0,0.0,0.0,1.0,0.460174016842,7.97647924942,1.64517382249,0.168969835159,-0.0523736628343,0.669818025107,0.721144928215,0.0,0.0,0.0,0.0,0.0,0.0,0.081277467415,1.97519313664,2.58657864634,-1.14808283166,-0.333818075655,-0.0437385634682
18308000000,ocean_waves,wamv,0.0,0.0,0.0,0.0,0.0,0.0,1.0,0.460256905446,7.97845435888,1.6477629977,0.168439456034,-0.0521161016074,0.669860707714,0.721248011343,0.0,0.0,0.0,0.0,0.0,0.0,0.0829011852046,1.97504479748,2.58934603664,-1.14930571133,-0.342663577435,-0.0450488303576
18309000000,ocean_waves,wamv,0.0,0.0,0.0,0.0,0.0,0.0,1.0,0.460341430582,7.98042932167,1.6503549017,0.167905565763,-0.0518614322974,0.669903457057,0.721351142683,0.0,0.0,0.0,0.0,0.0,0.0,0.0845380333628,1.97489790457,2.59207598858,-1.15051936204,-0.351556572515,-0.0463573547753
18310000000,ocean_waves,wamv,0.0,0.0,0.0,0.0,0.0,0.0,1.0,0.46042760533,7.98240413924,1.65294949739,0.16736815162,-0.0516096748893,0.669946273383,0.721454318763,0.0,0.0,0.0,0.0,0.0,0.0,0.0861879664885,1.97475244046,2.59476885366,-1.1517238457,-0.360496741813,-0.0476640168906
18311000000,ocean_waves,wamv,0.0,0.0,0.0,0.0,0.0,0.0,1.0,0.460515442734,7.98437881299,1.65554674802,0.166827200964,-0.0513608492271,0.669989156894,0.72155753605,0.0,0.0,0.0,0.0,0.0,0.0,0.0878509465129,1.97460838838,2.59742498886,-1.15291921699,-0.369483769408,-0.0489686872576
18311000000,ocean_waves,wamv,0.0,0.0,0.0,0.0,0.0,0.0,1.0,0.460604955813,7.98635334432,1.65814661719,0.166282701232,-0.051114975022,0.670032107748,0.721660790944,0.0,0.0,0.0,0.0,0.0,0.0,0.0895269465018,1.97446573267,2.60004474811,-1.15410552066,-0.378517354914,-0.0502712287285
18313000000,ocean_waves,wamv,0.0,0.0,0.0,0.0,0.0,0.0,1.0,0.460696157562,7.98832773462,1.66074906886,0.165734639946,-0.0508720718498,0.670075126068,0.721764079774,0.0,0.0,0.0,0.0,0.0,0.0,0.0912159461216,1.97432445757,2.60262849731,-1.15528279802,-0.387597191496,-0.0515714926026
18314000000,ocean_waves,wamv,0.0,0.0,0.0,0.0,0.0,0.0,1.0,0.460789060968,7.99030198526,1.66335406737,0.165183004713,-0.0506321591549,0.670118211938,0.721867398795,0.0,0.0,0.0,0.0,0.0,0.0,0.0929179346256,1.97418454764,2.60517660579,-1.15645108469,-0.396722977463,-0.0528693212547
18315000000,ocean_waves,wamv,0.0,0.0,0.0,0.0,0.0,0.0,1.0,0.460883679018,7.99227609757,1.66596157743,0.164627783221,-0.0503952562561,0.67016136541,0.721970744179,0.0,0.0,0.0,0.0,0.0,0.0,0.0946329128396,1.97404598805,2.60768943972,-1.15761040929,-0.405894424835,-0.0541645505463
18316000000,ocean_waves,wamv,0.0,0.0,0.0,0.0,0.0,0.0,1.0,0.460980024706,7.9942500729,1.6685715641,0.164068963246,-0.0501613823441,0.670204586505,0.722074112019,0.0,0.0,0.0,0.0,0.0,0.0,0.0963608878643,1.97390876343,2.61016737612,-1.15876079994,-0.415111237932,-0.0554570071915
