%time,field.name0,field.name1,field.pose0.position.x,field.pose0.position.y,field.pose0.position.z,field.pose0.orientation.x,field.pose0.orientation.y,field.pose0.orientation.z,field.pose0.orientation.w,field.pose1.position.x,field.pose1.position.y,field.pose1.position.z,field.pose1.orientation.x,field.pose1.orientation.y,field.pose1.orientation.z,field.pose1.orientation.w,field.twist0.linear.x,field.twist0.linear.y,field.twist0.linear.z,field.twist0.angular.x,field.twist0.angular.y,field.twist0.angular.z,field.twist1.linear.x,field.twist1.linear.y,field.twist1.linear.z,field.twist1.angular.x,field.twist1.angular.y,field.twist1.angular.z
25115000000,ocean_waves,wamv,0.0,0.0,0.0,0.0,0.0,0.0,1.0,0.0229180939664,0.584500638962,-2.58632776193,0.149168074957,-0.161778018501,0.664882752799,0.713798068906,0.0,0.0,0.0,0.0,0.0,0.0,0.0713360052037,0.999190857721,1.53692134091,-0.548343689961,0.0357640139801,-0.00150448219848
25115000000,ocean_waves,wamv,0.0,0.0,0.0,0.0,0.0,0.0,1.0,0.0229894857514,0.585500555222,-2.58479184856,0.148982589206,-0.161581412439,0.664924226827,0.713842705255,0.0,0.0,0.0,0.0,0.0,0.0,0.0713905627163,0.999899002544,1.53594853897,-0.552974532144,0.0360906612299,-0.00150805395176
25118000000,ocean_waves,wamv,0.0,0.0,0.0,0.0,0.0,0.0,1.0,0.0230609317271,0.586501176575,-2.58325690804,0.148795547103,-0.161383137562,0.66496599791,0.713887659017,0.0,0.0,0.0,0.0,0.0,0.0,0.071444734027,1.00060382507,1.53497628401,-0.557606357521,0.0364175547192,-0.00151177129705
25118000000,ocean_waves,wamv,0.0,0.0,0.0,0.0,0.0,0.0,1.0,0.023132431491,0.587502499686,-2.58172293984,0.148606948093,-0.161183193165,0.665008064761,0.713932928938,0.0,0.0,0.0,0.0,0.0,0.0,0.0714985024693,1.00130531082,1.5340045679,-0.562239172075,0.0367447022469,-0.0015156333879
25118000000,ocean_waves,wamv,0.0,0.0,0.0,0.0,0.0,0.0,1.0,0.0232039846274,0.588504521205,-2.58018994345,0.148416791618,-0.160981578535,0.665050426086,0.713978513753,0.0,0.0,0.0,0.0,0.0,0.0,0.0715518552737,1.00200344538,1.53303338364,-0.566872979212,0.0370721069097,-0.00151963561068
25119000000,ocean_waves,wamv,0.0,0.0,0.0,0.0,0.0,0.0,1.0,0.0232755907122,0.589507237769,-2.57865791832,0.148225077118,-0.160778292958,0.665093080581,0.71402441218,0.0,0.0,0.0,0.0,0.0,0.0,0.0716047838003,1.00269821443,1.5320627252,-0.571507779983,0.0373997671062,-0.00152376973659
25120000000,ocean_waves,wamv,0.0,0.0,0.0,0.0,0.0,0.0,1.0,0.0233472493169,0.590510645999,-2.57712686396,0.148031804033,-0.160573335719,0.665136026937,0.714070622922,0.0,0.0,0.0,0.0,0.0,0.0,0.0716572836398,1.00338960363,1.53109258749,-0.576143573357,0.0377276766826,-0.00152802417882
25121000000,ocean_waves,wamv,0.0,0.0,0.0,0.0,0.0,0.0,1.0,0.0234189600128,0.591514742503,-2.57559677985,0.147836971798,-0.160366706106,0.665179263839,0.714117144663,0.0,0.0,0.0,0.0,0.0,0.0,0.0717093545927,1.0040775986,1.53012296617,-0.58078035652,0.0380558252015,-0.00153238433846
25122000000,ocean_waves,wamv,0.0,0.0,0.0,0.0,0.0,0.0,1.0,0.0234907223749,0.592519523873,-2.57406766548,0.147640579844,-0.16015840341,0.665222789965,0.714163976066,0.0,0.0,0.0,0.0,0.0,0.0,0.0717610005435,1.00476218493,1.52915385761,-0.585418125203,0.0383841983122,-0.00153683301811
25123000000,ocean_waves,wamv,0.0,0.0,0.0,0.0,0.0,0.0,1.0,0.0235625359862,0.593524986688,-2.57253952035,0.147442627599,-0.159948426926,0.665266603994,0.714211115778,0.0,0.0,0.0,0.0,0.0,0.0,0.0718122292465,1.00544334808,1.5281852587,-0.590056874016,0.0387127781974,-0.00154135088451
25124000000,ocean_waves,wamv,0.0,0.0,0.0,0.0,0.0,0.0,1.0,0.0236344004408,0.594531127511,-2.57101234396,0.147243114486,-0.159736775956,0.665310704598,0.714258562421,0.0,0.0,0.0,0.0,0.0,0.0,0.0718630520444,1.0061210734,1.52721716674,-0.594696596796,0.0390415440733,-0.00154591695943
25125000000,ocean_waves,wamv,0.0,0.0,0.0,0.0,0.0,0.0,1.0,0.0237063153476,0.595537942893,-2.56948613581,0.147042039922,-0.159523449808,0.665355090449,0.714306314595,0.0,0.0,0.0,0.0,0.0,0.0,0.0719134835345,1.00679534609,1.52624957931,-0.59933728695,0.0393704727231,-0.00155050912264
25126000000,ocean_waves,wamv,0.0,0.0,0.0,0.0,0.0,0.0,1.0,0.0237782803329,0.596545429365,-2.56796089539,0.14683940332,-0.1593084478,0.665399760217,0.71435437088,0.0,0.0,0.0,0.0,0.0,0.0,0.0719635411994,1.00746615117,1.52528249413,-0.603978937799,0.0396995390448,-0.00155510461234
25126000000,ocean_waves,wamv,0.0,0.0,0.0,0.0,0.0,0.0,1.0,0.0238502950429,0.597553583448,-2.56643662223,0.146635204086,-0.159091769254,0.66544471257,0.714402729832,0.0,0.0,0.0,0.0,0.0,0.0,0.0720132450135,1.00813347345,1.52431590893,-0.608621542917,0.0400287166012,-0.00155968051226
25126000000,ocean_waves,wamv,0.0,0.0,0.0,0.0,0.0,0.0,1.0,0.023922359146,0.598562401643,-2.56491331582,0.146429441617,-0.158873413504,0.665489946173,0.714451389985,0.0,0.0,0.0,0.0,0.0,0.0,0.0720626170327,1.00879729756,1.52334982132,-0.61326509646,0.0403579781619,-0.00156421421841
25129000000,ocean_waves,wamv,0.0,0.0,0.0,0.0,0.0,0.0,1.0,0.0239944723341,0.59957188044,-2.56339097568,0.146222115306,-0.158653379891,0.665535459692,0.714500349851,0.0,0.0,0.0,0.0,0.0,0.0,0.0721116809727,1.00945760787,1.52238422867,-0.617909593499,0.0406872962329,-0.00156868388033
25130000000,ocean_waves,wamv,0.0,0.0,0.0,0.0,0.0,0.0,1.0,0.0240666343242,0.60058201631,-2.56186960132,0.146013224537,-0.158431667764,0.665581251787,0.714549607921,0.0,0.0,0.0,0.0,0.0,0.0,0.0721604617763,1.0101143885,1.521419128,-0.622555030331,0.0410166435717,-0.00157306881556
25132000000,ocean_waves,wamv,0.0,0.0,0.0,0.0,0.0,0.0,1.0,0.0241388448591,0.601592805708,-2.56034919225,0.145802768686,-0.158208276478,0.665627321118,0.714599162663,0.0,0.0,0.0,0.0,0.0,0.0,0.0722089851694,1.01076762332,1.52045451584,-0.627201404792,0.0413459936871,-0.00157734989681
25132000000,ocean_waves,wamv,0.0,0.0,0.0,0.0,0.0,0.0,1.0,0.0242111037075,0.602604245073,-2.558829748,0.145590747119,-0.157983205394,0.66567366634,0.714649012529,0.0,0.0,0.0,0.0,0.0,0.0,0.0722572772025,1.01141729589,1.51949038812,-0.631848716554,0.0416753213279,-0.00158150991299
25133000000,ocean_waves,wamv,0.0,0.0,0.0,0.0,0.0,0.0,1.0,0.0242834106639,0.603616330829,-2.5573112681,0.145377159195,-0.157756453881,0.665720286105,0.714699155947,0.0,0.0,0.0,0.0,0.0,0.0,0.0723053637754,1.01206338953,1.51852674009,-0.636496967399,0.0420046029597,-0.0015855339046
25134000000,ocean_waves,wamv,0.0,0.0,0.0,0.0,0.0,0.0,1.0,0.0243557655483,0.604629059379,-2.55579375207,0.145162004264,-0.157528021309,0.665767179058,0.714749591332,0.0,0.0,0.0,0.0,0.0,0.0,0.0723532701414,1.01270588722,1.5175635662,-0.641146161482,0.0423338172345,-0.00158940947498
25135000000,ocean_waves,wamv,0.0,0.0,0.0,0.0,0.0,0.0,1.0,0.0244281682047,0.605642427114,-2.55427719945,0.144945281665,-0.15729790705,0.665814343841,0.714800317079,0.0,0.0,0.0,0.0,0.0,0.0,0.0724010203905,1.01334477166,1.51660086002,-0.645796305556,0.0426629454507,-0.00159312707676
25136000000,ocean_waves,wamv,0.0,0.0,0.0,0.0,0.0,0.0,1.0,0.0245006184994,0.606656430402,-2.55276160979,0.144726990729,-0.157066110477,0.665861779085,0.71485133157,0.0,0.0,0.0,0.0,0.0,0.0,0.0724486369115,1.01398002527,1.51563861415,-0.650447409164,0.0429919720026,-0.00159668027109
25136000000,ocean_waves,wamv,0.0,0.0,0.0,0.0,0.0,0.0,1.0,0.0245731163188,0.607671065596,-2.55124698265,0.144507130777,-0.156832630963,0.665909483415,0.714902633173,0.0,0.0,0.0,0.0,0.0,0.0,0.0724961398395,1.01461163018,1.51467682021,-0.655099484783,0.0433208848138,-0.00160006595629
25138000000,ocean_waves,wamv,0.0,0.0,0.0,0.0,0.0,0.0,1.0,0.0246456615669,0.608686329032,-2.54973331758,0.144285701118,-0.156597467876,0.665957455445,0.714954220244,0.0,0.0,0.0,0.0,0.0,0.0,0.0725435464946,1.01523956825,1.51371546873,-0.659752547908,0.043649675745,-0.00160328455901
25139000000,ocean_waves,wamv,0.0,0.0,0.0,0.0,0.0,0.0,1.0,0.0247182541613,0.609702217024,-2.54822061416,0.144062701054,-0.156360620575,0.666005693778,0.71500609113,0.0,0.0,0.0,0.0,0.0,0.0,0.072590870826,1.01586382111,1.51275454922,-0.664406617073,0.043978340965,-0.00160634017977
25140000000,ocean_waves,wamv,0.0,0.0,0.0,0.0,0.0,0.0,1.0,0.0247908940298,0.610718725872,-2.54670887198,0.143838129876,-0.156122088417,0.666054197005,0.715058244169,0.0,0.0,0.0,0.0,0.0,0.0,0.0726381228777,1.01648437022,1.51179405011,-0.669061713792,0.0443068812674,-0.00160924068187
25141000000,ocean_waves,wamv,0.0,0.0,0.0,0.0,0.0,0.0,1.0,0.024863581106,0.611735851852,-2.54519809062,0.143611986867,-0.155881870741,0.666102963701,0.715110677694,0.0,0.0,0.0,0.0,0.0,0.0,0.072685308298,1.01710119685,1.51083395886,-0.673717862413,0.0446353023149,-0.00161199771121
25142000000,ocean_waves,wamv,0.0,0.0,0.0,0.0,0.0,0.0,1.0,0.0249363153239,0.612753591225,-2.54368826971,0.143384271301,-0.155639966879,0.666151992426,0.715163390031,0.0,0.0,0.0,0.0,0.0,0.0,0.072732427917,1.01771428219,1.509874262,-0.678375089888,0.0449636147883,-0.00161462663415
25142000000,ocean_waves,wamv,0.0,0.0,0.0,0.0,0.0,0.0,1.0,0.0250090966138,0.613771940233,-2.54217940888,0.143154982442,-0.155396376144,0.666201281724,0.715216379505,0.0,0.0,0.0,0.0,0.0,0.0,0.0727794774202,1.01832360741,1.50891494525,-0.683033425438,0.0452918344201,-0.00161714637997
25144000000,ocean_waves,wamv,0.0,0.0,0.0,0.0,0.0,0.0,1.0,0.0250819248957,0.614790895098,-2.54067150775,0.14292411955,-0.155151097833,0.666250830118,0.715269644441,0.0,0.0,0.0,0.0,0.0,0.0,0.0728264471459,1.01892915369,1.50795599368,-0.687692900137,0.0456199818896,-0.00161957917636
25146000000,ocean_waves,wamv,0.0,0.0,0.0,0.0,0.0,0.0,1.0,0.025154800075,0.615810452022,-2.53916456598,0.142691681875,-0.154904131221,0.666300636114,0.715323183162,0.0,0.0,0.0,0.0,0.0,0.0,0.0728733220323,1.01953090233,1.50699739189,-0.692353546403,0.0459480825623,-0.00162195017006
25146000000,ocean_waves,wamv,0.0,0.0,0.0,0.0,0.0,0.0,1.0,0.0252277220366,0.616830607191,-2.53765858326,0.142457668664,-0.154655475565,0.666350698194,0.715376993992,0.0,0.0,0.0,0.0,0.0,0.0,0.0729200817378,1.0201288348,1.50603912422,-0.697015397426,0.0462761660615,-0.00162428692816
25147000000,ocean_waves,wamv,0.0,0.0,0.0,0.0,0.0,0.0,1.0,0.02530069064,0.617851356772,-2.53615355926,0.142222079159,-0.154405130098,0.666401014819,0.715431075259,0.0,0.0,0.0,0.0,0.0,0.0,0.0729667009484,1.02072293282,1.50508117496,-0.701678486527,0.046604265667,-0.00162661882288
25148000000,ocean_waves,wamv,0.0,0.0,0.0,0.0,0.0,0.0,1.0,0.0253737057151,0.618872696914,-2.53464949369,0.141984912598,-0.15415309403,0.666451584429,0.715485425294,0.0,0.0,0.0,0.0,0.0,0.0,0.07301314988,1.0213131784,1.50412352865,-0.706342846498,0.0469324175467,-0.00162897631
25149000000,ocean_waves,wamv,0.0,0.0,0.0,0.0,0.0,0.0,1.0,0.025446767058,0.619894623746,-2.53314638627,0.141746168218,-0.153899366548,0.666502405438,0.715540042428,0.0,0.0,0.0,0.0,0.0,0.0,0.0730593949686,1.02189955393,1.5031661703,-0.711008508928,0.047260659837,-0.0016313901182
25150000000,ocean_waves,wamv,0.0,0.0,0.0,0.0,0.0,0.0,1.0,0.0255198744287,0.620917133384,-2.53164423672,0.141505845252,-0.153643946816,0.666553476238,0.715594924997,0.0,0.0,0.0,0.0,0.0,0.0,0.0731053997321,1.02248204217,1.50220908561,-0.71567550355,0.0475890316007,-0.00163389037597
25151000000,ocean_waves,wamv,0.0,0.0,0.0,0.0,0.0,0.0,1.0,0.0255930275484,0.621940221924,-2.5301430448,0.141263942937,-0.153386833973,0.6666047952,0.715650071338,0.0,0.0,0.0,0.0,0.0,0.0,0.0731511257732,1.02306062635,1.50125226128,-0.720343857645,0.0479175717007,-0.00163650570885
25152000000,ocean_waves,wamv,0.0,0.0,0.0,0.0,0.0,0.0,1.0,0.0256662260992,0.622963885447,-2.52864281026,0.141020460507,-0.153128027142,0.666656360671,0.715705479788,0.0,0.0,0.0,0.0,0.0,0.0,0.0731965338825,1.02363529009,1.50029568516,-0.725013595505,0.0482463176367,-0.00163926234566
25156000000,ocean_waves,wamv,0.0,0.0,0.0,0.0,0.0,0.0,1.0,0.0257394697246,0.623988120017,-2.52714353287,0.140775397199,-0.152867525421,0.666708170978,0.715761148684,0.0,0.0,0.0,0.0,0.0,0.0,0.0732415851931,1.02420601747,1.49933934643,-0.729684738016,0.0485753043981,-0.00164218327409
25156000000,ocean_waves,wamv,0.0,0.0,0.0,0.0,0.0,0.0,1.0,0.0258127580304,0.625012921683,-2.5256452124,0.140528752252,-0.152605327896,0.666760224428,0.71581707636,0.0,0.0,0.0,0.0,0.0,0.0,0.0732862423322,1.02477279296,1.49838323576,-0.734357302336,0.0489045633865,-0.00164528748685
25156000000,ocean_waves,wamv,0.0,0.0,0.0,0.0,0.0,0.0,1.0,0.0258860905878,0.62603828648,-2.52414784865,0.140280524904,-0.152341433636,0.66681251931,0.715873261145,0.0,0.0,0.0,0.0,0.0,0.0,0.0733304705164,1.02533560143,1.49742734538,-0.739031301705,0.04923412146,-0.00164858935483
25156000000,ocean_waves,wamv,0.0,0.0,0.0,0.0,0.0,0.0,1.0,0.0259594669367,0.627064210427,-2.52265144141,0.1400307144,-0.152075841698,0.666865053897,0.715929701359,0.0,0.0,0.0,0.0,0.0,0.0,0.073374238541,1.02589442805,1.4964716691,-0.74370674538,0.0495640001411,-0.00165209815649
25157000000,ocean_waves,wamv,0.0,0.0,0.0,0.0,0.0,0.0,1.0,0.0260328865903,0.628090689527,-2.52115599047,0.139779319982,-0.151808551133,0.666917826449,0.715986395313,0.0,0.0,0.0,0.0,0.0,0.0,0.0734175196222,1.02644925828,1.49551620234,-0.748383638695,0.0498942150231,-0.0016558177847
25158000000,ocean_waves,wamv,0.0,0.0,0.0,0.0,0.0,0.0,1.0,0.02610634904,0.629117719772,-2.51966149563,0.139526340897,-0.151539560983,0.666970835212,0.716043341307,0.0,0.0,0.0,0.0,0.0,0.0,0.0734602920623,1.02700007776,1.49456094208,-0.753061983219,0.0502247753931,-0.00165974663949
25160000000,ocean_waves,wamv,0.0,0.0,0.0,0.0,0.0,0.0,1.0,0.0261798537612,0.630145297137,-2.5181679567,0.139271776392,-0.151268870292,0.667024078424,0.716100537623,0.0,0.0,0.0,0.0,0.0,0.0,0.0735025397208,1.02754687232,1.49360588671,-0.757741777026,0.050555684077,-0.0016638777059
25160000000,ocean_waves,wamv,0.0,0.0,0.0,0.0,0.0,0.0,1.0,0.0262534002188,0.631173417584,-2.51667537346,0.139015625713,-0.150996478102,0.667077554315,0.716157982527,0.0,0.0,0.0,0.0,0.0,0.0,0.0735442522877,1.02808962784,1.49265103599,-0.762423015029,0.0508869375002,-0.00166819880426
25161000000,ocean_waves,wamv,0.0,0.0,0.0,0.0,0.0,0.0,1.0,0.0263269878735,0.632202077061,-2.51518374574,0.138757888109,-0.150722383459,0.667131261109,0.716215674265,0.0,0.0,0.0,0.0,0.0,0.0,0.0735854253682,1.02862833024,1.49169639085,-0.767105689384,0.0512185259424,-0.00167269299241
25162000000,ocean_waves,wamv,0.0,0.0,0.0,0.0,0.0,0.0,1.0,0.0264006161873,0.6332312715,-2.51369307331,0.138498562825,-0.150446585417,0.667185197026,0.71627361106,0.0,0.0,0.0,0.0,0.0,0.0,0.0736260603947,1.02916296541,1.49074195324,-0.771789789925,0.0515504339591,-0.001677339093
25163000000,ocean_waves,wamv,0.0,0.0,0.0,0.0,0.0,0.0,1.0,0.0264742846292,0.634260996823,-2.51220335599,0.138237649106,-0.150169083036,0.667239360282,0.716331791113,0.0,0.0,0.0,0.0,0.0,0.0,0.0736661643935,1.02969351915,1.48978772596,-0.776475304632,0.0518826409381,-0.0016821123158
25164000000,ocean_waves,wamv,0.0,0.0,0.0,0.0,0.0,0.0,1.0,0.0265479926807,0.635291248933,-2.51071459356,0.137975146194,-0.149889875389,0.667293749095,0.716390212599,0.0,0.0,0.0,0.0,0.0,0.0,0.073705749631,1.03021997713,1.48883371247,-0.78116222011,0.0522151217528,-0.00168698494422
25165000000,ocean_waves,wamv,0.0,0.0,0.0,0.0,0.0,0.0,1.0,0.02662173984,0.636322023722,-2.5092267858,0.137711053328,-0.149608961557,0.667348361678,0.716448873667,0.0,0.0,0.0,0.0,0.0,0.0,0.0737448331704,1.03074232486,1.4878799167,-0.785850522066,0.0525478474819,-0.00169192705714
25166000000,ocean_waves,wamv,0.0,0.0,0.0,0.0,0.0,0.0,1.0,0.0266955256268,0.637353317064,-2.50773993251,0.137445369743,-0.149326340639,0.667403196248,0.716507772439,0.0,0.0,0.0,0.0,0.0,0.0,0.0737834363634,1.03126054762,1.4869263429,-0.790540195789,0.0528807861629,-0.00169690726031
25167000000,ocean_waves,wamv,0.0,0.0,0.0,0.0,0.0,0.0,1.0,0.0267693495861,0.638385124821,-2.50625403347,0.137178094669,-0.149042011745,0.667458251022,0.716566907009,0.0,0.0,0.0,0.0,0.0,0.0,0.0738215843001,1.03177463048,1.4859729954,-0.795231226611,0.0532139035569,-0.00170189340709
25168000000,ocean_waves,wamv,0.0,0.0,0.0,0.0,0.0,0.0,1.0,0.0268432112908,0.639417442838,-2.50476908844,0.136909227331,-0.148755973998,0.667513524217,0.716626275446,0.0,0.0,0.0,0.0,0.0,0.0,0.0738593052331,1.0322845582,1.48501987851,-0.799923600365,0.0535471639046,-0.00170685329297
25170000000,ocean_waves,wamv,0.0,0.0,0.0,0.0,0.0,0.0,1.0,0.0269171103448,0.640450266945,-2.50328509721,0.136638766948,-0.148468226539,0.66756901405,0.716685875789,0.0,0.0,0.0,0.0,0.0,0.0,0.0738966299885,1.03279031527,1.4840669963,-0.804617303828,0.0538805306621,-0.00171175531323
25170000000,ocean_waves,wamv,0.0,0.0,0.0,0.0,0.0,0.0,1.0,0.0269910463848,0.641483592957,-2.50180205953,0.136366712731,-0.148178768519,0.667624718742,0.716745706052,0.0,0.0,0.0,0.0,0.0,0.0,0.0739335913686,1.03329188585,1.48311435245,-0.809312325146,0.0542139672098,-0.00171656907861
25171000000,ocean_waves,wamv,0.0,0.0,0.0,0.0,0.0,0.0,1.0,0.0270650190817,0.642517416671,-2.50031997517,0.136093063886,-0.147887599107,0.667680636509,0.716805764223,0.0,0.0,0.0,0.0,0.0,0.0,0.0739702235498,1.03378925373,1.48216195009,-0.81400865425,0.0545474375326,-0.00172126598627
25172000000,ocean_waves,wamv,0.0,0.0,0.0,0.0,0.0,0.0,1.0,0.0271390281411,0.643551733868,-2.49883884391,0.135817819609,-0.14759471748,0.667736765571,0.716866048264,0.0,0.0,0.0,0.0,0.0,0.0,0.0740065614719,1.03428240236,1.48120979167,-0.818706283249,0.0548809068717,-0.00172581974766
25173000000,ocean_waves,wamv,0.0,0.0,0.0,0.0,0.0,0.0,1.0,0.027213073304,0.644586540313,-2.49735866548,0.135540979091,-0.147300122828,0.667793104141,0.716926556116,0.0,0.0,0.0,0.0,0.0,0.0,0.074042640217,1.03477131476,1.48025787881,-0.823405206812,0.0552143423527,-0.00173020687437
25174000000,ocean_waves,wamv,0.0,0.0,0.0,0.0,0.0,0.0,1.0,0.0272871543457,0.645621831753,-2.49587943967,0.13526254151,-0.147003814351,0.667849650433,0.716987285694,0.0,0.0,0.0,0.0,0.0,0.0,0.0740784943721,1.03525597358,1.47930621216,-0.828105422515,0.0555477135931,-0.00173440712504
25176000000,ocean_waves,wamv,0.0,0.0,0.0,0.0,0.0,0.0,1.0,0.0273612710752,0.646657603917,-2.49440116622,0.134982506039,-0.146705791255,0.667906402656,0.717048234895,0.0,0.0,0.0,0.0,0.0,0.0,0.0741141573713,1.03573636103,1.47835479128,-0.832806931161,0.0558809932916,-0.00173840391538
25176000000,ocean_waves,wamv,0.0,0.0,0.0,0.0,0.0,0.0,1.0,0.0274354233329,0.647693852515,-2.49292384489,0.13470087184,-0.146406052754,0.667963359012,0.717109401598,0.0,0.0,0.0,0.0,0.0,0.0,0.0741496608167,1.0362124589,1.47740361457,-0.837509737055,0.0562141578015,-0.00174218469065
25177000000,ocean_waves,wamv,0.0,0.0,0.0,0.0,0.0,0.0,1.0,0.0275096109884,0.64873057324,-2.49144747547,0.134417638065,-0.146104598062,0.668020517695,0.717170783664,0.0,0.0,0.0,0.0,0.0,0.0,0.0741850337783,1.0366842486,1.47645267913,-0.842213848233,0.0565471876835,-0.00174574125938
25178000000,ocean_waves,wamv,0.0,0.0,0.0,0.0,0.0,0.0,1.0,0.0275838339369,0.649767761766,-2.4899720577,0.134132803857,-0.145801426395,0.668077876892,0.717232378938,0.0,0.0,0.0,0.0,0.0,0.0,0.0742203020796,1.03715171109,1.47550198076,-0.846919276617,0.0568800682334,-0.00174907008232
25179000000,ocean_waves,wamv,0.0,0.0,0.0,0.0,0.0,0.0,1.0,0.0276580920957,0.650805413746,-2.48849759137,0.133846368348,-0.145496536967,0.668135434779,0.717294185257,0.0,0.0,0.0,0.0,0.0,0.0,0.0742554875792,1.037614827,1.47455151386,-0.851626038103,0.0572127899724,-0.00175217250884
25180000000,ocean_waves,wamv,0.0,0.0,0.0,0.0,0.0,0.0,1.0,0.0277323853991,0.651843524813,-2.48702407626,0.133558330662,-0.145189928984,0.668193189517,0.717356200444,0.0,0.0,0.0,0.0,0.0,0.0,0.0742906074666,1.0380735766,1.47360127148,-0.856334152545,0.0575453490838,-0.00175505494857
25181000000,ocean_waves,wamv,0.0,0.0,0.0,0.0,0.0,0.0,1.0,0.0278067137935,0.652882090583,-2.48555151216,0.133268689914,-0.144881601646,0.668251139253,0.717418422317,0.0,0.0,0.0,0.0,0.0,0.0,0.0743256735939,1.03852793988,1.47265124532,-0.861043643651,0.0578777477759,-0.00175772896435
25182000000,ocean_waves,wamv,0.0,0.0,0.0,0.0,0.0,0.0,1.0,0.0278810772308,0.653921106648,-2.48407989887,0.132977445207,-0.144571554141,0.668309282118,0.717480848688,0.0,0.0,0.0,0.0,0.0,0.0,0.0743606918727,1.0389778966,1.47170142582,-0.865754538752,0.058209994546,-0.00176021126881
25183000000,ocean_waves,wamv,0.0,0.0,0.0,0.0,0.0,0.0,1.0,0.0279554756629,0.654960568583,-2.4826092362,0.13268459564,-0.14425978564,0.668367616223,0.717543477366,0.0,0.0,0.0,0.0,0.0,0.0,0.0743956617699,1.03942342638,1.47075180229,-0.87046686846,0.058542104319,-0.00176252360707
25184000000,ocean_waves,wamv,0.0,0.0,0.0,0.0,0.0,0.0,1.0,0.0280299090339,0.65600047194,-2.48113952397,0.132390140301,-0.143946295299,0.66842613966,0.71760630616,0.0,0.0,0.0,0.0,0.0,0.0,0.0744305759367,1.03986450878,1.46980236304,-0.875180666203,0.0588740984315,-0.00176469250802
25185000000,ocean_waves,wamv,0.0,0.0,0.0,0.0,0.0,0.0,1.0,0.0281043772738,0.657040812251,-2.47967076202,0.132094078274,-0.143631082252,0.668484850494,0.71766933288,0.0,0.0,0.0,0.0,0.0,0.0,0.0744654200088,1.04030112339,1.4688530956,-0.879895967642,0.0592060044366,-0.00176674888894
25185000000,ocean_waves,wamv,0.0,0.0,0.0,0.0,0.0,0.0,1.0,0.028178880291,0.658081585029,-2.47820295019,0.131796408636,-0.143314145612,0.66854374677,0.717732555339,0.0,0.0,0.0,0.0,0.0,0.0,0.0745001726092,1.04073324992,1.46790398699,-0.884612809977,0.0595378557074,-0.00176872750278
25187000000,ocean_waves,wamv,0.0,0.0,0.0,0.0,0.0,0.0,1.0,0.028253417966,0.659122785765,-2.47673608835,0.131497130461,-0.142995484464,0.668602826505,0.717795971355,0.0,0.0,0.0,0.0,0.0,0.0,0.0745348055828,1.04116086834,1.46695502396,-0.889331231175,0.059869690826,-0.00177066622426
25188000000,ocean_waves,wamv,0.0,0.0,0.0,0.0,0.0,0.0,1.0,0.0283279901448,0.660164409932,-2.47527017636,0.13119624282,-0.142675097872,0.668662087689,0.717859578751,0.0,0.0,0.0,0.0,0.0,0.0,0.0745692844788,1.04158395892,1.46600619332,-0.894051269122,0.0602015527543,-0.00177260518026
25190000000,ocean_waves,wamv,0.0,0.0,0.0,0.0,0.0,0.0,1.0,0.0284025966331,0.661206452984,-2.47380521412,0.130893744784,-0.142352984868,0.668721528284,0.717923375358,0.0,0.0,0.0,0.0,0.0,0.0,0.0746035692856,1.04200250237,1.46505748228,-0.89877296075,0.0605334877974,-0.00177458573957
25190000000,ocean_waves,wamv,0.0,0.0,0.0,0.0,0.0,0.0,1.0,0.0284772371925,0.662248910353,-2.47234120152,0.130589635421,-0.14202914446,0.668781146225,0.717987359011,0.0,0.0,0.0,0.0,0.0,0.0,0.074637615407,1.04241647987,1.46410887872,-0.903496341164,0.0608655443847,-0.0017766493891
25192000000,ocean_waves,wamv,0.0,0.0,0.0,0.0,0.0,0.0,1.0,0.0285519115361,0.663291777457,-2.47087813848,0.130283913804,-0.14170357563,0.668840939417,0.71805152755,0.0,0.0,0.0,0.0,0.0,0.0,0.0746713748528,1.04282587319,1.4631603716,-0.908221442805,0.0611977717076,-0.00177883653411
25192000000,ocean_waves,wamv,0.0,0.0,0.0,0.0,0.0,0.0,1.0,0.0286266193275,0.664335049693,-2.46941602491,0.129976579006,-0.141376277332,0.66890090574,0.718115878823,0.0,0.0,0.0,0.0,0.0,0.0,0.0747047975991,1.04323066465,1.46221195113,-0.912948294693,0.0615302182664,-0.00178118526971
25193000000,ocean_waves,wamv,0.0,0.0,0.0,0.0,0.0,0.0,1.0,0.0287013601792,0.665378722442,-2.46795486075,0.129667630106,-0.1410472485,0.668961043046,0.718180410677,0.0,0.0,0.0,0.0,0.0,0.0,0.0747378330615,1.0436308372,1.46126360914,-0.91767692178,0.0618629303905,-0.00178373017746
25194000000,ocean_waves,wamv,0.0,0.0,0.0,0.0,0.0,0.0,1.0,0.0287761336545,0.666422791069,-2.46649464592,0.129357066187,-0.140716488046,0.669021349162,0.718245120962,0.0,0.0,0.0,0.0,0.0,0.0,0.0747704316139,1.04402637441,1.46031533921,-0.922407344434,0.0621959507995,-0.00178650120356
25195000000,ocean_waves,wamv,0.0,0.0,0.0,0.0,0.0,0.0,1.0,0.0288509392693,0.667467250923,-2.46503538037,0.129044886335,-0.140383994863,0.669081821893,0.718310007525,0.0,0.0,0.0,0.0,0.0,0.0,0.0748025460797,1.0444172604,1.45936713685,-0.927139578085,0.0625293172754,-0.00178952267351
25196000000,ocean_waves,wamv,0.0,0.0,0.0,0.0,0.0,0.0,1.0,0.0289257764963,0.668512097338,-2.46357706404,0.128731089644,-0.140049767831,0.669142459023,0.718375068207,0.0,0.0,0.0,0.0,0.0,0.0,0.0748341331273,1.04480347984,1.4584189996,-0.931873633032,0.0628630615084,-0.00179281249202
25197000000,ocean_waves,wamv,0.0,0.0,0.0,0.0,0.0,0.0,1.0,0.0290006447698,0.669557325631,-2.46211969686,0.128415675213,-0.139713805819,0.669203258319,0.718440300845,0.0,0.0,0.0,0.0,0.0,0.0,0.0748651545041,1.04518501784,1.45747092702,-0.936609514421,0.0631972081697,-0.00179638156582
25198000000,ocean_waves,wamv,0.0,0.0,0.0,0.0,0.0,0.0,1.0,0.029075543492,0.670602931106,-2.46066327879,0.128098642145,-0.139376107692,0.669264217533,0.718505703259,0.0,0.0,0.0,0.0,0.0,0.0,0.0748955780607,1.04556185995,1.45652292069,-0.941347222373,0.0635317742484,-0.00180023347381
25199000000,ocean_waves,wamv,0.0,0.0,0.0,0.0,0.0,0.0,1.0,0.0291504720399,0.671648909054,-2.45920780975,0.127779989548,-0.13903667231,0.669325334402,0.718571273258,0.0,0.0,0.0,0.0,0.0,0.0,0.0749253785282,1.04593399198,1.45557498413,-0.946086752256,0.0638667686723,-0.0018043643941
25200000000,ocean_waves,wamv,0.0,0.0,0.0,0.0,0.0,0.0,1.0,0.0292254297725,0.672695254751,-2.45775328968,0.127459716536,-0.138695498534,0.669386606657,0.718637008632,0.0,0.0,0.0,0.0,0.0,0.0,0.0749545380352,1.04630140001,1.45462712261,-0.950828095075,0.0642021922137,-0.00180876328016
25201000000,ocean_waves,wamv,0.0,0.0,0.0,0.0,0.0,0.0,1.0,0.0293004160389,0.673741963457,-2.45629971851,0.127137822223,-0.138352585234,0.66944803202,0.718702907149,0.0,0.0,0.0,0.0,0.0,0.0,0.0749830463617,1.04666407021,1.45367934304,-0.955571237954,0.0645380376638,-0.00181341226709
25201000000,ocean_waves,wamv,0.0,0.0,0.0,0.0,0.0,0.0,1.0,0.0293754301851,0.674789030422,-2.45484709614,0.126814305729,-0.138007931285,0.669509608209,0.718768966554,0.0,0.0,0.0,0.0,0.0,0.0,0.0750109009488,1.04702198886,1.45273165374,-0.960316164685,0.064874290248,-0.00181828727493
25203000000,ocean_waves,wamv,0.0,0.0,0.0,0.0,0.0,0.0,1.0,0.0294504715625,0.67583645088,-2.45339542249,0.126489166172,-0.137661535576,0.66957133294,0.718835184565,0.0,0.0,0.0,0.0,0.0,0.0,0.0750381066904,1.04737514218,1.45178406421,-0.965062856327,0.0652109282393,-0.00182335877136
25204000000,ocean_waves,wamv,0.0,0.0,0.0,0.0,0.0,0.0,1.0,0.0295255395341,0.676884220051,-2.45194469746,0.126162402674,-0.137313397011,0.66963320393,0.718901558871,0.0,0.0,0.0,0.0,0.0,0.0,0.0750646755434,1.04772351632,1.45083658494,-0.969811291817,0.0655479237275,-0.00182859264969
25207000000,ocean_waves,wamv,0.0,0.0,0.0,0.0,0.0,0.0,1.0,0.0296006334815,0.677932333142,-2.45049492092,0.125834014355,-0.136963514509,0.669695218895,0.718968087131,0.0,0.0,0.0,0.0,0.0,0.0,0.0750906259953,1.04806709725,1.4498892271,-0.974561448605,0.0658852434964,-0.00183395118076
25207000000,ocean_waves,wamv,0.0,0.0,0.0,0.0,0.0,0.0,1.0,0.0296757528108,0.678980785345,-2.44904609276,0.125504000332,-0.13661188701,0.669757375556,0.719034766974,0.0,0.0,0.0,0.0,0.0,0.0,0.0751159824265,1.04840587076,1.44894200238,-0.979313303268,0.0662228499672,-0.00183939399908
25207000000,ocean_waves,wamv,0.0,0.0,0.0,0.0,0.0,0.0,1.0,0.0297508969575,0.680029571838,-2.44759821283,0.125172359723,-0.136258513471,0.669819671634,0.719101595993,0.0,0.0,0.0,0.0,0.0,0.0,0.0751407744026,1.04873982234,1.44799492273,-0.984066832126,0.0665607021695,-0.00184487908975
25210000000,ocean_waves,wamv,0.0,0.0,0.0,0.0,0.0,0.0,1.0,0.0298260653911,0.681078687783,-2.44615128098,0.124839091639,-0.135903392873,0.669882104857,0.719168571753,0.0,0.0,0.0,0.0,0.0,0.0,0.0751650359247,1.04906893718,1.44704800011,-0.988822011827,0.0668987567118,-0.00185036374991
25210000000,ocean_waves,wamv,0.0,0.0,0.0,0.0,0.0,0.0,1.0,0.0299012576188,0.682128128328,-2.44470529705,0.12450419519,-0.135546524216,0.669944672953,0.719235691783,0.0,0.0,0.0,0.0,0.0,0.0,0.0751888046576,1.04939320013,1.44610124631,-0.993578819923,0.067236968729,-0.0018558055056
25210000000,ocean_waves,wamv,0.0,0.0,0.0,0.0,0.0,0.0,1.0,0.0299764731884,0.683177888606,-2.44326026087,0.124167669481,-0.13518790652,0.670007373658,0.719302953581,0.0,0.0,0.0,0.0,0.0,0.0,0.0752121211504,1.04971259561,1.44515467273,-0.998337235418,0.0675752927941,-0.001861162972
25213000000,ocean_waves,wamv,0.0,0.0,0.0,0.0,0.0,0.0,1.0,0.0300517116901,0.684227963731,-2.44181617226,0.123829513608,-0.134827538827,0.670070204707,0.719370354614,0.0,0.0,0.0,0.0,0.0,0.0,0.075235028056,1.05002710764,1.44420829021,-1.0030972393,0.0679136837878,-0.0018663966514
25213000000,ocean_waves,wamv,0.0,0.0,0.0,0.0,0.0,0.0,1.0,0.0301269727584,0.685278348804,-2.44037303101,0.123489726666,-0.134465420198,0.670133163838,0.719437892319,0.0,0.0,0.0,0.0,0.0,0.0,0.0752575693492,1.05033671975,1.44326210877,-1.00785881504,0.0682520977248,-0.00187146966774
25213000000,ocean_waves,wamv,0.0,0.0,0.0,0.0,0.0,0.0,1.0,0.030202256072,0.686329038907,-2.43893083694,0.123148307738,-0.13410154971,0.67019624879,0.719505564103,0.0,0.0,0.0,0.0,0.0,0.0,0.0752797895416,1.05064141497,1.44231613753,-1.01262194909,0.0685904925405,-0.00187634844014
25214000000,ocean_waves,wamv,0.0,0.0,0.0,0.0,0.0,0.0,1.0,0.0302775613541,0.687380029106,-2.43748958981,0.122805255904,-0.133735926459,0.670259457302,0.719573367346,0.0,0.0,0.0,0.0,0.0,0.0,0.0753017328867,1.05094117581,1.44137038448,-1.01738663132,0.068928828844,-0.00188100329918
25215000000,ocean_waves,wamv,0.0,0.0,0.0,0.0,0.0,0.0,1.0,0.0303528883709,0.688431314446,-2.43604928942,0.122460570232,-0.133368549551,0.67032278711,0.719641299406,0.0,0.0,0.0,0.0,0.0,0.0,0.0753234425686,1.05123598423,1.44042485633,-1.02215285542,0.0692670706403,-0.00188540905003
25216000000,ocean_waves,wamv,0.0,0.0,0.0,0.0,0.0,0.0,1.0,0.03042823693,0.689482889957,-2.43460993555,0.122114249784,-0.132999418107,0.670386235947,0.719709357613,0.0,0.0,0.0,0.0,0.0,0.0,0.0753449598712,1.05152582164,1.43947955842,-1.02692061931,0.0696051860279,-0.00188954548473
25217000000,ocean_waves,wamv,0.0,0.0,0.0,0.0,0.0,0.0,1.0,0.0305036068774,0.690534750647,-2.43317152796,0.121766293614,-0.132628531253,0.670449801539,0.719777539281,0.0,0.0,0.0,0.0,0.0,0.0,0.0753663233242,1.05181066885,1.43853449457,-1.03168992541,0.0699431478712,-0.00189339784419
25218000000,ocean_waves,wamv,0.0,0.0,0.0,0.0,0.0,0.0,1.0,0.030578998094,0.691586891505,-2.43173406643,0.121416700764,-0.132255888123,0.670513481604,0.719845841705,0.0,0.0,0.0,0.0,0.0,0.0,0.0753875678301,1.05209050615,1.437589667,-1.03646078091,0.0702809344435,-0.0018969572262
25219000000,ocean_waves,wamv,0.0,0.0,0.0,0.0,0.0,0.0,1.0,0.0306544104913,0.692639307501,-2.43029755073,0.121065470268,-0.131881487851,0.670577273852,0.719914262162,0.0,0.0,0.0,0.0,0.0,0.0,0.0754087237815,1.05236531325,1.43664507626,-1.04123319789,0.0706185300326,-0.00190022093194
25220000000,ocean_waves,wamv,0.0,0.0,0.0,0.0,0.0,0.0,1.0,0.0307298440056,0.693691993583,-2.42886198062,0.120712601151,-0.131505329571,0.670641175977,0.719982797921,0.0,0.0,0.0,0.0,0.0,0.0,0.0754298161842,1.05263506939,1.43570072125,-1.04600719339,0.0709559254923,-0.00190319273905
25221000000,ocean_waves,wamv,0.0,0.0,0.0,0.0,0.0,0.0,1.0,0.030805298592,0.694744944678,-2.42742735588,0.120358092431,-0.13112741241,0.670705185659,0.720051446239,0.0,0.0,0.0,0.0,0.0,0.0,0.0754508638097,1.05289975334,1.43475659918,-1.05078278936,0.0712931187204,-0.00190588308491
25222000000,ocean_waves,wamv,0.0,0.0,0.0,0.0,0.0,0.0,1.0,0.0308807742173,0.69579815569,-2.4259936763,0.120001943112,-0.130747735485,0.670769300561,0.720120204369,0.0,0.0,0.0,0.0,0.0,0.0,0.0754718784095,1.05315934347,1.43381270568,-1.0555600124,0.0716301150357,-0.00190830913979
25223000000,ocean_waves,wamv,0.0,0.0,0.0,0.0,0.0,0.0,1.0,0.0309562708525,0.696851621504,-2.42456094165,0.119644152196,-0.130366297902,0.670833518323,0.720189069558,0.0,0.0,0.0,0.0,0.0,0.0,0.0754928640269,1.05341381788,1.4328690349,-1.06033889345,0.0719669274236,-0.0019104947476
25224000000,ocean_waves,wamv,0.0,0.0,0.0,0.0,0.0,0.0,1.0,0.0310317884643,0.69790533698,-2.42312915172,0.119284718674,-0.12998309875,0.670897836566,0.720258039054,0.0,0.0,0.0,0.0,0.0,0.0,0.0755138164513,1.05366315446,1.43192557967,-1.06511946731,0.0723035766167,-0.00191247021019
25224000000,ocean_waves,wamv,0.0,0.0,0.0,0.0,0.0,0.0,1.0,0.0311073270065,0.698959296957,-2.42169830633,0.118923641531,-0.129598137095,0.67096225288,0.720327110108,0.0,0.0,0.0,0.0,0.0,0.0,0.0755347228578,1.05390733105,1.43098233176,-1.06990177194,0.0726400909792,-0.00191427189316
25226000000,ocean_waves,wamv,0.0,0.0,0.0,0.0,0.0,0.0,1.0,0.0311828864115,0.700013496253,-2.42026840526,0.11856091975,-0.129211411984,0.671026764831,0.720396279975,0.0,0.0,0.0,0.0,0.0,0.0,0.0755555616779,1.0541463255,1.4300392821,-1.0746858477,0.072976506163,-0.00191594163501
25227000000,ocean_waves,wamv,0.0,0.0,0.0,0.0,0.0,0.0,1.0,0.0312584665815,0.701067929662,-2.41883944835,0.118196552306,-0.128822922434,0.671091369955,0.720465545915,0.0,0.0,0.0,0.0,0.0,0.0,0.0755763027387,1.0543801159,1.42909642116,-1.07947173644,0.073312864516,-0.00191752594851
25228000000,ocean_waves,wamv,0.0,0.0,0.0,0.0,0.0,0.0,1.0,0.0313340673803,0.702122591957,-2.41741143542,0.117830538177,-0.128432667437,0.671156065753,0.720534905199,0.0,0.0,0.0,0.0,0.0,0.0,0.0755969077006,1.05460868064,1.42815373926,-1.08425948048,0.0736492142292,-0.00191907501307
25229000000,ocean_waves,wamv,0.0,0.0,0.0,0.0,0.0,0.0,1.0,0.0314096886258,0.703177477891,-2.4159843663,0.117462876338,-0.128040645953,0.671220849698,0.720604355105,0.0,0.0,0.0,0.0,0.0,0.0,0.075617330808,1.05483199858,1.42721122701,-1.08904912155,0.0739856082265,-0.00192064146952
25230000000,ocean_waves,wamv,0.0,0.0,0.0,0.0,0.0,0.0,1.0,0.0314853300842,0.704232582194,-2.41455824086,0.117093565766,-0.127646856915,0.671285719226,0.720673892922,0.0,0.0,0.0,0.0,0.0,0.0,0.0756375199505,1.05505004915,1.42626887565,-1.09384069969,0.0743221028169,-0.00192227904335
25231000000,ocean_waves,wamv,0.0,0.0,0.0,0.0,0.0,0.0,1.0,0.0315609914642,0.705287899579,-2.41313305893,0.116722605442,-0.127251299223,0.67135067174,0.720743515947,0.0,0.0,0.0,0.0,0.0,0.0,0.0756574180118,1.05526281248,1.42532667747,-1.09863425215,0.0746587561458,-0.00192404103722
25232000000,ocean_waves,wamv,0.0,0.0,0.0,0.0,0.0,0.0,1.0,0.0316366724142,0.706343424737,-2.41170882037,0.116349994352,-0.126853971751,0.671415704609,0.720813221486,0.0,0.0,0.0,0.0,0.0,0.0,0.0756769644616,1.05547026945,1.4243846262,-1.10342981244,0.0749956265019,-0.00192597874688
25233000000,ocean_waves,wamv,0.0,0.0,0.0,0.0,0.0,0.0,1.0,0.0317123725204,0.707399152343,-2.41028552507,0.115975731487,-0.126454873346,0.671480815172,0.720883006853,0.0,0.0,0.0,0.0,0.0,0.0,0.075696097129,1.05567240176,1.42344271733,-1.10822740942,0.0753327705484,-0.00192813986677
25234000000,ocean_waves,wamv,0.0,0.0,0.0,0.0,0.0,0.0,1.0,0.0317880913069,0.708455077054,-2.40886317287,0.115599815846,-0.126054002828,0.671546000736,0.720952869363,0.0,0.0,0.0,0.0,0.0,0.0,0.0757147540763,1.05586919194,1.42250094837,-1.11302706656,0.0756702415596,-0.00193056695857
25235000000,ocean_waves,wamv,0.0,0.0,0.0,0.0,0.0,0.0,1.0,0.0318638282383,0.709511193508,-2.40744176365,0.115222246439,-0.125651359001,0.671611258579,0.721022806336,0.0,0.0,0.0,0.0,0.0,0.0,0.0757328754878,1.05606062336,1.42155931909,-1.11782880141,0.0760080877464,-0.00193329605579
25236000000,ocean_waves,wamv,0.0,0.0,0.0,0.0,0.0,0.0,1.0,0.0319395827231,0.710567496331,-2.40602129728,0.114843022282,-0.125246940649,0.671676585955,0.721092815087,0.0,0.0,0.0,0.0,0.0,0.0,0.0757504054801,1.05624668018,1.42061783169,-1.12263262525,0.076346350753,-0.0019363554753
25237000000,ocean_waves,wamv,0.0,0.0,0.0,0.0,0.0,0.0,1.0,0.0320153541195,0.711623980131,-2.40460177361,0.114462142401,-0.124840746545,0.671741980095,0.721162892929,0.0,0.0,0.0,0.0,0.0,0.0,0.0757672937504,1.05642734727,1.4196764908,-1.12743854299,0.0766850643959,-0.00193976489324
25238000000,ocean_waves,wamv,0.0,0.0,0.0,0.0,0.0,0.0,1.0,0.0320911417425,0.712680639502,-2.40318319249,0.114079605831,-0.124432775456,0.67180743821,0.72123303716,0.0,0.0,0.0,0.0,0.0,0.0,0.075783496989,1.05660261017,1.41873530353,-1.13224655318,0.0770242537018,-0.00194353472923
25239000000,ocean_waves,wamv,0.0,0.0,0.0,0.0,0.0,0.0,1.0,0.0321669448718,0.713737469025,-2.40176555378,0.113695411618,-0.124023026144,0.671872957497,0.721303245069,0.0,0.0,0.0,0.0,0.0,0.0,0.0757989800013,1.05677245495,1.41779427939,-1.13705664833,0.0773639342788,-0.00194766586152
25240000000,ocean_waves,wamv,0.0,0.0,0.0,0.0,0.0,0.0,1.0,0.0322427627609,0.714794463266,-2.40034885731,0.113309558814,-0.123611497376,0.671938535142,0.721373513923,0.0,0.0,0.0,0.0,0.0,0.0,0.0758137165068,1.05693686811,1.41685343009,-1.14186881529,0.077704112035,-0.00195214967649
25241000000,ocean_waves,wamv,0.0,0.0,0.0,0.0,0.0,0.0,1.0,0.0323185946463,0.715851616779,-2.39893310289,0.11292204648,-0.123198187926,0.67200416832,0.721443840968,0.0,0.0,0.0,0.0,0.0,0.0,0.0758276896051,1.0570958365,1.41591276943,-1.14668303585,0.0780447832343,-0.00195696843475
25242000000,ocean_waves,wamv,0.0,0.0,0.0,0.0,0.0,0.0,1.0,0.0323944397572,0.716908924105,-2.39751829032,0.112532873681,-0.122783096577,0.672069854204,0.721514223426,0.0,0.0,0.0,0.0,0.0,0.0,0.0758408919196,1.05724934714,1.41497231299,-1.15149928733,0.0783859348622,-0.00196209592025
25243000000,ocean_waves,wamv,0.0,0.0,0.0,0.0,0.0,0.0,1.0,0.0324702973248,0.717966379772,-2.3961044194,0.112142039492,-0.122366222132,0.672135589963,0.721584658488,0.0,0.0,0.0,0.0,0.0,0.0,0.0758533254486,1.05739738717,1.41403207792,-1.15631754337,0.0787275452573,-0.00196749832466
25244000000,ocean_waves,wamv,0.0,0.0,0.0,0.0,0.0,0.0,1.0,0.0325461665912,0.719023978293,-2.39469148989,0.111749542987,-0.121947563409,0.672201372768,0.721655143312,0.0,0.0,0.0,0.0,0.0,0.0,0.0758650011648,1.05753994372,1.41309208264,-1.16113777466,0.0790695849568,-0.00197313531343
25245000000,ocean_waves,wamv,0.0,0.0,0.0,0.0,0.0,0.0,1.0,0.0326220468178,0.720081714172,-2.39327950154,0.111355383248,-0.121527119251,0.672267199793,0.721725675025,0.0,0.0,0.0,0.0,0.0,0.0,0.0758759384111,1.05767700382,1.41215234653,-1.16595994972,0.079412017698,-0.00197896121567
25246000000,ocean_waves,wamv,0.0,0.0,0.0,0.0,0.0,0.0,1.0,0.0326979372931,0.721139581896,-2.39186845407,0.110959559356,-0.121104888524,0.672333068216,0.721796250715,0.0,0.0,0.0,0.0,0.0,0.0,0.0758861641447,1.05780855432,1.41121288971,-1.17078403567,0.0797548015225,-0.00198492628379
25247000000,ocean_waves,wamv,0.0,0.0,0.0,0.0,0.0,0.0,1.0,0.0327738373391,0.72219757594,-2.3904583472,0.110562070393,-0.12068087012,0.67239897522,0.721866867435,0.0,0.0,0.0,0.0,0.0,0.0,0.0758957120744,1.0579345818,1.41027373266,-1.17560999902,0.0800978899313,-0.00199097797432
25248000000,ocean_waves,wamv,0.0,0.0,0.0,0.0,0.0,0.0,1.0,0.0328497463175,0.723255690767,-2.38904918061,0.110162915443,-0.12025506296,0.672464917996,0.721937522199,0.0,0.0,0.0,0.0,0.0,0.0,0.0759046217323,1.05805507251,1.40933489604,-1.18043780638,0.0804412330515,-0.00199706221
25248000000,ocean_waves,wamv,0.0,0.0,0.0,0.0,0.0,0.0,1.0,0.0329256636343,0.724313920822,-2.38764095396,0.109762093586,-0.119827465993,0.672530893741,0.722008211982,0.0,0.0,0.0,0.0,0.0,0.0,0.0759129375119,1.0581700123,1.40839640034,-1.1852674252,0.0807847787831,-0.00200312459281
25250000000,ocean_waves,wamv,0.0,0.0,0.0,0.0,0.0,0.0,1.0,0.0330015887438,0.725372260539,-2.38623366691,0.109359603902,-0.119398078193,0.67259689966,0.722078933723,0.0,0.0,0.0,0.0,0.0,0.0,0.0759207076943,1.05827938655,1.40745826572,-1.19009882443,0.0811284739031,-0.00200911154781
25251000000,ocean_waves,wamv,0.0,0.0,0.0,0.0,0.0,0.0,1.0,0.0330775211513,0.726430704335,-2.38482731908,0.108955445466,-0.118966898565,0.672662932962,0.722149684324,0.0,0.0,0.0,0.0,0.0,0.0,0.075927983475,1.05838318015,1.4065205117,-1.19493197517,0.0814722651188,-0.00201497138658
25252000000,ocean_waves,wamv,0.0,0.0,0.0,0.0,0.0,0.0,1.0,0.0331534604155,0.727489246612,-2.38342191008,0.108549617351,-0.118533926138,0.672728990862,0.722220460649,0.0,0.0,0.0,0.0,0.0,0.0,0.0759348179965,1.0584813774,1.40558315695,-1.19976685133,0.0818161000625,-0.00202065528587
25253000000,ocean_waves,wamv,0.0,0.0,0.0,0.0,0.0,0.0,1.0,0.0332294061491,0.728547881753,-2.3820174395,0.108142118623,-0.118099159969,0.672795070581,0.722291259532,0.0,0.0,0.0,0.0,0.0,0.0,0.0759412653844,1.05857396198,1.40464621912,-1.20460343017,0.0821599282332,-0.00202611818325
25253000000,ocean_waves,wamv,0.0,0.0,0.0,0.0,0.0,0.0,1.0,0.0333053580188,0.729606604129,-2.38061390691,0.107732948345,-0.117662599135,0.672861169339,0.722362077771,0.0,0.0,0.0,0.0,0.0,0.0,0.0759473797812,1.05866091693,1.40370971458,-1.20944169291,0.0825037018891,-0.00203131959454
25255000000,ocean_waves,wamv,0.0,0.0,0.0,0.0,0.0,0.0,1.0,0.0333813157448,0.730665408088,-2.37921131187,0.107322105571,-0.117224242734,0.672927284358,0.722432912136,0.0,0.0,0.0,0.0,0.0,0.0,0.0759532143709,1.05874222459,1.40277365829,-1.2142816252,0.0828473768982,-0.00203622435869
25256000000,ocean_waves,wamv,0.0,0.0,0.0,0.0,0.0,0.0,1.0,0.0334572790981,0.731724287964,-2.37780965394,0.10690958935,-0.116784089883,0.672993412859,0.722503759369,0.0,0.0,0.0,0.0,0.0,0.0,0.0759588203849,1.05881786656,1.40183806362,-1.21912321763,0.0831909135539,-0.00204080331566
25257000000,ocean_waves,wamv,0.0,0.0,0.0,0.0,0.0,0.0,1.0,0.0335332478983,0.732783238069,-2.37640893263,0.106495398724,-0.116342139712,0.673059552059,0.722574616189,0.0,0.0,0.0,0.0,0.0,0.0,0.0759642460877,1.05888782371,1.40090294217,-1.22396646606,0.0835342773578,-0.00204503391946
25258000000,ocean_waves,wamv,0.0,0.0,0.0,0.0,0.0,0.0,1.0,0.0336092220091,0.733842252696,-2.37500914748,0.106079532725,-0.115898391364,0.673125699165,0.722645479291,0.0,0.0,0.0,0.0,0.0,0.0,0.0759695357397,1.05895207617,1.39996830375,-1.22881137203,0.0838774397697,-0.00204890078573
25259000000,ocean_waves,wamv,0.0,0.0,0.0,0.0,0.0,0.0,1.0,0.0336852013334,0.734901326117,-2.37361029801,0.105661990378,-0.115452843986,0.67319185138,0.722716345353,0.0,0.0,0.0,0.0,0.0,0.0,0.0759747285459,1.05901060332,1.39903415619,-1.23365794292,0.0842203789173,-0.00205239616668
25260000000,ocean_waves,wamv,0.0,0.0,0.0,0.0,0.0,0.0,1.0,0.0337611858072,0.735960452584,-2.37221238371,0.105242770701,-0.115005496729,0.673258005889,0.72278721104,0.0,0.0,0.0,0.0,0.0,0.0,0.0759798576058,1.05906338384,1.3981005054,-1.23850619205,0.0845630802517,-0.00205552034197
25261000000,ocean_waves,wamv,0.0,0.0,0.0,0.0,0.0,0.0,1.0,0.0338371753925,0.737019626324,-2.37081540411,0.104821872702,-0.114556348743,0.673324159866,0.722858073004,0.0,0.0,0.0,0.0,0.0,0.0,0.0759849488865,1.05911039576,1.39716735528,-1.2433561387,0.0849055371291,-0.00205828190733
25262000000,ocean_waves,wamv,0.0,0.0,0.0,0.0,0.0,0.0,1.0,0.0339131700692,0.738078841545,-2.36941935871,0.104399295382,-0.11410539917,0.673390310463,0.722928927888,0.0,0.0,0.0,0.0,0.0,0.0,0.0759900202544,1.05915161652,1.39623470788,-1.24820780792,0.0852477512897,-0.002060697938
25263000000,ocean_waves,wamv,0.0,0.0,0.0,0.0,0.0,0.0,1.0,0.0339891698261,0.739138092429,-2.368024247,0.103975037735,-0.113652647144,0.673456454812,0.722999772335,0.0,0.0,0.0,0.0,0.0,0.0,0.0759950806065,1.05918702308,1.39530256342,-1.25306123011,0.0855897332023,-0.00206279399918
25264000000,ocean_waves,wamv,0.0,0.0,0.0,0.0,0.0,0.0,1.0,0.0340651746509,0.740197373137,-2.3666300685,0.103549098746,-0.113198091782,0.673522590018,0.723070602985,0.0,0.0,0.0,0.0,0.0,0.0,0.0760001291494,1.05921659207,1.39437092053,-1.2579164406,0.0859315022367,-0.00206460397363
25265000000,ocean_waves,wamv,0.0,0.0,0.0,0.0,0.0,0.0,1.0,0.0341411845208,0.741256677804,-2.36523682272,0.103121477398,-0.112741732181,0.673588713159,0.72314141648,0.0,0.0,0.0,0.0,0.0,0.0,0.076005154881,1.05924029986,1.39343977646,-1.26277347885,0.0862730866254,-0.00206616967751
25268000000,ocean_waves,wamv,0.0,0.0,0.0,0.0,0.0,0.0,1.0,0.0342171993912,0.742316000544,-2.36384450916,0.102692172668,-0.112283567418,0.67365482128,0.72321220947,0.0,0.0,0.0,0.0,0.0,0.0,0.0760101363266,1.0592581228,1.39250912741,-1.26763238761,0.0866145231792,-0.00206754023668
25268000000,ocean_waves,wamv,0.0,0.0,0.0,0.0,0.0,0.0,1.0,0.0342932191857,0.743375335444,-2.36245312735,0.102261183531,-0.111823596539,0.673720911394,0.723282978612,0.0,0.0,0.0,0.0,0.0,0.0,0.0760150415813,1.05927003736,1.39157896883,-1.27249321187,0.086955856727,-0.00206877120607
25269000000,ocean_waves,wamv,0.0,0.0,0.0,0.0,0.0,0.0,1.0,0.034369243786,0.74443467657,-2.3610626768,0.101828508961,-0.111361818566,0.673786980476,0.723353720575,0.0,0.0,0.0,0.0,0.0,0.0,0.0760198286978,1.05927602031,1.3906492959,-1.27735599768,0.0872971392601,-0.00206992342226
25269000000,ocean_waves,wamv,0.0,0.0,0.0,0.0,0.0,0.0,1.0,0.0344452730224,0.745494017966,-2.35967315705,0.101394147934,-0.110898232486,0.673853025464,0.723424432038,0.0,0.0,0.0,0.0,0.0,0.0,0.0760244464456,1.05927604891,1.38972010394,-1.28222079088,0.0876384287776,-0.0020710615974
25270000000,ocean_waves,wamv,0.0,0.0,0.0,0.0,0.0,0.0,1.0,0.0345213066661,0.746553353651,-2.35828456762,0.100958099428,-0.110432837256,0.673919043255,0.723495109696,0.0,0.0,0.0,0.0,0.0,0.0,0.0760288354486,1.0592701011,1.38879138884,-1.2870876358,0.0879797878463,-0.00207225267708
25271000000,ocean_waves,wamv,0.0,0.0,0.0,0.0,0.0,0.0,1.0,0.0345973444221,0.747612677626,-2.35689690805,0.100520362428,-0.109965631799,0.673985030709,0.723565750254,0.0,0.0,0.0,0.0,0.0,0.0,0.0760329296807,1.05925815562,1.38786314759,-1.29195657393,0.0883212819117,-0.00207356400639
25272000000,ocean_waves,wamv,0.0,0.0,0.0,0.0,0.0,0.0,1.0,0.0346733859246,0.748671983869,-2.35551017787,0.100080935924,-0.10949661501,0.674050984643,0.723636350433,0.0,0.0,0.0,0.0,0.0,0.0,0.07603665828,1.05924019217,1.38693537867,-1.29682764269,0.0886629774128,-0.00207506136472
25272000000,ocean_waves,wamv,0.0,0.0,0.0,0.0,0.0,0.0,1.0,0.0347494307341,0.749731266341,-2.35412437662,0.0996398189183,-0.109025785751,0.67411690184,0.72370690696,0.0,0.0,0.0,0.0,0.0,0.0,0.0760399476107,1.05921619151,1.3860080825,-1.30170087431,0.0890049397771,-0.00207680694844
25273000000,ocean_waves,wamv,0.0,0.0,0.0,0.0,0.0,0.0,1.0,0.0348254783371,0.750790518982,-2.35273950383,0.0991970104217,-0.108553142861,0.674182779042,0.723777416574,0.0,0.0,0.0,0.0,0.0,0.0,0.0760427234867,1.0591861355,1.38508126178,-1.30657629484,0.0893472313843,-0.00207885738977
25275000000,ocean_waves,wamv,0.0,0.0,0.0,0.0,0.0,0.0,1.0,0.0349015281475,0.751849735717,-2.35135555903,0.0987525094578,-0.108078685153,0.674248612959,0.723847876017,0.0,0.0,0.0,0.0,0.0,0.0,0.0760449134514,1.05915000713,1.38415492174,-1.31145392348,0.0896899095933,-0.00208126190799
25276000000,ocean_waves,wamv,0.0,0.0,0.0,0.0,0.0,0.0,1.0,0.0349775795108,0.752908910455,-2.34997254173,0.0983063150631,-0.107602411424,0.674314400271,0.723918282033,0.0,0.0,0.0,0.0,0.0,0.0,0.0760464490045,1.0591077905,1.38322907039,-1.31633377198,0.0900330249316,-0.00208406068393
25277000000,ocean_waves,wamv,0.0,0.0,0.0,0.0,0.0,0.0,1.0,0.0350536317099,0.753968037089,-2.34859045145,0.0978584262878,-0.107124320458,0.67438013763,0.723988631362,0.0,0.0,0.0,0.0,0.0,0.0,0.0760472676691,1.05905947079,1.3823037186,-1.32121584446,0.0903766195334,-0.00208728353995
25278000000,ocean_waves,wamv,0.0,0.0,0.0,0.0,0.0,0.0,1.0,0.0351296839732,0.7550271095,-2.34720928768,0.0974088421956,-0.106644411031,0.674445821663,0.724058920737,0.0,0.0,0.0,0.0,0.0,0.0,0.0760473148025,1.05900503412,1.38137888012,-1.32610013741,0.0907207259005,-0.0020909489896
25278000000,ocean_waves,wamv,0.0,0.0,0.0,0.0,0.0,0.0,1.0,0.0352057354838,0.756086121553,-2.3458290499,0.0969575618641,-0.106162681917,0.674511448982,0.724129146878,0.0,0.0,0.0,0.0,0.0,0.0,0.0760465450753,1.05894446747,1.38045457152,-1.33098663987,0.0910653660347,-0.00209506369727
25280000000,ocean_waves,wamv,0.0,0.0,0.0,0.0,0.0,0.0,1.0,0.0352817853896,0.757145067104,-2.34444973756,0.0965045843838,-0.105679131894,0.674577016182,0.724199306486,0.0,0.0,0.0,0.0,0.0,0.0,0.0760449235698,1.05887775856,1.37953081203,-1.33587533395,0.0914105509681,-0.00209962236244
25281000000,ocean_waves,wamv,0.0,0.0,0.0,0.0,0.0,0.0,1.0,0.0353578328149,0.758203939994,-2.34307135011,0.0960499088576,-0.10519375975,0.67464251985,0.724269396239,0.0,0.0,0.0,0.0,0.0,0.0,0.0760424264746,1.05880489566,1.37860762334,-1.3407661954,0.0917562806892,-0.00210460801719
25282000000,ocean_waves,wamv,0.0,0.0,0.0,0.0,0.0,0.0,1.0,0.0354338768717,0.759262734056,-2.34169388695,0.0955935343998,-0.104706564289,0.674707956567,0.72433941279,0.0,0.0,0.0,0.0,0.0,0.0,0.0760390413799,1.05872586749,1.37768502933,-1.34565919441,0.0921025444402,-0.00210999270129
25283000000,ocean_waves,wamv,0.0,0.0,0.0,0.0,0.0,0.0,1.0,0.0355099166706,0.760321443109,-2.34031734747,0.0951354601348,-0.104217544333,0.674773322913,0.724409352758,0.0,0.0,0.0,0.0,0.0,0.0,0.0760347672028,1.05864066303,1.37676305579,-1.35055429642,0.09244932134,-0.00211573846065
25284000000,ocean_waves,wamv,0.0,0.0,0.0,0.0,0.0,0.0,1.0,0.0355859513324,0.761380060963,-2.33894173104,0.0946756851959,-0.10372669873,0.674838615468,0.724479212729,0.0,0.0,0.0,0.0,0.0,0.0,0.0760296137881,1.05854927141,1.37584173006,-1.35545146306,0.0927965812747,-0.00212179860314
25285000000,ocean_waves,wamv,0.0,0.0,0.0,0.0,0.0,0.0,1.0,0.0356619799975,0.762438581415,-2.33756703699,0.0942142087241,-0.103234026353,0.67490383082,0.724548989249,0.0,0.0,0.0,0.0,0.0,0.0,0.0760236012422,1.05845168176,1.3749210807,-1.36035065306,0.0931442859914,-0.0021281191387
25286000000,ocean_waves,wamv,0.0,0.0,0.0,0.0,0.0,0.0,1.0,0.0357380018363,0.763496998254,-2.33619326461,0.0937510298668,-0.102739526109,0.674968965562,0.724618678825,0.0,0.0,0.0,0.0,0.0,0.0,0.0760167590622,1.05834788311,1.3740011372,-1.36525182324,0.093492390329,-0.00213464033301
25287000000,ocean_waves,wamv,0.0,0.0,0.0,0.0,0.0,0.0,1.0,0.0358140160568,0.764555305254,-2.33482041318,0.0932861477762,-0.102243196936,0.675034016295,0.724688277922,0.0,0.0,0.0,0.0,0.0,0.0,0.0760091251192,1.05823786423,1.37308192956,-1.37015492938,0.0938408435252,-0.002141298309
25288000000,ocean_waves,wamv,0.0,0.0,0.0,0.0,0.0,0.0,1.0,0.035890021912,0.765613496182,-2.33344848195,0.0928195616084,-0.101745037808,0.675098979632,0.724757782962,0.0,0.0,0.0,0.0,0.0,0.0,0.0760007445491,1.05812161359,1.37216348805,-1.37505992714,0.0941895905489,-0.00214802664094
25289000000,ocean_waves,wamv,0.0,0.0,0.0,0.0,0.0,0.0,1.0,0.0359660187064,0.766671564788,-2.33207747011,0.0923512705218,-0.101245047733,0.675163852195,0.724827190323,0.0,0.0,0.0,0.0,0.0,0.0,0.0759916685946,1.0579991192,1.37124584284,-1.37996677293,0.0945385734173,-0.00215475789827
25290000000,ocean_waves,wamv,0.0,0.0,0.0,0.0,0.0,0.0,1.0,0.0360420058005,0.767729504813,-2.33070737686,0.0918812736763,-0.100743225755,0.675228630617,0.724896496341,0.0,0.0,0.0,0.0,0.0,0.0,0.0759819534282,1.05787036859,1.37032902376,-1.38487542471,0.0948877324686,-0.0021614251081
25291000000,ocean_waves,wamv,0.0,0.0,0.0,0.0,0.0,0.0,1.0,0.0361179826147,0.768787309983,-2.32933820135,0.0914095702321,-0.100239570955,0.67529331154,0.724965697308,0.0,0.0,0.0,0.0,0.0,0.0,0.0759716589775,1.05773534866,1.36941305996,-1.3897858428,0.0952370075749,-0.00216796311921
25292000000,ocean_waves,wamv,0.0,0.0,0.0,0.0,0.0,0.0,1.0,0.0361939486318,0.769844974012,-2.3279699427,0.0909361593485,-0.0997340824468,0.675357891618,0.725034789476,0.0,0.0,0.0,0.0,0.0,0.0,0.0759608477611,1.05759404569,1.36849797972,-1.39469799059,0.0955863392859,-0.00217430985826
25293000000,ocean_waves,wamv,0.0,0.0,0.0,0.0,0.0,0.0,1.0,0.0362699033989,0.770902490597,-2.3266026,0.090461040183,-0.0992267593762,0.675422367508,0.725103769058,0.0,0.0,0.0,0.0,0.0,0.0,0.075949583736,1.05744644516,1.36758381013,-1.39961183532,0.0959356699065,-0.00218040747949
25294000000,ocean_waves,wamv,0.0,0.0,0.0,0.0,0.0,0.0,1.0,0.036345846527,0.771959853423,-2.32523617234,0.0899842118902,-0.0987176009208,0.675486735877,0.725172632228,0.0,0.0,0.0,0.0,0.0,0.0,0.0759379311494,1.05729253178,1.36667057693,-1.40452734865,0.0962849445128,-0.00218620341206
25295000000,ocean_waves,wamv,0.0,0.0,0.0,0.0,0.0,0.0,1.0,0.0364217776906,0.773017056154,-2.32387065875,0.0895056736214,-0.0982066062853,0.675550993393,0.725241375128,0.0,0.0,0.0,0.0,0.0,0.0,0.0759259533891,1.05713228941,1.36575830426,-1.40944450736,0.0966341119145,-0.00219165131371
25296000000,ocean_waves,wamv,0.0,0.0,0.0,0.0,0.0,0.0,1.0,0.0364976966255,0.774074092442,-2.32250605826,0.0890254245231,-0.0976937746991,0.675615136725,0.725309993866,0.0,0.0,0.0,0.0,0.0,0.0,0.0759137118184,1.05696570096,1.36484701448,-1.41436329387,0.0969831255727,-0.00219671193802
25297000000,ocean_waves,wamv,0.0,0.0,0.0,0.0,0.0,0.0,1.0,0.0365736031256,0.775130955918,-2.32114236988,0.0885434637368,-0.0971791054125,0.675679162541,0.725378484522,0.0,0.0,0.0,0.0,0.0,0.0,0.0759012645933,1.05679274844,1.36393672803,-1.41928369673,0.0973319444785,-0.00220135392068
25298000000,ocean_waves,wamv,0.0,0.0,0.0,0.0,0.0,0.0,1.0,0.0366494970387,0.776187640193,-2.31977959259,0.0880597903982,-0.0966625976926,0.675743067505,0.725446843154,0.0,0.0,0.0,0.0,0.0,0.0,0.075888665456,1.05661341286,1.36302746324,-1.42420571104,0.0976805339934,-0.00220555448582
25299000000,ocean_waves,wamv,0.0,0.0,0.0,0.0,0.0,0.0,1.0,0.0367253782605,0.777244138862,-2.31841772536,0.0875744036367,-0.096144250819,0.67580684827,0.725515065794,0.0,0.0,0.0,0.0,0.0,0.0,0.0758759625112,1.0564276743,1.36211923629,-1.4291293387,0.0980288666473,-0.00220930006691
25300000000,ocean_waves,wamv,0.0,0.0,0.0,0.0,0.0,0.0,1.0,0.0368012467281,0.778300445495,-2.31705676715,0.087087302575,-0.095624064079,0.675870501479,0.72558314846,0.0,0.0,0.0,0.0,0.0,0.0,0.0758631970001,1.05623551188,1.36121206114,-1.43405458862,0.0983769228812,-0.00221258683103
25301000000,ocean_waves,wamv,0.0,0.0,0.0,0.0,0.0,0.0,1.0,0.0368771024118,0.779356553643,-2.3156967169,0.0865984863293,-0.0951020367626,0.67593402376,0.725651087158,0.0,0.0,0.0,0.0,0.0,0.0,0.0758504020947,1.05603690383,1.36030594951,-1.43898147673,0.0987246917159,-0.00221542108609
25302000000,ocean_waves,wamv,0.0,0.0,0.0,0.0,0.0,0.0,1.0,0.0369529453055,0.780412456832,-2.31433757355,0.0861079540092,-0.0945781681572,0.675997411719,0.725718877881,0.0,0.0,0.0,0.0,0.0,0.0,0.0758376017494,1.05583182757,1.35940091094,-1.44391002576,0.0990721713172,-0.00221781954535
25303000000,ocean_waves,wamv,0.0,0.0,0.0,0.0,0.0,0.0,1.0,0.0370287754172,0.781468148566,-2.31297933603,0.0856157047183,-0.0940524575427,0.676060661941,0.725786516623,0.0,0.0,0.0,0.0,0.0,0.0,0.0758248096544,1.05562025983,1.35849695292,-1.44884026495,0.0994193694243,-0.00221980941621
25304000000,ocean_waves,wamv,0.0,0.0,0.0,0.0,0.0,0.0,1.0,0.0371045927573,0.782523622326,-2.31162200325,0.0851217375548,-0.0935249041864,0.676123770983,0.725853999372,0.0,0.0,0.0,0.0,0.0,0.0,0.075812028347,1.05540217678,1.35759408103,-1.45377222946,0.0997663036014,-0.00222142827686
25305000000,ocean_waves,wamv,0.0,0.0,0.0,0.0,0.0,0.0,1.0,0.0371803973268,0.783578871566,-2.31026557413,0.0846260516127,-0.0929955073379,0.67618673537,0.725921322124,0.0,0.0,0.0,0.0,0.0,0.0,0.0757992485409,1.05517755419,1.35669229928,-1.45870595957,0.100113001269,-0.00222272370348
25306000000,ocean_waves,wamv,0.0,0.0,0.0,0.0,0.0,0.0,1.0,0.0372561891053,0.784633889719,-2.30891004759,0.0841286459831,-0.0924642662247,0.676249551591,0.725988480879,0.0,0.0,0.0,0.0,0.0,0.0,0.0757864487382,1.05494636766,1.35579161035,-1.46364149976,0.100459499476,-0.00222375261209
25307000000,ocean_waves,wamv,0.0,0.0,0.0,0.0,0.0,0.0,1.0,0.0373319680388,0.785688670191,-2.30755542255,0.0836295197562,-0.0919311800482,0.6763122161,0.726055471651,0.0,0.0,0.0,0.0,0.0,0.0,0.0757735951822,1.05470859282,1.35489201601,-1.46857889744,0.100805844372,-0.00222458028881
25308000000,ocean_waves,wamv,0.0,0.0,0.0,0.0,0.0,0.0,1.0,0.0374077340275,0.786743206365,-2.30620169791,0.0831286720226,-0.0913962479806,0.676374725307,0.726122290464,0.0,0.0,0.0,0.0,0.0,0.0,0.0757606422054,1.05446420558,1.35399351761,-1.47351820172,0.101152090367,-0.00222527909157
25309000000,ocean_waves,wamv,0.0,0.0,0.0,0.0,0.0,0.0,1.0,0.0374834869146,0.787797491599,-2.30484887258,0.0826261018761,-0.0908594691623,0.676437075579,0.72618893336,0.0,0.0,0.0,0.0,0.0,0.0,0.0757475330054,1.05421318235,1.35309611651,-1.47845946185,0.101498298944,-0.00222592682506
25310000000,ocean_waves,wamv,0.0,0.0,0.0,0.0,0.0,0.0,1.0,0.0375592264771,0.788851519231,-2.30349694548,0.0821218084159,-0.0903208427006,0.676499263239,0.726255396395,0.0,0.0,0.0,0.0,0.0,0.0,0.0757342008654,1.05395550032,1.35219981464,-1.48340272572,0.101844537167,-0.00222660481127
25311000000,ocean_waves,wamv,0.0,0.0,0.0,0.0,0.0,0.0,1.0,0.0376349524165,0.789905282573,-2.30214591551,0.0816157907489,-0.089780367669,0.676561284563,0.726321675645,0.0,0.0,0.0,0.0,0.0,0.0,0.0757205708033,1.05369113762,1.35130461503,-1.48834803832,0.102190875888,-0.00222739570013
25312000000,ocean_waves,wamv,0.0,0.0,0.0,0.0,0.0,0.0,1.0,0.0377106643535,0.79095877492,-2.30079578156,0.0811080479918,-0.0892380431086,0.676623135782,0.7263877672,0.0,0.0,0.0,0.0,0.0,0.0,0.0757065616106,1.05342007359,1.35041052229,-1.49329544025,0.102537387719,-0.00222838109038
25313000000,ocean_waves,wamv,0.0,0.0,0.0,0.0,0.0,0.0,1.0,0.0377863618236,0.792011989546,-2.29944654254,0.0805985792739,-0.0886938680295,0.676684813081,0.726453667166,0.0,0.0,0.0,0.0,0.0,0.0,0.0756920882066,1.05314228886,1.34951754313,-1.49824496633,0.102884144852,-0.00222963905063
25314000000,ocean_waves,wamv,0.0,0.0,0.0,0.0,0.0,0.0,1.0,0.0378620442758,0.793064919707,-2.29809819734,0.0800873837387,-0.0881478414139,0.676746312603,0.726519371661,0.0,0.0,0.0,0.0,0.0,0.0,0.0756770642093,1.0528577655,1.34862568674,-1.50319664443,0.103231216805,-0.00223124164901
25315000000,ocean_waves,wamv,0.0,0.0,0.0,0.0,0.0,0.0,1.0,0.0379377110743,0.794117558642,-2.29675074481,0.0795744605456,-0.0875999622206,0.676807630451,0.726584876812,0.0,0.0,0.0,0.0,0.0,0.0,0.0756614046074,1.05256648708,1.34773496514,-1.50815049454,0.103578668222,-0.00223325260705
25316000000,ocean_waves,wamv,0.0,0.0,0.0,0.0,0.0,0.0,1.0,0.0380133615023,0.795169899576,-2.29540418383,0.0790598088714,-0.0870502293896,0.676868762691,0.72665017875,0.0,0.0,0.0,0.0,0.0,0.0,0.0756450284012,1.05226843868,1.34684539343,-1.51310652809,0.103926556808,-0.00223572519534
25317000000,ocean_waves,wamv,0.0,0.0,0.0,0.0,0.0,0.0,1.0,0.0380889947683,0.79622193572,-2.29405851323,0.0785434279112,-0.0864986418478,0.676929705359,0.726715273606,0.0,0.0,0.0,0.0,0.0,0.0,0.0756278610854,1.05196360681,1.34595698993,-1.51806474756,0.104274931529,-0.00223870047705
25319000000,ocean_waves,wamv,0.0,0.0,0.0,0.0,0.0,0.0,1.0,0.0381646100151,0.797273660274,-2.29271373183,0.0780253168786,-0.0859451985157,0.676990454462,0.726780157507,0.0,0.0,0.0,0.0,0.0,0.0,0.0756098368565,1.05165197939,1.34506977621,-1.52302514646,0.104623831142,-0.00224220598675
25319000000,ocean_waves,wamv,0.0,0.0,0.0,0.0,0.0,0.0,1.0,0.0382402063304,0.798325066424,-2.29136983842,0.0775054750061,-0.0853898983134,0.677051005986,0.726844826564,0.0,0.0,0.0,0.0,0.0,0.0,0.0755909004474,1.05133354555,1.34418377705,-1.5279877095,0.104973283122,-0.00224625490367
25321000000,ocean_waves,wamv,0.0,0.0,0.0,0.0,0.0,0.0,1.0,0.0383157827583,0.799376147349,-2.29002683177,0.0769839015448,-0.0848327401675,0.677111355901,0.726909276876,0.0,0.0,0.0,0.0,0.0,0.0,0.0755710085234,1.05100829553,1.34329902027,-1.53295241308,0.105323303031,-0.00225084574848
25321000000,ocean_waves,wamv,0.0,0.0,0.0,0.0,0.0,0.0,1.0,0.0383913383127,0.800426896219,-2.28868471061,0.0764605957635,-0.0842737230175,0.677171500167,0.726973504514,0.0,0.0,0.0,0.0,0.0,0.0,0.0755501306042,1.05067622046,1.3424155365,-1.537919226,0.105673894327,-0.00225596259712
25322000000,ocean_waves,wamv,0.0,0.0,0.0,0.0,0.0,0.0,1.0,0.03846687199,0.801477306195,-2.28734347365,0.0759355569477,-0.083712845822,0.677231434737,0.727037505525,0.0,0.0,0.0,0.0,0.0,0.0,0.0755282495101,1.0503373122,1.34153335893,-1.54288811028,0.106025048588,-0.00226157577654
25323000000,ocean_waves,wamv,0.0,0.0,0.0,0.0,0.0,0.0,1.0,0.0385423827829,0.802527370429,-2.28600311956,0.0754087843989,-0.0831501075644,0.677291155563,0.727101275919,0.0,0.0,0.0,0.0,0.0,0.0,0.0755053613607,1.04999156315,1.34065252292,-1.54785902218,0.10637674611,-0.00226764298091
25324000000,ocean_waves,wamv,0.0,0.0,0.0,0.0,0.0,0.0,1.0,0.038617869693,0.803577082069,-2.28466364695,0.0748802774328,-0.0825855072577,0.677350658603,0.727164811671,0.0,0.0,0.0,0.0,0.0,0.0,0.0754814751752,1.04963896601,1.33977306564,-1.55283191326,0.106728956828,-0.00227411072868
