%time,field.name0,field.name1,field.pose0.position.x,field.pose0.position.y,field.pose0.position.z,field.pose0.orientation.x,field.pose0.orientation.y,field.pose0.orientation.z,field.pose0.orientation.w,field.pose1.position.x,field.pose1.position.y,field.pose1.position.z,field.pose1.orientation.x,field.pose1.orientation.y,field.pose1.orientation.z,field.pose1.orientation.w,field.twist0.linear.x,field.twist0.linear.y,field.twist0.linear.z,field.twist0.angular.x,field.twist0.angular.y,field.twist0.angular.z,field.twist1.linear.x,field.twist1.linear.y,field.twist1.linear.z,field.twist1.angular.x,field.twist1.angular.y,field.twist1.angular.z
26894000000,ocean_waves,wamv,0.0,0.0,0.0,0.0,0.0,0.0,1.0,0.751505134866,8.98578655872,0.529623898333,-0.0178786881182,-0.0833181204211,0.685188109813,0.723364152755,0.0,0.0,0.0,0.0,0.0,0.0,0.372490855947,2.09633152575,4.49325708971,-0.434529590729,0.0762264171998,-0.0125443676935
26894000000,ocean_waves,wamv,0.0,0.0,0.0,0.0,0.0,0.0,1.0,0.751877078931,8.98788415582,0.534115730238,-0.0180068092087,-0.0831409518054,0.6852023212,0.723367898083,0.0,0.0,0.0,0.0,0.0,0.0,0.371942819799,2.09759417105,4.49185610392,-0.430378285231,0.0818730267788,-0.0122571959226
26894000000,ocean_waves,wamv,0.0,0.0,0.0,0.0,0.0,0.0,1.0,0.752248465148,8.98998302467,0.538605960052,-0.0181314552922,-0.0829631636393,0.685216480605,0.723371784434,0.0,0.0,0.0,0.0,0.0,0.0,0.371384950432,2.09886595762,4.49025368019,-0.426186180526,0.0875530959006,-0.011970137821
26895000000,ocean_waves,wamv,0.0,0.0,0.0,0.0,0.0,0.0,1.0,0.752619287355,8.99208317235,0.543094376886,-0.0182526082883,-0.0827847602844,0.685230587671,0.723375813444,0.0,0.0,0.0,0.0,0.0,0.0,0.370820919794,2.10014480386,4.48844037658,-0.421961795571,0.0932519314106,-0.011684077751
26896000000,ocean_waves,wamv,0.0,0.0,0.0,0.0,0.0,0.0,1.0,0.752989555847,8.99418459657,0.547580716637,-0.0183702862361,-0.0826057562985,0.685244641595,0.723379985053,0.0,0.0,0.0,0.0,0.0,0.0,0.370267183444,2.10142136686,4.48636298359,-0.41774340105,0.0989049843426,-0.0114029527612
26897000000,ocean_waves,wamv,0.0,0.0,0.0,0.0,0.0,0.0,1.0,0.753359281313,8.99628729481,0.552064717224,-0.0184845081693,-0.0824261666167,0.68525864155,0.723384299107,0.0,0.0,0.0,0.0,0.0,0.0,0.369724134868,2.10269541247,4.48402352015,-0.413531917396,0.104510327483,-0.0111267956817
26898000000,ocean_waves,wamv,0.0,0.0,0.0,0.0,0.0,0.0,1.0,0.753728474846,8.99839126431,0.556546118642,-0.0185952941255,-0.0822460065511,0.685272586691,0.723388755354,0.0,0.0,0.0,0.0,0.0,0.0,0.369192179347,2.10396670413,4.48142406489,-0.409328281238,0.110066021115,-0.0108556349782
26899000000,ocean_waves,wamv,0.0,0.0,0.0,0.0,0.0,0.0,1.0,0.754097147945,9.00049650209,0.56102466303,-0.0187026651404,-0.0820652917808,0.685286476152,0.723393353442,0.0,0.0,0.0,0.0,0.0,0.0,0.368671721587,2.10523500403,4.47856675927,-0.405133434639,0.115570147859,-0.0105894919193
26900000000,ocean_waves,wamv,0.0,0.0,0.0,0.0,0.0,0.0,1.0,0.754465312512,9.00260300492,0.565500094739,-0.0188066432452,-0.0818840383438,0.685300309052,0.723398092925,0.0,0.0,0.0,0.0,0.0,0.0,0.36816316707,2.10650007256,4.47545381654,-0.400948327022,0.121020806031,-0.0103283820068
26900000000,ocean_waves,wamv,0.0,0.0,0.0,0.0,0.0,0.0,1.0,0.754832980858,9.00471076932,0.569972160405,-0.0189072514631,-0.0817022626294,0.685314084498,0.723402973254,0.0,0.0,0.0,0.0,0.0,0.0,0.367666921753,2.10776166862,4.47208752083,-0.396773914028,0.126416109268,-0.010072316045
26902000000,ocean_waves,wamv,0.0,0.0,0.0,0.0,0.0,0.0,1.0,0.755200165695,9.00681979157,0.574440609016,-0.0190045138033,-0.0815199813664,0.685327801584,0.723407993783,0.0,0.0,0.0,0.0,0.0,0.0,0.367183389046,2.10901954917,4.46847022561,-0.392611159279,0.131754196833,-0.00982130070499
26903000000,ocean_waves,wamv,0.0,0.0,0.0,0.0,0.0,0.0,1.0,0.755566880139,9.00893006772,0.578905191982,-0.0190984552604,-0.0813372116143,0.685341459394,0.723413153771,0.0,0.0,0.0,0.0,0.0,0.0,0.366712972279,2.1102734684,4.46460434891,-0.388461037871,0.137033222201,-0.00957534015372
26904000000,ocean_waves,wamv,0.0,0.0,0.0,0.0,0.0,0.0,1.0,0.755933137709,9.01104159355,0.583365663206,-0.0191891018087,-0.0811539707548,0.685355057005,0.723418452377,0.0,0.0,0.0,0.0,0.0,0.0,0.366256072958,2.11152317965,4.46049238772,-0.384324528268,0.142251358107,-0.0093344365819
26905000000,ocean_waves,wamv,0.0,0.0,0.0,0.0,0.0,0.0,1.0,0.75629895232,9.01315436461,0.587821779156,-0.0192764803999,-0.0809702764799,0.685368593487,0.723423888666,0.0,0.0,0.0,0.0,0.0,0.0,0.365813089746,2.11276843311,4.45613690391,-0.380202622148,0.147406799104,-0.00909859109075
26906000000,ocean_waves,wamv,0.0,0.0,0.0,0.0,0.0,0.0,1.0,0.756664338285,9.0152683762,0.592273298934,-0.0193606189588,-0.0807861467824,0.6853820679,0.723429461608,0.0,0.0,0.0,0.0,0.0,0.0,0.365384418675,2.11400897708,4.45154053161,-0.376096318851,0.152497759071,-0.00886780446528
26907000000,ocean_waves,wamv,0.0,0.0,0.0,0.0,0.0,0.0,1.0,0.75702931031,9.01738362334,0.596719984345,-0.0194415463834,-0.080601599945,0.685395479302,0.723435170083,0.0,0.0,0.0,0.0,0.0,0.0,0.364970453658,2.11524455648,4.44670597514,-0.372006631849,0.157522467873,-0.00864207810144
26908000000,ocean_waves,wamv,0.0,0.0,0.0,0.0,0.0,0.0,1.0,0.75739388349,9.01950010081,0.601161599971,-0.0195192925406,-0.080416654529,0.685408826743,0.723441012879,0.0,0.0,0.0,0.0,0.0,0.0,0.364571584432,2.11647491378,4.44163600914,-0.367934584736,0.162479178047,-0.0084214141771
26909000000,ocean_waves,wamv,0.0,0.0,0.0,0.0,0.0,0.0,1.0,0.757758073311,9.02161780313,0.605597913246,-0.0195938882678,-0.0802313293674,0.68542210927,0.723446988697,0.0,0.0,0.0,0.0,0.0,0.0,0.364188199861,2.11769978872,4.43633348751,-0.363881212592,0.167366150584,-0.00820581683919
26910000000,ocean_waves,wamv,0.0,0.0,0.0,0.0,0.0,0.0,1.0,0.758121895643,9.02373672456,0.610028694532,-0.0196653653742,-0.0800456435535,0.685435325923,0.72345309615,0.0,0.0,0.0,0.0,0.0,0.0,0.363820686268,2.11891891678,4.43080133664,-0.359847568125,0.172181660472,-0.00799529243972
26911000000,ocean_waves,wamv,0.0,0.0,0.0,0.0,0.0,0.0,1.0,0.758485366741,9.02585685907,0.614453717196,-0.019733756641,-0.0798596164311,0.685448475739,0.723459333771,0.0,0.0,0.0,0.0,0.0,0.0,0.363469426573,2.12013203019,4.42504256034,-0.35583471775,0.176923998946,-0.00778984969191
26912000000,ocean_waves,wamv,0.0,0.0,0.0,0.0,0.0,0.0,1.0,0.758848503239,9.02797820039,0.618872757685,-0.0197990958275,-0.0796732675855,0.685461557748,0.723465700007,0.0,0.0,0.0,0.0,0.0,0.0,0.363134803474,2.12133885614,4.4190602396,-0.351843748783,0.181591460105,-0.00758950069302
26913000000,ocean_waves,wamv,0.0,0.0,0.0,0.0,0.0,0.0,1.0,0.759211322158,9.03010074194,0.623285595615,-0.0198614176751,-0.0794866168369,0.685474570977,0.723472193229,0.0,0.0,0.0,0.0,0.0,0.0,0.36281719842,2.12253911813,4.41285754373,-0.347875764102,0.186182343912,-0.00739426088735
26914000000,ocean_waves,wamv,0.0,0.0,0.0,0.0,0.0,0.0,1.0,0.759573840897,9.03222447688,0.627692013856,-0.0199207579212,-0.0792996842324,0.685487514447,0.723478811729,0.0,0.0,0.0,0.0,0.0,0.0,0.362516994889,2.12373253259,4.40643772494,-0.343931895909,0.190694942692,-0.00720415007461
26914000000,ocean_waves,wamv,0.0,0.0,0.0,0.0,0.0,0.0,1.0,0.759936077245,9.03434939808,0.632091798624,-0.0199771533097,-0.0791124900423,0.685500387174,0.723485553726,0.0,0.0,0.0,0.0,0.0,0.0,0.362234578451,2.12491881055,4.39980412941,-0.340013299021,0.195127539988,-0.00701919241872
26916000000,ocean_waves,wamv,0.0,0.0,0.0,0.0,0.0,0.0,1.0,0.760298049376,9.03647549809,0.636484739581,-0.0200306416098,-0.0789250547559,0.685513188166,0.723492417362,0.0,0.0,0.0,0.0,0.0,0.0,0.361970339201,2.12609765563,4.39296020337,-0.336121158999,0.199478400425,-0.00683941706348
26918000000,ocean_waves,wamv,0.0,0.0,0.0,0.0,0.0,0.0,1.0,0.760659775868,9.03860276919,0.640870629944,-0.0200812616405,-0.0787373990796,0.685525916426,0.723499400709,0.0,0.0,0.0,0.0,0.0,0.0,0.361724674917,2.12726876209,4.38590950018,-0.332256700262,0.203745756887,-0.00666485879497
26918000000,ocean_waves,wamv,0.0,0.0,0.0,0.0,0.0,0.0,1.0,0.761021275704,9.04073120332,0.645249266605,-0.0201290533053,-0.0785495439429,0.685538570949,0.723506501768,0.0,0.0,0.0,0.0,0.0,0.0,0.361497996855,2.12843181398,4.37865569531,-0.328421189392,0.207927787414,-0.00649555900781
26918000000,ocean_waves,wamv,0.0,0.0,0.0,0.0,0.0,0.0,1.0,0.761382568301,9.04286079208,0.649620450266,-0.020174057638,-0.078361510506,0.685551150723,0.723513718468,0.0,0.0,0.0,0.0,0.0,0.0,0.361290734827,2.12958648192,4.37120259999,-0.324615948348,0.212022595262,-0.00633156659074
26920000000,ocean_waves,wamv,0.0,0.0,0.0,0.0,0.0,0.0,1.0,0.761743673531,9.04499152676,0.653983985604,-0.0202163168647,-0.0781733201744,0.685563654725,0.723521048668,0.0,0.0,0.0,0.0,0.0,0.0,0.361103345045,2.13073241965,4.36355418534,-0.320842368421,0.21602817841,-0.00617293919966
26921000000,ocean_waves,wamv,0.0,0.0,0.0,0.0,0.0,0.0,1.0,0.762104611762,9.04712339826,0.658339681465,-0.02025587449,-0.0779849946272,0.68557608192,0.723528490151,0.0,0.0,0.0,0.0,0.0,0.0,0.36093632453,2.13186925981,4.35571462294,-0.317101927274,0.219942373624,-0.00601974561381
26922000000,ocean_waves,wamv,0.0,0.0,0.0,0.0,0.0,0.0,1.0,0.762465403921,9.04925639707,0.662687351121,-0.0202927754247,-0.0777965558618,0.685588431261,0.723536040624,0.0,0.0,0.0,0.0,0.0,0.0,0.360790231178,2.13299660484,4.34768833703,-0.313396225724,0.223762778996,-0.00587206924876
26924000000,ocean_waves,wamv,0.0,0.0,0.0,0.0,0.0,0.0,1.0,0.762826071594,9.05139051327,0.667026812617,-0.0203270661891,-0.0776080262709,0.685600701682,0.723543697707,0.0,0.0,0.0,0.0,0.0,0.0,0.360665723515,2.13411401101,4.33948010131,-0.309727052449,0.227486600122,-0.00573001539845
26924000000,ocean_waves,wamv,0.0,0.0,0.0,0.0,0.0,0.0,1.0,0.763186637203,9.05352573639,0.671357889354,-0.0203587952661,-0.0774194287901,0.68561289209,0.723551458917,0.0,0.0,0.0,0.0,0.0,0.0,0.36056364025,2.13522095833,4.33109526937,-0.306096505055,0.231110341481,-0.00559372609071
26924000000,ocean_waves,wamv,0.0,0.0,0.0,0.0,0.0,0.0,1.0,0.763547124467,9.05566205526,0.675680411396,-0.0203880139833,-0.077230787281,0.685625001344,0.723559321627,0.0,0.0,0.0,0.0,0.0,0.0,0.360485275282,2.13631674144,4.32254050709,-0.302507430227,0.234628736871,-0.00546343367475
26926000000,ocean_waves,wamv,0.0,0.0,0.0,0.0,0.0,0.0,1.0,0.763907559297,9.05779945767,0.679994217983,-0.0204147782466,-0.0770421272957,0.685637028214,0.723567282976,0.0,0.0,0.0,0.0,0.0,0.0,0.360432822293,2.13740029393,4.31382498581,-0.298964132264,0.238033020469,-0.00533954694697
26927000000,ocean_waves,wamv,0.0,0.0,0.0,0.0,0.0,0.0,1.0,0.764267967357,9.05993793126,0.684299151014,-0.0204391438633,-0.0768534739601,0.685648971502,0.723575340111,0.0,0.0,0.0,0.0,0.0,0.0,0.360406034707,2.13847150629,4.30495136749,-0.295467059589,0.241323946231,-0.0052219871483
26928000000,ocean_waves,wamv,0.0,0.0,0.0,0.0,0.0,0.0,1.0,0.764628373848,9.06207746366,0.688595054566,-0.0204611661322,-0.0766648517758,0.685660830055,0.723583490214,0.0,0.0,0.0,0.0,0.0,0.0,0.360404448826,2.13953034881,4.29592182722,-0.292016340065,0.244503119482,-0.00511063244494
26929000000,ocean_waves,wamv,0.0,0.0,0.0,0.0,0.0,0.0,1.0,0.764988803493,9.06421804249,0.692881774936,-0.020480899822,-0.0764762845957,0.685672602774,0.723591730496,0.0,0.0,0.0,0.0,0.0,0.0,0.360427585892,2.14057679166,4.28673858818,-0.288612103581,0.247572211938,-0.00500535735673
26930000000,ocean_waves,wamv,0.0,0.0,0.0,0.0,0.0,0.0,1.0,0.765349280516,9.0663596553,0.697159160695,-0.020498399144,-0.0762877955958,0.685684288608,0.723600058204,0.0,0.0,0.0,0.0,0.0,0.0,0.360474949543,2.14161080509,4.27740391979,-0.285254481386,0.250532973593,-0.00490603175756
26931000000,ocean_waves,wamv,0.0,0.0,0.0,0.0,0.0,0.0,1.0,0.765709828635,9.06850228964,0.701427062733,-0.0205137177311,-0.0760994072496,0.685695886563,0.723608470619,0.0,0.0,0.0,0.0,0.0,0.0,0.360546029401,2.14263235915,4.26792014342,-0.28194360706,0.253387220291,-0.00481252109148
26931000000,ocean_waves,wamv,0.0,0.0,0.0,0.0,0.0,0.0,1.0,0.766070471035,9.07064593301,0.70568533431,-0.020526908611,-0.0759111412996,0.685707395706,0.72361696506,0.0,0.0,0.0,0.0,0.0,0.0,0.360640297984,2.14364142338,4.25828962979,-0.278679617709,0.256136847307,-0.00472468559555
26934000000,ocean_waves,wamv,0.0,0.0,0.0,0.0,0.0,0.0,1.0,0.766431230362,9.07279057291,0.709933831116,-0.0205380241803,-0.0757230187273,0.685718815166,0.723625538884,0.0,0.0,0.0,0.0,0.0,0.0,0.360757211318,2.14463796715,4.24851480678,-0.275462652523,0.258783828005,-0.00464238028283
26934000000,ocean_waves,wamv,0.0,0.0,0.0,0.0,0.0,0.0,1.0,0.766792128698,9.07493619677,0.714172411324,-0.0205471161779,-0.075535059722,0.685730144137,0.723634189485,0.0,0.0,0.0,0.0,0.0,0.0,0.360896207921,2.14562195885,4.23859815693,-0.272292856108,0.261330218619,-0.0045654548959
26935000000,ocean_waves,wamv,0.0,0.0,0.0,0.0,0.0,0.0,1.0,0.767153187546,9.07708279202,0.718400935645,-0.0205542356597,-0.0753472836489,0.685741381884,0.723642914299,0.0,0.0,0.0,0.0,0.0,0.0,0.361056709393,2.14659336513,4.22854221917,-0.269170381439,0.263778156338,-0.0044937542919
26936000000,ocean_waves,wamv,0.0,0.0,0.0,0.0,0.0,0.0,1.0,0.767514427813,9.07923034602,0.722619267382,-0.0205594329711,-0.0751597090107,0.685752527746,0.723651710803,0.0,0.0,0.0,0.0,0.0,0.0,0.361238117212,2.14755215013,4.21834958587,-0.266095393019,0.266129871853,-0.00442711834666
26937000000,ocean_waves,wamv,0.0,0.0,0.0,0.0,0.0,0.0,1.0,0.767875869784,9.08137884612,0.726827272504,-0.0205627577152,-0.0749723534105,0.685763581138,0.723660576516,0.0,0.0,0.0,0.0,0.0,0.0,0.361439811289,2.14849827657,4.20802292115,-0.263068062429,0.268387694548,-0.00436538216127
26938000000,ocean_waves,wamv,0.0,0.0,0.0,0.0,0.0,0.0,1.0,0.768237533102,9.08352827963,0.731024819702,-0.0205642587253,-0.0747852335094,0.685774541557,0.723669509006,0.0,0.0,0.0,0.0,0.0,0.0,0.361661149946,2.14943170321,4.1975649495,-0.260088578752,0.270554052053,-0.00430837683727
26939000000,ocean_waves,wamv,0.0,0.0,0.0,0.0,0.0,0.0,1.0,0.768599436744,9.08567863379,0.735211780469,-0.0205639840308,-0.0745983649795,0.685785408582,0.723678505884,0.0,0.0,0.0,0.0,0.0,0.0,0.361901465086,2.1503523852,4.18697846944,-0.257157147112,0.272631488195,-0.00425592933008
26940000000,ocean_waves,wamv,0.0,0.0,0.0,0.0,0.0,0.0,1.0,0.768961598987,9.08782989581,0.73938802917,-0.0205619808211,-0.0744117624499,0.685796181884,0.723687564815,0.0,0.0,0.0,0.0,0.0,0.0,0.362160058781,2.15126027258,4.17626635542,-0.254273994794,0.274622675355,-0.00420786269531
26941000000,ocean_waves,wamv,0.0,0.0,0.0,0.0,0.0,0.0,1.0,0.769324037379,9.08998205285,0.743553443134,-0.0205582954076,-0.074225439449,0.685806861221,0.723696683515,0.0,0.0,0.0,0.0,0.0,0.0,0.362436201231,2.15215530988,4.16543157184,-0.251439373257,0.276530421247,-0.00416399650153
26942000000,ocean_waves,wamv,0.0,0.0,0.0,0.0,0.0,0.0,1.0,0.769686768701,9.09213509199,0.747707902753,-0.0205529731813,-0.0740394083362,0.685817446451,0.723705859759,0.0,0.0,0.0,0.0,0.0,0.0,0.362729124503,2.15303743382,4.15447717916,-0.248653567247,0.278357692358,-0.00412414664234
26943000000,ocean_waves,wamv,0.0,0.0,0.0,0.0,0.0,0.0,1.0,0.77004980892,9.09428900024,0.751851291586,-0.0205460585649,-0.0738536802218,0.685827937532,0.723715091383,0.0,0.0,0.0,0.0,0.0,0.0,0.363038016322,2.15390657167,4.1434063473,-0.245916902056,0.280107637129,-0.00408812510148
26944000000,ocean_waves,wamv,0.0,0.0,0.0,0.0,0.0,0.0,1.0,0.770413173136,9.09644376453,0.755983496501,-0.0205375949535,-0.073668264869,0.68583833453,0.723724376289,0.0,0.0,0.0,0.0,0.0,0.0,0.363362008908,2.15476263916,4.1322223823,-0.243229752113,0.28178362861,-0.00405573889504
26945000000,ocean_waves,wamv,0.0,0.0,0.0,0.0,0.0,0.0,1.0,0.770776875515,9.0985993717,0.760104407825,-0.0205276246472,-0.0734831705741,0.685848637624,0.723733712451,0.0,0.0,0.0,0.0,0.0,0.0,0.36370016792,2.15560553591,4.12092874598,-0.240592560197,0.283389306978,-0.00402678916241
26946000000,ocean_waves,wamv,0.0,0.0,0.0,0.0,0.0,0.0,1.0,0.771140929203,9.10075580844,0.764213919567,-0.0205161887634,-0.0732984040132,0.685858847118,0.723743097927,0.0,0.0,0.0,0.0,0.0,0.0,0.364051472655,2.15643514196,4.10952911784,-0.23800585192,0.284928656276,-0.00400106874523
26947000000,ocean_waves,wamv,0.0,0.0,0.0,0.0,0.0,0.0,1.0,0.771505346207,9.10291306133,0.768311929691,-0.0205033271225,-0.0731139700313,0.685868963455,0.723752530865,0.0,0.0,0.0,0.0,0.0,0.0,0.364414785527,2.15725130737,4.09802745689,-0.235470279552,0.286406123814,-0.00397835849658
26948000000,ocean_waves,wamv,0.0,0.0,0.0,0.0,0.0,0.0,1.0,0.771870137216,9.10507111673,0.772398340539,-0.0204890780726,-0.072929871317,0.685878987234,0.723762009517,0.0,0.0,0.0,0.0,0.0,0.0,0.364788787473,2.15805383601,4.08642813764,-0.232986689798,0.287826873495,-0.00395841856583
26949000000,ocean_waves,wamv,0.0,0.0,0.0,0.0,0.0,0.0,1.0,0.772235311288,9.10722996072,0.776473059586,-0.0204734781926,-0.0727461078393,0.685888919255,0.723771532272,0.0,0.0,0.0,0.0,0.0,0.0,0.365171848426,2.15884244934,4.07473629529,-0.230556275826,0.289197295141,-0.00394097079218
26950000000,ocean_waves,wamv,0.0,0.0,0.0,0.0,0.0,0.0,1.0,0.772600874805,9.10938957882,0.780536001922,-0.0204565613013,-0.0725626749532,0.685898760649,0.723781097739,0.0,0.0,0.0,0.0,0.0,0.0,0.365561291866,2.15961658732,4.06295954432,-0.228181412647,0.290527899544,-0.00392559600114
26951000000,ocean_waves,wamv,0.0,0.0,0.0,0.0,0.0,0.0,1.0,0.772966831763,9.11154995608,0.784587089564,-0.0204383587282,-0.072379563927,0.685908512836,0.723790704719,0.0,0.0,0.0,0.0,0.0,0.0,0.365954730877,2.16037577056,4.05110481391,-0.225864137151,0.291828057538,-0.00391192445409
26952000000,ocean_waves,wamv,0.0,0.0,0.0,0.0,0.0,0.0,1.0,0.773333186144,9.11371107772,0.788626245775,-0.0204189015495,-0.0721967662484,0.685918177207,0.723800352016,0.0,0.0,0.0,0.0,0.0,0.0,0.366352151496,2.16112016562,4.03917335035,-0.223603777493,0.293097797408,-0.00389992631778
26953000000,ocean_waves,wamv,0.0,0.0,0.0,0.0,0.0,0.0,1.0,0.773699941908,9.11587292912,0.792653395076,-0.0203982205775,-0.0720142736186,0.685927755128,0.723810038434,0.0,0.0,0.0,0.0,0.0,0.0,0.366753532858,2.16184994068,4.02716640817,-0.221399655887,0.294337170704,-0.00388957381674
26954000000,ocean_waves,wamv,0.0,0.0,0.0,0.0,0.0,0.0,1.0,0.774067102994,9.11803549581,0.796668463251,-0.0203763463585,-0.0718320779548,0.685937247932,0.723819762776,0.0,0.0,0.0,0.0,0.0,0.0,0.367158853237,2.1625652661,4.01508525377,-0.219251086642,0.295546229284,-0.00388084211971
26956000000,ocean_waves,wamv,0.0,0.0,0.0,0.0,0.0,0.0,1.0,0.774434673311,9.12019876354,0.800671377348,-0.0203533091635,-0.0716501713809,0.685946656924,0.723829523854,0.0,0.0,0.0,0.0,0.0,0.0,0.367568083569,2.16326631262,4.00293114964,-0.217157383738,0.296725050471,-0.00387370836843
26956000000,ocean_waves,wamv,0.0,0.0,0.0,0.0,0.0,0.0,1.0,0.774802656742,9.12236271818,0.804662065691,-0.0203291389876,-0.0714685462325,0.685955983379,0.723839320481,0.0,0.0,0.0,0.0,0.0,0.0,0.367981195375,2.16395325318,3.99070537115,-0.215117853061,0.297873705541,-0.00386815268754
26956000000,ocean_waves,wamv,0.0,0.0,0.0,0.0,0.0,0.0,1.0,0.77517105713,9.12452734582,0.808640457877,-0.0203038655399,-0.0712871950478,0.68596522854,0.723849151481,0.0,0.0,0.0,0.0,0.0,0.0,0.368398152026,2.16462626145,3.97840919181,-0.213131798663,0.298992293794,-0.00386415679493
26958000000,ocean_waves,wamv,0.0,0.0,0.0,0.0,0.0,0.0,1.0,0.775539878282,9.12669263269,0.812606484781,-0.0202775182416,-0.071106110568,0.685974393624,0.723859015684,0.0,0.0,0.0,0.0,0.0,0.0,0.368818915429,2.16528551221,3.96604388928,-0.211198521006,0.30008091614,-0.00386170484082
26959000000,ocean_waves,wamv,0.0,0.0,0.0,0.0,0.0,0.0,1.0,0.775909123963,9.12885856521,0.816560078565,-0.0202501262181,-0.070925285734,0.685983479811,0.72386891193,0.0,0.0,0.0,0.0,0.0,0.0,0.369243442438,2.16593118235,3.95361075013,-0.209317313035,0.301139688988,-0.00386078258594
26960000000,ocean_waves,wamv,0.0,0.0,0.0,0.0,0.0,0.0,1.0,0.776278797889,9.13102512998,0.820501172676,-0.0202217182963,-0.0707447136857,0.685992488254,0.72387883907,0.0,0.0,0.0,0.0,0.0,0.0,0.369671687461,2.1665634494,3.94111106118,-0.207487465952,0.30216873421,-0.0038613776298
26961000000,ocean_waves,wamv,0.0,0.0,0.0,0.0,0.0,0.0,1.0,0.776648903727,9.13319231377,0.824429701854,-0.0201923229979,-0.0705643877567,0.686001420075,0.723888795968,0.0,0.0,0.0,0.0,0.0,0.0,0.370103599616,2.16718249214,3.92854611177,-0.205708266911,0.303168190414,-0.00386347863466
26963000000,ocean_waves,wamv,0.0,0.0,0.0,0.0,0.0,0.0,1.0,0.777019445091,9.13536010355,0.828345602127,-0.0201619685353,-0.0703843014732,0.686010276363,0.723898781499,0.0,0.0,0.0,0.0,0.0,0.0,0.370539125183,2.16778849031,3.91591719296,-0.203979000049,0.304138203725,-0.00386707535462
26963000000,ocean_waves,wamv,0.0,0.0,0.0,0.0,0.0,0.0,1.0,0.777390425536,9.13752848645,0.832248810819,-0.0201306828049,-0.0702044485492,0.686019058176,0.723908794554,0.0,0.0,0.0,0.0,0.0,0.0,0.370978205578,2.16838162495,3.90322559844,-0.202298945184,0.305078936271,-0.0038721578981
26964000000,ocean_waves,wamv,0.0,0.0,0.0,0.0,0.0,0.0,1.0,0.777761848557,9.13969744978,0.836139266547,-0.0200984933864,-0.0700248228881,0.686027766545,0.723918834036,0.0,0.0,0.0,0.0,0.0,0.0,0.371420781854,2.16896207782,3.89047262284,-0.200667379905,0.305990549334,-0.00387871698178
26965000000,ocean_waves,wamv,0.0,0.0,0.0,0.0,0.0,0.0,1.0,0.778133717585,9.14186698105,0.840016909229,-0.0200654275338,-0.0698454185776,0.686036402467,0.723928898865,0.0,0.0,0.0,0.0,0.0,0.0,0.371866789796,2.16953003252,3.87765956612,-0.199083575389,0.306873223402,-0.00388674264081
26966000000,ocean_waves,wamv,0.0,0.0,0.0,0.0,0.0,0.0,1.0,0.778506035987,9.14403706794,0.843881680077,-0.0200315121741,-0.0696662298874,0.686044966912,0.723938987974,0.0,0.0,0.0,0.0,0.0,0.0,0.372316163635,2.17008567252,3.8647877225,-0.19754680387,0.307727144848,-0.00389622438963
26967000000,ocean_waves,wamv,0.0,0.0,0.0,0.0,0.0,0.0,1.0,0.778878807062,9.14620769834,0.847733521604,-0.0199967739029,-0.0694872512696,0.68605346082,0.723949100312,0.0,0.0,0.0,0.0,0.0,0.0,0.372768836619,2.170629183,3.85185839232,-0.19605633155,0.308552504762,-0.00390715069043
26968000000,ocean_waves,wamv,0.0,0.0,0.0,0.0,0.0,0.0,1.0,0.779252034039,9.14837886028,0.851572377623,-0.0199612389799,-0.0693084773555,0.686061885104,0.723959234842,0.0,0.0,0.0,0.0,0.0,0.0,0.373224739571,2.17116074987,3.83887287519,-0.19461142212,0.30934950591,-0.00391950830297
26969000000,ocean_waves,wamv,0.0,0.0,0.0,0.0,0.0,0.0,1.0,0.779625720077,9.15055054202,0.855398193247,-0.0199249333245,-0.0691299029539,0.68607024065,0.723969390543,0.0,0.0,0.0,0.0,0.0,0.0,0.373683802257,2.17168056027,3.82583247329,-0.193211335074,0.310118358652,-0.00393328201708
26970000000,ocean_waves,wamv,0.0,0.0,0.0,0.0,0.0,0.0,1.0,0.779999868266,9.15272273199,0.85921091489,-0.0198878825125,-0.0689515230489,0.68607852832,0.723979566408,0.0,0.0,0.0,0.0,0.0,0.0,0.374145953424,2.17218880166,3.81273848575,-0.191855328996,0.310859282037,-0.00394845432816
26971000000,ocean_waves,wamv,0.0,0.0,0.0,0.0,0.0,0.0,1.0,0.780374481621,9.1548954188,0.863010490263,-0.0198501117724,-0.0687733327968,0.686086748951,0.723989761442,0.0,0.0,0.0,0.0,0.0,0.0,0.374611121068,2.17268566186,3.79959220862,-0.190542661554,0.311572503868,-0.00396500518054
26972000000,ocean_waves,wamv,0.0,0.0,0.0,0.0,0.0,0.0,1.0,0.780749563088,9.15706859127,0.866796868375,-0.019811645984,-0.0685953275272,0.686094903355,0.723999974665,0.0,0.0,0.0,0.0,0.0,0.0,0.375079234816,2.17317132969,3.78639494096,-0.189272586599,0.3122582523,-0.00398291207378
26973000000,ocean_waves,wamv,0.0,0.0,0.0,0.0,0.0,0.0,1.0,0.781125115542,9.15924223839,0.870569999531,-0.0197725096744,-0.0684175027402,0.686102992325,0.724010205109,0.0,0.0,0.0,0.0,0.0,0.0,0.37555022355,2.17364599451,3.77314798024,-0.188044356211,0.31291676587,-0.00400214965468
26975000000,ocean_waves,wamv,0.0,0.0,0.0,0.0,0.0,0.0,1.0,0.781501141787,9.16141634935,0.874329835334,-0.0197327270136,-0.0682398541031,0.686111016634,0.724020451817,0.0,0.0,0.0,0.0,0.0,0.0,0.376024015739,2.17410984602,3.75985262165,-0.186857221312,0.313548292696,-0.00402268979253
26975000000,ocean_waves,wamv,0.0,0.0,0.0,0.0,0.0,0.0,1.0,0.781877644556,9.16359091352,0.878076328679,-0.0196923218139,-0.0680623774501,0.686118977034,0.724030713845,0.0,0.0,0.0,0.0,0.0,0.0,0.376500541469,2.17456307401,3.74651015769,-0.185710432526,0.314153082836,-0.00404450200401
26976000000,ocean_waves,wamv,0.0,0.0,0.0,0.0,0.0,0.0,1.0,0.782254626513,9.16576592048,0.88180943375,-0.0196513175285,-0.067885068781,0.686126874261,0.724040990257,0.0,0.0,0.0,0.0,0.0,0.0,0.376979731975,2.17500586858,3.73312187948,-0.184603239414,0.314731390095,-0.00406755358403
26977000000,ocean_waves,wamv,0.0,0.0,0.0,0.0,0.0,0.0,1.0,0.782632090254,9.16794135997,0.885529106022,-0.019609737247,-0.0677079242583,0.686134709033,0.72405128013,0.0,0.0,0.0,0.0,0.0,0.0,0.377461518017,2.17543841999,3.71968907537,-0.183534890977,0.315283478167,-0.00409180966574
26978000000,ocean_waves,wamv,0.0,0.0,0.0,0.0,0.0,0.0,1.0,0.783010038306,9.17011722196,0.88923530225,-0.0195676036955,-0.0675309402043,0.686142482054,0.724061582548,0.0,0.0,0.0,0.0,0.0,0.0,0.377945831053,2.17586091786,3.70621302655,-0.182504638723,0.315809615714,-0.00411723377611
26978000000,ocean_waves,wamv,0.0,0.0,0.0,0.0,0.0,0.0,1.0,0.783388473127,9.17229349656,0.892927980471,-0.0195249392331,-0.0673541130994,0.68615019401,0.724071896607,0.0,0.0,0.0,0.0,0.0,0.0,0.378432602794,2.17627355222,3.69269501403,-0.181511732549,0.316310077494,-0.00414378809113
26979000000,ocean_waves,wamv,0.0,0.0,0.0,0.0,0.0,0.0,1.0,0.783767397107,9.17447017412,0.896607099997,-0.0194817658494,-0.0671774395788,0.686157845577,0.724082221411,0.0,0.0,0.0,0.0,0.0,0.0,0.378921764213,2.17667651293,3.67913631461,-0.180555423001,0.316785147623,-0.0041714337232
26981000000,ocean_waves,wamv,0.0,0.0,0.0,0.0,0.0,0.0,1.0,0.784146812568,9.17664724514,0.900272621411,-0.0194381051663,-0.0670009164315,0.686165437414,0.724092556075,0.0,0.0,0.0,0.0,0.0,0.0,0.379413248261,2.17706998889,3.66553819721,-0.179634964364,0.31723510833,-0.00420013154381
26982000000,ocean_waves,wamv,0.0,0.0,0.0,0.0,0.0,0.0,1.0,0.784526721763,9.17882470032,0.903924506562,-0.0193939784328,-0.0668245405964,0.686172970169,0.72410289972,0.0,0.0,0.0,0.0,0.0,0.0,0.379906985784,2.17745416929,3.65190192951,-0.178749609698,0.317660255064,-0.00422984191345
26983000000,ocean_waves,wamv,0.0,0.0,0.0,0.0,0.0,0.0,1.0,0.784907126878,9.18100253058,0.907562718557,-0.0193494065268,-0.0666483091595,0.686180444477,0.724113251482,0.0,0.0,0.0,0.0,0.0,0.0,0.380402908323,2.17782924184,3.63822876764,-0.177898617903,0.318060884951,-0.0042605255312
26984000000,ocean_waves,wamv,0.0,0.0,0.0,0.0,0.0,0.0,1.0,0.785288030028,9.18318072697,0.911187221762,-0.0193044099516,-0.0664722193528,0.686187860958,0.724123610501,0.0,0.0,0.0,0.0,0.0,0.0,0.380900946698,2.1781953952,3.62451997212,-0.177081243935,0.318437301466,-0.00429214341383
26985000000,ocean_waves,wamv,0.0,0.0,0.0,0.0,0.0,0.0,1.0,0.785669433259,9.18535928078,0.914797981788,-0.0192590088367,-0.06629626855,0.686195220223,0.724133975931,0.0,0.0,0.0,0.0,0.0,0.0,0.381401031209,2.17855281603,3.61077678814,-0.176296750734,0.318789813149,-0.00432465737708
26986000000,ocean_waves,wamv,0.0,0.0,0.0,0.0,0.0,0.0,1.0,0.786051338546,9.18753818345,0.918394965491,-0.0192132229361,-0.0661204542641,0.686202522869,0.724144346937,0.0,0.0,0.0,0.0,0.0,0.0,0.381903091155,2.17890169086,3.59700045843,-0.175544401507,0.319118734745,-0.00435803010321
26987000000,ocean_waves,wamv,0.0,0.0,0.0,0.0,0.0,0.0,1.0,0.786433747792,9.18971742662,0.921978140958,-0.0191670716265,-0.0659447741417,0.68620976948,0.724154722693,0.0,0.0,0.0,0.0,0.0,0.0,0.382407053649,2.17924220499,3.58319221497,-0.174823464459,0.319424391297,-0.00439222525459
26988000000,ocean_waves,wamv,0.0,0.0,0.0,0.0,0.0,0.0,1.0,0.786816662828,9.19189700212,0.925547477501,-0.0191205739092,-0.0657692259637,0.686216960631,0.724165102385,0.0,0.0,0.0,0.0,0.0,0.0,0.382912846867,2.17957454306,3.56935328503,-0.17413321018,0.319707104882,-0.00442720806222
26989000000,ocean_waves,wamv,0.0,0.0,0.0,0.0,0.0,0.0,1.0,0.787200085409,9.19407690196,0.929102945657,-0.019073748407,-0.0655938076404,0.686224096879,0.724175485213,0.0,0.0,0.0,0.0,0.0,0.0,0.383420396342,2.1798988893,3.55548489086,-0.173472910875,0.319967208535,-0.00446294494957
26990000000,ocean_waves,wamv,0.0,0.0,0.0,0.0,0.0,0.0,1.0,0.787584017215,9.19625711833,0.93264451717,-0.0190266133646,-0.0654185172066,0.686231178773,0.724185870388,0.0,0.0,0.0,0.0,0.0,0.0,0.383929625991,2.18021542606,3.54158824048,-0.172841846227,0.320205041833,-0.00449940388022
26991000000,ocean_waves,wamv,0.0,0.0,0.0,0.0,0.0,0.0,1.0,0.78796845985,9.1984376436,0.93617216499,-0.0189791866492,-0.0652433528212,0.686238206848,0.724196257135,0.0,0.0,0.0,0.0,0.0,0.0,0.384440459505,2.18052433541,3.52766453941,-0.172239296862,0.320420944901,-0.00453655455548
26992000000,ocean_waves,wamv,0.0,0.0,0.0,0.0,0.0,0.0,1.0,0.78835341484,9.20061847032,0.939685863259,-0.0189314857493,-0.065068312762,0.686245181624,0.724206644694,0.0,0.0,0.0,0.0,0.0,0.0,0.38495281827,2.18082579775,3.51371498029,-0.171664550018,0.320615266117,-0.00457436829102
26993000000,ocean_waves,wamv,0.0,0.0,0.0,0.0,0.0,0.0,1.0,0.78873888363,9.20279959123,0.943185587307,-0.0188835277757,-0.0648933954233,0.68625210361,0.724217032318,0.0,0.0,0.0,0.0,0.0,0.0,0.385466622475,2.18111999277,3.49974074974,-0.171116895808,0.320788357272,-0.00461281817767
26994000000,ocean_waves,wamv,0.0,0.0,0.0,0.0,0.0,0.0,1.0,0.789124867582,9.20498099924,0.94667131364,-0.0188353294596,-0.0647185993119,0.686258973301,0.724227419276,0.0,0.0,0.0,0.0,0.0,0.0,0.385981790171,2.18140709907,3.48574302567,-0.170595628613,0.320940576828,-0.00465187901683
26995000000,ocean_waves,wamv,0.0,0.0,0.0,0.0,0.0,0.0,1.0,0.789511367978,9.20716268743,0.950143019932,-0.0187869071552,-0.0645439230441,0.686265791177,0.724237804852,0.0,0.0,0.0,0.0,0.0,0.0,0.386498238112,2.18168729363,3.47172297398,-0.170100049307,0.321072286195,-0.00469152749028
26996000000,ocean_waves,wamv,0.0,0.0,0.0,0.0,0.0,0.0,1.0,0.789898386012,9.20934464907,0.953600685014,-0.0187382768388,-0.0643693653434,0.686272557705,0.724248188349,0.0,0.0,0.0,0.0,0.0,0.0,0.387015881568,2.18196075265,3.45768175432,-0.169629461781,0.321183850029,-0.00473174208589
26997000000,ocean_waves,wamv,0.0,0.0,0.0,0.0,0.0,0.0,1.0,0.790285922792,9.21152687761,0.957044288865,-0.0186894541092,-0.064194925035,0.686279273338,0.724258569084,0.0,0.0,0.0,0.0,0.0,0.0,0.387534633185,2.1822276506,3.44362051276,-0.169183176963,0.321275640342,-0.00477250297455
26998000000,ocean_waves,wamv,0.0,0.0,0.0,0.0,0.0,0.0,1.0,0.790673979338,9.21370936664,0.960473812604,-0.018640454188,-0.0640206010443,0.686285938513,0.724268946393,0.0,0.0,0.0,0.0,0.0,0.0,0.388054404019,2.18248816119,3.42954038895,-0.16876050886,0.321348032104,-0.0048137920357
26999000000,ocean_waves,wamv,0.0,0.0,0.0,0.0,0.0,0.0,1.0,0.791062556579,9.21589210997,0.963889238479,-0.0185912919216,-0.0638463923949,0.686292553653,0.72427931963,0.0,0.0,0.0,0.0,0.0,0.0,0.388575104431,2.18274245685,3.41544251302,-0.168360776537,0.321401399559,-0.00485559290583
27000000000,ocean_waves,wamv,0.0,0.0,0.0,0.0,0.0,0.0,1.0,0.791451655352,9.21807510154,0.967290549853,-0.0185419817796,-0.0636722982023,0.686299119167,0.724289688167,0.0,0.0,0.0,0.0,0.0,0.0,0.389096640877,2.18299070824,3.40132800027,-0.167983306366,0.321436128631,-0.00489789044423
27001000000,ocean_waves,wamv,0.0,0.0,0.0,0.0,0.0,0.0,1.0,0.791841276397,9.22025833548,0.970677731201,-0.0184925378571,-0.0634983176735,0.686305635447,0.724300051395,0.0,0.0,0.0,0.0,0.0,0.0,0.389618919518,2.18323308537,3.38719796062,-0.16762742727,0.321452602799,-0.00494067096036
27002000000,ocean_waves,wamv,0.0,0.0,0.0,0.0,0.0,0.0,1.0,0.792231420361,9.22244180608,0.974050768092,-0.0184429738747,-0.0633244501024,0.686312102871,0.724310408724,0.0,0.0,0.0,0.0,0.0,0.0,0.390141844029,2.18346975662,3.37305349038,-0.167292474912,0.321451211833,-0.004983921746
27003000000,ocean_waves,wamv,0.0,0.0,0.0,0.0,0.0,0.0,1.0,0.792622087793,9.22462550781,0.977409647184,-0.0183933031804,-0.063150694869,0.686318521803,0.724320759585,0.0,0.0,0.0,0.0,0.0,0.0,0.390665317646,2.1837008892,3.35889567651,-0.166977789585,0.321432344125,-0.00502763103148
27005000000,ocean_waves,wamv,0.0,0.0,0.0,0.0,0.0,0.0,1.0,0.793013279143,9.22680943529,0.980754356211,-0.0183435387496,-0.0629770514362,0.686324892591,0.724331103425,0.0,0.0,0.0,0.0,0.0,0.0,0.391189241456,2.18392664955,3.34472559785,-0.166682714856,0.321396393767,-0.00507178741455
27005000000,ocean_waves,wamv,0.0,0.0,0.0,0.0,0.0,0.0,1.0,0.793404994762,9.22899358332,0.984084883977,-0.0182936931862,-0.0628035193471,0.686331215567,0.724341439713,0.0,0.0,0.0,0.0,0.0,0.0,0.391713515814,2.18414720268,3.33054432117,-0.166406600154,0.321343755761,-0.00511637971381
27007000000,ocean_waves,wamv,0.0,0.0,0.0,0.0,0.0,0.0,1.0,0.793797234898,9.23117794685,0.987401220337,-0.0182437787233,-0.0626300982215,0.68633749105,0.724351767937,0.0,0.0,0.0,0.0,0.0,0.0,0.392238039517,2.18436271205,3.31635290008,-0.166148801051,0.321274829998,-0.00516139647294
27007000000,ocean_waves,wamv,0.0,0.0,0.0,0.0,0.0,0.0,1.0,0.794189999701,9.233362521,0.990703356195,-0.0181938072264,-0.0624567877567,0.686343719347,0.724362087602,0.0,0.0,0.0,0.0,0.0,0.0,0.392762712755,2.18457334045,3.30215238166,-0.165908675949,0.321190010659,-0.00520682589313
27009000000,ocean_waves,wamv,0.0,0.0,0.0,0.0,0.0,0.0,1.0,0.794583289219,9.23554730105,0.993991283491,-0.0181437901922,-0.0622835877237,0.686349900749,0.724372398231,0.0,0.0,0.0,0.0,0.0,0.0,0.393287434125,2.18477924959,3.28794380238,-0.165685587576,0.321089698833,-0.00525265506767
27009000000,ocean_waves,wamv,0.0,0.0,0.0,0.0,0.0,0.0,1.0,0.7949771034,9.23773228245,0.997264995186,-0.0180937387525,-0.0621104979661,0.686356035536,0.724382699368,0.0,0.0,0.0,0.0,0.0,0.0,0.393812103549,2.18498059945,3.27372818482,-0.165478905621,0.320974292264,-0.00529887001807
27010000000,ocean_waves,wamv,0.0,0.0,0.0,0.0,0.0,0.0,1.0,0.795371442093,9.2399174608,1.00052448526,-0.0180436636741,-0.0619375183977,0.686362123976,0.72439299057,0.0,0.0,0.0,0.0,0.0,0.0,0.394336620853,2.18517754927,3.25950654377,-0.165288002637,0.320844191815,-0.00534545512514
27011000000,ocean_waves,wamv,0.0,0.0,0.0,0.0,0.0,0.0,1.0,0.795766305046,9.24210283184,1.00376974869,-0.0179935753621,-0.0617646490033,0.686368166326,0.724403271413,0.0,0.0,0.0,0.0,0.0,0.0,0.394860888222,2.18537025711,3.24527988408,-0.165112255905,0.320699792907,-0.005392393195
27012000000,ocean_waves,wamv,0.0,0.0,0.0,0.0,0.0,0.0,1.0,0.796161691912,9.2442883915,1.00700078145,-0.0179434838603,-0.0615918898353,0.686374162833,0.724413541486,0.0,0.0,0.0,0.0,0.0,0.0,0.39538480802,2.18555887973,3.23104919921,-0.164951047717,0.320541494856,-0.00543966498626
27013000000,ocean_waves,wamv,0.0,0.0,0.0,0.0,0.0,0.0,1.0,0.796557602248,9.24647413585,1.01021758051,-0.017893398854,-0.0614192410123,0.686380113737,0.724423800394,0.0,0.0,0.0,0.0,0.0,0.0,0.395908284445,2.18574357258,3.21681547171,-0.164803765531,0.320369695109,-0.00548724930859
27015000000,ocean_waves,wamv,0.0,0.0,0.0,0.0,0.0,0.0,1.0,0.796954035518,9.2486600611,1.01342014379,-0.017843329672,-0.0612467027201,0.686386019269,0.724434047753,0.0,0.0,0.0,0.0,0.0,0.0,0.396431224056,2.18592449026,3.20257967676,-0.164669800039,0.320184787686,-0.00553512303475
27015000000,ocean_waves,wamv,0.0,0.0,0.0,0.0,0.0,0.0,1.0,0.797350991091,9.25084616365,1.01660847019,-0.017793285288,-0.0610742752084,0.686391879652,0.724444283195,0.0,0.0,0.0,0.0,0.0,0.0,0.396953534529,2.18610178584,3.18834277739,-0.16454854775,0.31998716835,-0.00558326103587
27016000000,ocean_waves,wamv,0.0,0.0,0.0,0.0,0.0,0.0,1.0,0.797748468249,9.25303244002,1.01978255957,-0.0177432743246,-0.0609019587914,0.686397695105,0.724454506361,0.0,0.0,0.0,0.0,0.0,0.0,0.397475126684,2.18627561119,3.1741057275,-0.164439409846,0.319777226841,-0.00563163655634
27017000000,ocean_waves,wamv,0.0,0.0,0.0,0.0,0.0,0.0,1.0,0.798146466186,9.25521888689,1.0229424127,-0.0176933050535,-0.0607297538455,0.68640346584,0.724464716903,0.0,0.0,0.0,0.0,0.0,0.0,0.397995912178,2.1864461168,3.15986947008,-0.16434179269,0.31955535577,-0.00568022113495
27017000000,ocean_waves,wamv,0.0,0.0,0.0,0.0,0.0,0.0,1.0,0.798544984009,9.25740550109,1.02608803133,-0.0176433853995,-0.0605576608092,0.686409192066,0.724474914484,0.0,0.0,0.0,0.0,0.0,0.0,0.39851580545,2.18661345212,3.14563494036,-0.164255106617,0.319321942796,-0.00572898508916
27019000000,ocean_waves,wamv,0.0,0.0,0.0,0.0,0.0,0.0,1.0,0.798944020741,9.25959227959,1.0292194181,-0.0175935229413,-0.0603856801793,0.686414873988,0.724485098776,0.0,0.0,0.0,0.0,0.0,0.0,0.399034721482,2.18677776458,3.13140305869,-0.164178769688,0.319077379051,-0.00577789757887
27020000000,ocean_waves,wamv,0.0,0.0,0.0,0.0,0.0,0.0,1.0,0.799343575323,9.26177921952,1.03233657658,-0.0175437249154,-0.0602138125132,0.686420511806,0.72449526946,0.0,0.0,0.0,0.0,0.0,0.0,0.399552578435,2.18693920089,3.11717474053,-0.164112202589,0.318822048316,-0.00582692718387
27021000000,ocean_waves,wamv,0.0,0.0,0.0,0.0,0.0,0.0,1.0,0.799743646615,9.26396631816,1.03543951123,-0.0174939982169,-0.0600420584266,0.68642610572,0.724505426227,0.0,0.0,0.0,0.0,0.0,0.0,0.400069295523,2.18709790671,3.10295089358,-0.164054829869,0.318556334775,-0.0058760419795
27022000000,ocean_waves,wamv,0.0,0.0,0.0,0.0,0.0,0.0,1.0,0.800144233397,9.26615357291,1.03852822742,-0.0174443494019,-0.0598704185902,0.686431655926,0.724515568773,0.0,0.0,0.0,0.0,0.0,0.0,0.400584792255,2.18725402566,3.08873241075,-0.164006084064,0.318280625461,-0.00592520981648
27023000000,ocean_waves,wamv,0.0,0.0,0.0,0.0,0.0,0.0,1.0,0.80054533437,9.26834098133,1.0416027314,-0.0173947846899,-0.0596988937311,0.686437162616,0.724525696806,0.0,0.0,0.0,0.0,0.0,0.0,0.401098990412,2.18740770083,3.07452018182,-0.163965399403,0.317995301859,-0.00597439878689
27024000000,ocean_waves,wamv,0.0,0.0,0.0,0.0,0.0,0.0,1.0,0.800946948157,9.27052854111,1.04466303032,-0.0173453099654,-0.0595274846303,0.686442625982,0.72453581004,0.0,0.0,0.0,0.0,0.0,0.0,0.401611812245,2.1875590737,3.06031508511,-0.163932216396,0.317700746403,-0.0060235773457
27026000000,ocean_waves,wamv,0.0,0.0,0.0,0.0,0.0,0.0,1.0,0.801349073305,9.27271625011,1.04770913216,-0.0172959307788,-0.059356192121,0.686448046213,0.724545908198,0.0,0.0,0.0,0.0,0.0,0.0,0.402123180174,2.18770828488,3.04611799283,-0.163905978666,0.317397343023,-0.00607271449228
27026000000,ocean_waves,wamv,0.0,0.0,0.0,0.0,0.0,0.0,1.0,0.801751708282,9.27490410628,1.05074104581,-0.017246652348,-0.0591850170859,0.686453423495,0.724555991009,0.0,0.0,0.0,0.0,0.0,0.0,0.402633016545,2.18785547357,3.03192976704,-0.163886135398,0.317085477551,-0.00612178000572
27027000000,ocean_waves,wamv,0.0,0.0,0.0,0.0,0.0,0.0,1.0,0.80215485148,9.27709210776,1.05375878098,-0.0171974795593,-0.0590139604584,0.686458758013,0.724566058214,0.0,0.0,0.0,0.0,0.0,0.0,0.403141244874,2.18800077875,3.01775126899,-0.1638721362,0.316765532303,-0.00617074473459
27028000000,ocean_waves,wamv,0.0,0.0,0.0,0.0,0.0,0.0,1.0,0.802558501213,9.27928025279,1.05676234826,-0.017148416968,-0.0588430232188,0.686464049947,0.72457610956,0.0,0.0,0.0,0.0,0.0,0.0,0.403647787412,2.18814433788,3.00358334874,-0.163863436731,0.316437895084,-0.00621958055732
27029000000,ocean_waves,wamv,0.0,0.0,0.0,0.0,0.0,0.0,1.0,0.802962655717,9.28146853976,1.05975175907,-0.017099468797,-0.0586722063916,0.686469299476,0.724586144803,0.0,0.0,0.0,0.0,0.0,0.0,0.404152565071,2.18828628821,2.98942685444,-0.163859493214,0.316102958907,-0.00626826046449
27030000000,ocean_waves,wamv,0.0,0.0,0.0,0.0,0.0,0.0,1.0,0.803367313146,9.28365696721,1.06272702568,-0.0170506389363,-0.0585015110457,0.686474506776,0.724596163711,0.0,0.0,0.0,0.0,0.0,0.0,0.404655498374,2.1884267669,2.9752826334,-0.163859762148,0.31576111781,-0.00631675880957
27031000000,ocean_waves,wamv,0.0,0.0,0.0,0.0,0.0,0.0,1.0,0.803772471575,9.2858455338,1.06568816123,-0.0170019309408,-0.0583309382916,0.686479672017,0.724606166058,0.0,0.0,0.0,0.0,0.0,0.0,0.40515650596,2.18856591112,2.9611515325,-0.163863699715,0.315412772159,-0.00636505124632
27032000000,ocean_waves,wamv,0.0,0.0,0.0,0.0,0.0,0.0,1.0,0.804178128994,9.28803423833,1.06863517966,-0.0169533480263,-0.0581604892766,0.686484795368,0.724616151632,0.0,0.0,0.0,0.0,0.0,0.0,0.405655502754,2.18870385779,2.94703439517,-0.16387076315,0.315058335307,-0.00641311463756
27034000000,ocean_waves,wamv,0.0,0.0,0.0,0.0,0.0,0.0,1.0,0.804584283303,9.29022307974,1.0715680958,-0.0169048930632,-0.0579901651843,0.686489876992,0.72462612023,0.0,0.0,0.0,0.0,0.0,0.0,0.406152400561,2.18884074585,2.93293207729,-0.163880401463,0.314698230647,-0.00646092710328
27034000000,ocean_waves,wamv,0.0,0.0,0.0,0.0,0.0,0.0,1.0,0.804990932309,9.29241205712,1.07448692533,-0.0168565685677,-0.0578199672275,0.686494917048,0.724636071662,0.0,0.0,0.0,0.0,0.0,0.0,0.406647105151,2.18897671524,2.91884543887,-0.163892059642,0.314332902527,-0.00650846780807
27035000000,ocean_waves,wamv,0.0,0.0,0.0,0.0,0.0,0.0,1.0,0.805398073717,9.29460116968,1.07739168481,-0.0168083766882,-0.0576498966452,0.686499915689,0.72464600575,0.0,0.0,0.0,0.0,0.0,0.0,0.407139515114,2.1891119096,2.90477536144,-0.163905167972,0.313962820065,-0.00655571675552
27036000000,ocean_waves,wamv,0.0,0.0,0.0,0.0,0.0,0.0,1.0,0.80580570512,9.29679041681,1.08028239172,-0.0167603191839,-0.0574799546936,0.686504873065,0.72465592233,0.0,0.0,0.0,0.0,0.0,0.0,0.407629517484,2.18924647739,2.8907227536,-0.163919137555,0.313588493624,-0.00660265426363
27037000000,ocean_waves,wamv,0.0,0.0,0.0,0.0,0.0,0.0,1.0,0.80621382398,9.29897979804,1.08315906447,-0.0167123973905,-0.0573101426368,0.686509789318,0.724665821255,0.0,0.0,0.0,0.0,0.0,0.0,0.408116982337,2.18938057643,2.87668857845,-0.163933342386,0.313210495121,-0.00664926013511
27037000000,ocean_waves,wamv,0.0,0.0,0.0,0.0,0.0,0.0,1.0,0.806622427599,9.30116931306,1.08602172257,-0.016664612156,-0.0571404617266,0.686514664587,0.724675702396,0.0,0.0,0.0,0.0,0.0,0.0,0.408601748286,2.18951438089,2.86267389346,-0.163947091573,0.312829513576,-0.00669551163165
27038000000,ocean_waves,wamv,0.0,0.0,0.0,0.0,0.0,0.0,1.0,0.807031513041,9.3033589618,1.08887038681,-0.016616963684,-0.0569709131563,0.686519499004,0.724685565649,0.0,0.0,0.0,0.0,0.0,0.0,0.409083579003,2.1896481065,2.84867999779,-0.163959529453,0.312446522105,-0.0067413772116
27040000000,ocean_waves,wamv,0.0,0.0,0.0,0.0,0.0,0.0,1.0,0.807441076959,9.30554874451,1.09170507986,-0.0165694511561,-0.0568014979562,0.686524292701,0.724695410948,0.0,0.0,0.0,0.0,0.0,0.0,0.40956206291,2.18978207056,2.83470878509,-0.163969397489,0.312063163559,-0.00678680208816
27041000000,ocean_waves,wamv,0.0,0.0,0.0,0.0,0.0,0.0,1.0,0.807851116033,9.30773866147,1.0945258248,-0.0165220736802,-0.0566322172575,0.6865290458,0.724705238233,0.0,0.0,0.0,0.0,0.0,0.0,0.410037226222,2.18991633524,2.82076065198,-0.163976448623,0.31167939351,-0.00683179580361
27042000000,ocean_waves,wamv,0.0,0.0,0.0,0.0,0.0,0.0,1.0,0.808261627025,9.30992871302,1.09733264492,-0.016474830415,-0.0564630723269,0.68653375841,0.724715047443,0.0,0.0,0.0,0.0,0.0,0.0,0.410509151519,2.19005092926,2.80683579847,-0.163980568645,0.311294945703,-0.00687637714433
27042000000,ocean_waves,wamv,0.0,0.0,0.0,0.0,0.0,0.0,1.0,0.808672606777,9.31211889952,1.1001255637,-0.016427720569,-0.0562940645664,0.686538430628,0.724724838516,0.0,0.0,0.0,0.0,0.0,0.0,0.410977920015,2.19018588144,2.79293442429,-0.163981643158,0.310909554469,-0.00692056562121
27044000000,ocean_waves,wamv,0.0,0.0,0.0,0.0,0.0,0.0,1.0,0.809084052214,9.31430922136,1.10290460481,-0.0163807434014,-0.0561251955136,0.686543062541,0.724734611393,0.0,0.0,0.0,0.0,0.0,0.0,0.411443611818,2.19032122077,2.77905672913,-0.163979557325,0.310522954247,-0.00696438116734
27045000000,ocean_waves,wamv,0.0,0.0,0.0,0.0,0.0,0.0,1.0,0.809495960337,9.31649967894,1.10566979214,-0.0163338982204,-0.0559564668405,0.686547654224,0.724744366013,0.0,0.0,0.0,0.0,0.0,0.0,0.411906305557,2.19045697622,2.76520291067,-0.163974196772,0.310134881715,-0.007007843736
27047000000,ocean_waves,wamv,0.0,0.0,0.0,0.0,0.0,0.0,1.0,0.809908328226,9.31869027272,1.10842114975,-0.0162871843845,-0.0557878803555,0.686552205738,0.724754102318,0.0,0.0,0.0,0.0,0.0,0.0,0.412366079991,2.19059317732,2.75137316932,-0.163965445035,0.309745070365,-0.0070509730513
27047000000,ocean_waves,wamv,0.0,0.0,0.0,0.0,0.0,0.0,1.0,0.810321153042,9.32088100317,1.11115870193,-0.0162406013014,-0.055619438003,0.686556717135,0.724763820249,0.0,0.0,0.0,0.0,0.0,0.0,0.412823013057,2.19072985367,2.73756770396,-0.163953185654,0.309353255158,-0.007093788114
27048000000,ocean_waves,wamv,0.0,0.0,0.0,0.0,0.0,0.0,1.0,0.810734432018,9.3230718708,1.11388247315,-0.0161941484275,-0.0554511418629,0.686561188455,0.724773519749,0.0,0.0,0.0,0.0,0.0,0.0,0.41327718224,2.19086703496,2.72378671216,-0.163937301996,0.308959172156,-0.00713630683132
27049000000,ocean_waves,wamv,0.0,0.0,0.0,0.0,0.0,0.0,1.0,0.811148162471,9.32526287614,1.11659248808,-0.0161478252688,-0.0552829941532,0.686565619729,0.724783200759,0.0,0.0,0.0,0.0,0.0,0.0,0.413728666304,2.1910047516,2.71003039504,-0.163917674675,0.308562552847,-0.00717854579071
27050000000,ocean_waves,wamv,0.0,0.0,0.0,0.0,0.0,0.0,1.0,0.811562341796,9.32745401976,1.1192887716,-0.0161016313807,-0.0551149972315,0.686570010976,0.72479286322,0.0,0.0,0.0,0.0,0.0,0.0,0.414177544981,2.19114303447,2.69629895512,-0.163894182653,0.308163126463,-0.0072205198908
27051000000,ocean_waves,wamv,0.0,0.0,0.0,0.0,0.0,0.0,1.0,0.811976967465,9.32964530226,1.12197134879,-0.0160555663674,-0.0549471535942,0.686574362208,0.724802507073,0.0,0.0,0.0,0.0,0.0,0.0,0.414623898026,2.1912819143,2.68259259201,-0.163866705476,0.307760624696,-0.0072622419758
27052000000,ocean_waves,wamv,0.0,0.0,0.0,0.0,0.0,0.0,1.0,0.812392037037,9.33183672426,1.12464024494,-0.0160096298828,-0.0547794658788,0.686578673429,0.724812132254,0.0,0.0,0.0,0.0,0.0,0.0,0.415067807524,2.1914214226,2.66891150945,-0.163835119644,0.3073547736,-0.00730372283112
27053000000,ocean_waves,wamv,0.0,0.0,0.0,0.0,0.0,0.0,1.0,0.81280754815,9.33402828642,1.12729548551,-0.0159638216303,-0.0546119368655,0.686582944633,0.724821738698,0.0,0.0,0.0,0.0,0.0,0.0,0.415509356824,2.19156159106,2.65525591085,-0.163799300979,0.306945298529,-0.00734497096111
27054000000,ocean_waves,wamv,0.0,0.0,0.0,0.0,0.0,0.0,1.0,0.81322349853,9.33621998943,1.12993709621,-0.0159181413637,-0.0544445694795,0.68658717581,0.724831326339,0.0,0.0,0.0,0.0,0.0,0.0,0.415948632101,2.19170245212,2.64162600411,-0.163759122195,0.306531918609,-0.00738599268512
27055000000,ocean_waves,wamv,0.0,0.0,0.0,0.0,0.0,0.0,1.0,0.813639885992,9.33841183403,1.13256510294,-0.0158725888871,-0.0542773667912,0.686591366945,0.724840895103,0.0,0.0,0.0,0.0,0.0,0.0,0.416385720469,2.19184403807,2.62802199469,-0.163714456563,0.306114354502,-0.00742679201592
27056000000,ocean_waves,wamv,0.0,0.0,0.0,0.0,0.0,0.0,1.0,0.814056708437,9.34060382097,1.1351795318,-0.0158271640554,-0.0541103320189,0.686595518015,0.724850444912,0.0,0.0,0.0,0.0,0.0,0.0,0.416820712099,2.19198638194,2.61444409276,-0.163665174301,0.305692320303,-0.00746737096796
27057000000,ocean_waves,wamv,0.0,0.0,0.0,0.0,0.0,0.0,1.0,0.81447396386,9.34279595104,1.1377804091,-0.0157818667748,-0.0539434685286,0.686599628995,0.724859975684,0.0,0.0,0.0,0.0,0.0,0.0,0.417253698199,2.19212951658,2.60089250622,-0.163611146283,0.30526553142,-0.00750772957251
27059000000,ocean_waves,wamv,0.0,0.0,0.0,0.0,0.0,0.0,1.0,0.814891650351,9.34498822506,1.14036776139,-0.0157366970038,-0.0537767798388,0.686603699856,0.72486948733,0.0,0.0,0.0,0.0,0.0,0.0,0.417684773719,2.19227347582,2.58736745025,-0.163552239197,0.304833693836,-0.00754786635687
27059000000,ocean_waves,wamv,0.0,0.0,0.0,0.0,0.0,0.0,1.0,0.815309766095,9.34718064389,1.1429416154,-0.0156916547536,-0.0536102696194,0.686607730565,0.724878979755,0.0,0.0,0.0,0.0,0.0,0.0,0.418114034529,2.19241829327,2.57386913783,-0.163488320515,0.304396514799,-0.00758777838489
27060000000,ocean_waves,wamv,0.0,0.0,0.0,0.0,0.0,0.0,1.0,0.815728309376,9.34937320843,1.1455019981,-0.0156467400887,-0.0534439416957,0.686611721089,0.724888452856,0.0,0.0,0.0,0.0,0.0,0.0,0.418541579383,2.19256400324,2.56039778702,-0.163419254846,0.303953694718,-0.00762746173395
27062000000,ocean_waves,wamv,0.0,0.0,0.0,0.0,0.0,0.0,1.0,0.816147278577,9.3515659196,1.14804893665,-0.0156019531276,-0.0532778000474,0.686615671389,0.724897906524,0.0,0.0,0.0,0.0,0.0,0.0,0.418967507683,2.19271063971,2.54695361372,-0.163344907754,0.303504935394,-0.00766691162118
27062000000,ocean_waves,wamv,0.0,0.0,0.0,0.0,0.0,0.0,1.0,0.816566672184,9.35375877837,1.15058245848,-0.0155572940434,-0.0531118488119,0.686619581427,0.724907340643,0.0,0.0,0.0,0.0,0.0,0.0,0.419391921433,2.19285823736,2.53353683897,-0.163265142043,0.303049931827,-0.00770612288439
27063000000,ocean_waves,wamv,0.0,0.0,0.0,0.0,0.0,0.0,1.0,0.816986488786,9.35595178572,1.15310259118,-0.0155127630643,-0.052946092285,0.686623451161,0.72491675509,0.0,0.0,0.0,0.0,0.0,0.0,0.41981492369,2.19300683086,2.5201476842,-0.163179820296,0.302588377674,-0.00774509015243
27064000000,ocean_waves,wamv,0.0,0.0,0.0,0.0,0.0,0.0,1.0,0.817406727074,9.35814494269,1.15560936261,-0.0154683604749,-0.0527805349226,0.686627280548,0.724926149732,0.0,0.0,0.0,0.0,0.0,0.0,0.4202366191,2.1931564552,2.50678637366,-0.163088803693,0.302119962606,-0.00778380817208
27065000000,ocean_waves,wamv,0.0,0.0,0.0,0.0,0.0,0.0,1.0,0.817827385849,9.36033825035,1.15810280085,-0.015424086616,-0.0526151813417,0.686631069541,0.724935524433,0.0,0.0,0.0,0.0,0.0,0.0,0.420657113023,2.19330714536,2.49345313196,-0.162991953323,0.301644375117,-0.00782227199367
27066000000,ocean_waves,wamv,0.0,0.0,0.0,0.0,0.0,0.0,1.0,0.818248464014,9.36253170979,1.16058293418,-0.0153799418866,-0.052450036323,0.686634818094,0.724944879049,0.0,0.0,0.0,0.0,0.0,0.0,0.421076512816,2.19345893692,2.48014818904,-0.162889127669,0.301161296982,-0.00786047731034
27066000000,ocean_waves,wamv,0.0,0.0,0.0,0.0,0.0,0.0,1.0,0.818669960585,9.36472532216,1.16304979113,-0.0153359267432,-0.0522851048105,0.686638526155,0.724954213427,0.0,0.0,0.0,0.0,0.0,0.0,0.421494925553,2.19361186516,2.46687177288,-0.162780186456,0.30067041161,-0.0078984204752
27068000000,ocean_waves,wamv,0.0,0.0,0.0,0.0,0.0,0.0,1.0,0.819091874681,9.36691908862,1.16550340047,-0.0152920417011,-0.052120391913,0.686642193672,0.724963527411,0.0,0.0,0.0,0.0,0.0,0.0,0.42191245929,2.19376596561,2.45362411434,-0.162664988168,0.300171398586,-0.00793609878936
27069000000,ocean_waves,wamv,0.0,0.0,0.0,0.0,0.0,0.0,1.0,0.819514205533,9.36911301039,1.16794379119,-0.0152482873355,-0.0519559029075,0.686645820589,0.724972820838,0.0,0.0,0.0,0.0,0.0,0.0,0.422329223687,2.19392127444,2.44040544978,-0.16254338873,0.299663930754,-0.00797351071209
27070000000,ocean_waves,wamv,0.0,0.0,0.0,0.0,0.0,0.0,1.0,0.81993695248,9.3713070887,1.17037099251,-0.0152046642819,-0.0517916432381,0.686649406845,0.724982093541,0.0,0.0,0.0,0.0,0.0,0.0,0.422745327664,2.19407782744,2.42721601351,-0.162415245473,0.299147682859,-0.00801065580722
27071000000,ocean_waves,wamv,0.0,0.0,0.0,0.0,0.0,0.0,1.0,0.820360114972,9.37350132484,1.17278503391,-0.0151611732363,-0.0516276185176,0.686652952376,0.724991345345,0.0,0.0,0.0,0.0,0.0,0.0,0.423160880754,2.1942356607,2.41405604294,-0.16228041449,0.298622325757,-0.00804753497581
27072000000,ocean_waves,wamv,0.0,0.0,0.0,0.0,0.0,0.0,1.0,0.820783692567,9.37569572013,1.17518594509,-0.0151178149561,-0.0514638345279,0.686656457115,0.725000576075,0.0,0.0,0.0,0.0,0.0,0.0,0.423575992196,2.19439481027,2.4009257759,-0.162138752034,0.298087529499,-0.00808415048443
27073000000,ocean_waves,wamv,0.0,0.0,0.0,0.0,0.0,0.0,1.0,0.821207684935,9.37789027591,1.17757375599,-0.0150745902622,-0.0513002972249,0.686659920988,0.725009785549,0.0,0.0,0.0,0.0,0.0,0.0,0.423990773063,2.19455531317,2.38782545842,-0.161990110485,0.297542954538,-0.00812050622187
27074000000,ocean_waves,wamv,0.0,0.0,0.0,0.0,0.0,0.0,1.0,0.821632091853,9.38008499358,1.17994849682,-0.0150315000374,-0.0511370127356,0.686663343917,0.725018973584,0.0,0.0,0.0,0.0,0.0,0.0,0.424405332386,2.19471720572,2.37475533196,-0.161834345007,0.296988266343,-0.00815660745263
27075000000,ocean_waves,wamv,0.0,0.0,0.0,0.0,0.0,0.0,1.0,0.822056913209,9.38227987457,1.18231019801,-0.0149885452284,-0.0509739873598,0.686666725817,0.725028139992,0.0,0.0,0.0,0.0,0.0,0.0,0.424819779274,2.19488052455,2.36171564107,-0.16167130952,0.296423126696,-0.00819246103313
27076000000,ocean_waves,wamv,0.0,0.0,0.0,0.0,0.0,0.0,1.0,0.822482149,9.38447492033,1.18465889024,-0.0149457268464,-0.0508112275734,0.686670066597,0.725037284587,0.0,0.0,0.0,0.0,0.0,0.0,0.425234223561,2.19504530701,2.34870663604,-0.161500855282,0.29584719073,-0.00822807548216
27077000000,ocean_waves,wamv,0.0,0.0,0.0,0.0,0.0,0.0,1.0,0.822907799332,9.38667013237,1.18699460445,-0.0149030459671,-0.0506487400273,0.68667336616,0.725046407177,0.0,0.0,0.0,0.0,0.0,0.0,0.425648773418,2.19521159009,2.33572856515,-0.161322834898,0.29526011584,-0.00826346078102
27078000000,ocean_waves,wamv,0.0,0.0,0.0,0.0,0.0,0.0,1.0,0.823333864419,9.38886551223,1.18931737182,-0.0148605037313,-0.0504865315492,0.6866766244,0.725055507574,0.0,0.0,0.0,0.0,0.0,0.0,0.426063536781,2.19537941121,2.32278167986,-0.161137099532,0.294661555795,-0.00829862844283
27080000000,ocean_waves,wamv,0.0,0.0,0.0,0.0,0.0,0.0,1.0,0.823760344582,9.39106106147,1.19162722381,-0.014818101346,-0.0503246091452,0.686679841205,0.725064585585,0.0,0.0,0.0,0.0,0.0,0.0,0.42647862132,2.19554880819,2.30986623492,-0.160943498756,0.294051160645,-0.00833359142416
27081000000,ocean_waves,wamv,0.0,0.0,0.0,0.0,0.0,0.0,1.0,0.824187240247,9.39325678173,1.1939241921,-0.0147758400842,-0.0501629800005,0.686683016452,0.725073641021,0.0,0.0,0.0,0.0,0.0,0.0,0.426894133626,2.195719819,2.29698248571,-0.160741881835,0.293428579758,-0.00836836393137
27082000000,ocean_waves,wamv,0.0,0.0,0.0,0.0,0.0,0.0,1.0,0.82461455195,9.39545267464,1.19620830865,-0.0147337212855,-0.0500016514811,0.686686150011,0.725082673693,0.0,0.0,0.0,0.0,0.0,0.0,0.427310179997,2.19589248208,2.28413069093,-0.160532096209,0.292793458784,-0.00840296130254
27082000000,ocean_waves,wamv,0.0,0.0,0.0,0.0,0.0,0.0,1.0,0.825042280329,9.3976487419,1.19847960567,-0.0146917463566,-0.0498406311346,0.686689241744,0.72509168341,0.0,0.0,0.0,0.0,0.0,0.0,0.427726865756,2.19606683609,2.27131111007,-0.160313988677,0.292145442496,-0.00843739972471
27083000000,ocean_waves,wamv,0.0,0.0,0.0,0.0,0.0,0.0,1.0,0.825470426129,9.39984498524,1.20073811565,-0.0146499167714,-0.049679926692,0.686692291501,0.725100669987,0.0,0.0,0.0,0.0,0.0,0.0,0.428144296128,2.19624292027,2.25852400611,-0.160087403875,0.291484171718,-0.00847169602219
27084000000,ocean_waves,wamv,0.0,0.0,0.0,0.0,0.0,0.0,1.0,0.825898990199,9.40204140642,1.20298387133,-0.0146082340714,-0.0495195460688,0.686695299125,0.725109633237,0.0,0.0,0.0,0.0,0.0,0.0,0.428562575622,2.19642077413,2.24576964281,-0.15985218552,0.290809286283,-0.00850586728355
27085000000,ocean_waves,wamv,0.0,0.0,0.0,0.0,0.0,0.0,1.0,0.826327973493,9.40423800727,1.20521690571,-0.0145666998661,-0.0493594973672,0.68669826445,0.725118572977,0.0,0.0,0.0,0.0,0.0,0.0,0.42898180906,2.19660043788,2.23304828759,-0.159608174812,0.29012042172,-0.00853993057857
27086000000,ocean_waves,wamv,0.0,0.0,0.0,0.0,0.0,0.0,1.0,0.826757377069,9.40643478962,1.20743725207,-0.0145253158327,-0.0491997888771,0.6867011873,0.725127489022,0.0,0.0,0.0,0.0,0.0,0.0,0.429402101014,2.19678195202,2.22036020872,-0.15935521176,0.289417212298,-0.00857390252778
27086000000,ocean_waves,wamv,0.0,0.0,0.0,0.0,0.0,0.0,1.0,0.827187202092,9.40863175538,1.20964494397,-0.0144840837172,-0.0490404290785,0.686704067489,0.725136381192,0.0,0.0,0.0,0.0,0.0,0.0,0.429823556977,2.19696535783,2.20770567836,-0.15909313351,0.288699287461,-0.00860779899333
27088000000,ocean_waves,wamv,0.0,0.0,0.0,0.0,0.0,0.0,1.0,0.82761744983,9.41082890646,1.21184001522,-0.0144430053343,-0.0488814266431,0.686706904825,0.725145249306,0.0,0.0,0.0,0.0,0.0,0.0,0.430246282777,2.19715069694,2.19508496949,-0.158821775868,0.287966275168,-0.00864163464471
27089000000,ocean_waves,wamv,0.0,0.0,0.0,0.0,0.0,0.0,1.0,0.828048121662,9.41302624486,1.21402249992,-0.0144020825675,-0.0487227904367,0.686709699108,0.725154093184,0.0,0.0,0.0,0.0,0.0,0.0,0.430670385829,2.19733801175,2.18249835911,-0.158540971584,0.28721779811,-0.00867542268978
27090000000,ocean_waves,wamv,0.0,0.0,0.0,0.0,0.0,0.0,1.0,0.828479219072,9.41522377259,1.21619243246,-0.01436131737,-0.0485645295208,0.686712450129,0.725162912644,0.0,0.0,0.0,0.0,0.0,0.0,0.431095974568,2.19752734504,2.1699461252,-0.158250551906,0.286453476995,-0.00870917451402
27091000000,ocean_waves,wamv,0.0,0.0,0.0,0.0,0.0,0.0,1.0,0.828910743657,9.4174214917,1.21834984749,-0.0143207117642,-0.0484066531539,0.686715157674,0.725171707505,0.0,0.0,0.0,0.0,0.0,0.0,0.431523158711,2.19771873995,2.15742854665,-0.157950346633,0.28567293051,-0.00874289944505
27092000000,ocean_waves,wamv,0.0,0.0,0.0,0.0,0.0,0.0,1.0,0.829342697124,9.41961940431,1.22049477995,-0.0142802678434,-0.0482491707959,0.686717821524,0.725180477584,0.0,0.0,0.0,0.0,0.0,0.0,0.431952051266,2.19791224071,2.14494590919,-0.15764018104,0.284875768403,-0.00877660471977
27093000000,ocean_waves,wamv,0.0,0.0,0.0,0.0,0.0,0.0,1.0,0.829775081295,9.42181751257,1.22262726507,-0.0142399877712,-0.0480920921081,0.686720441454,0.725189222696,0.0,0.0,0.0,0.0,0.0,0.0,0.432382766131,2.1981078915,2.13249849654,-0.157319880561,0.2840616015,-0.00881029521097
27094000000,ocean_waves,wamv,0.0,0.0,0.0,0.0,0.0,0.0,1.0,0.83020789811,9.42401581866,1.22474733836,-0.0141998737828,-0.0479354269562,0.686723017236,0.725197942651,0.0,0.0,0.0,0.0,0.0,0.0,0.432815419966,2.19830573716,2.12008659628,-0.156989267806,0.283230034937,-0.00884397355506
27095000000,ocean_waves,wamv,0.0,0.0,0.0,0.0,0.0,0.0,1.0,0.830641149626,9.42621432484,1.22685503562,-0.0141599281846,-0.0477791854112,0.686725548638,0.725206637258,0.0,0.0,0.0,0.0,0.0,0.0,0.433250131377,2.19850582276,2.10771049673,-0.156648164259,0.282380671641,-0.00887764016682
27096000000,ocean_waves,wamv,0.0,0.0,0.0,0.0,0.0,0.0,1.0,0.831074838022,9.42841303338,1.22895039296,-0.0141201533558,-0.0476233777526,0.686728035426,0.725215306319,0.0,0.0,0.0,0.0,0.0,0.0,0.433687021782,2.19870819395,2.09537048981,-0.156296388894,0.281513109076,-0.00891129345274
27097000000,ocean_waves,wamv,0.0,0.0,0.0,0.0,0.0,0.0,1.0,0.831508965599,9.43061194661,1.23103344675,-0.0140805517484,-0.0474680144693,0.686730477366,0.725223949633,0.0,0.0,0.0,0.0,0.0,0.0,0.434126214485,2.19891289652,2.08306686797,-0.155933759863,0.280626942725,-0.00894492995999
27098000000,ocean_waves,wamv,0.0,0.0,0.0,0.0,0.0,0.0,1.0,0.831943534786,9.43281106692,1.23310423367,-0.0140411258874,-0.0473131062605,0.68673287422,0.725232566992,0.0,0.0,0.0,0.0,0.0,0.0,0.434567834625,2.19911997637,2.07079992431,-0.155560094566,0.279721766049,-0.00897854463898
27099000000,ocean_waves,wamv,0.0,0.0,0.0,0.0,0.0,0.0,1.0,0.832378548138,9.43501039673,1.23516279071,-0.0140018783722,-0.0471586640384,0.686735225752,0.725241158181,0.0,0.0,0.0,0.0,0.0,0.0,0.435012009794,2.19932947986,2.05856995503,-0.15517520843,0.278797167682,-0.00901213118848
27099000000,ocean_waves,wamv,0.0,0.0,0.0,0.0,0.0,0.0,1.0,0.832814008339,9.43720993851,1.23720915513,-0.0139628118774,-0.0470046989305,0.686737531724,0.725249722981,0.0,0.0,0.0,0.0,0.0,0.0,0.43545886999,2.19954145376,2.04637725976,-0.154778914847,0.277852731138,-0.00904568237069
27101000000,ocean_waves,wamv,0.0,0.0,0.0,0.0,0.0,0.0,1.0,0.833249918204,9.43940969477,1.23924336451,-0.0139239291521,-0.0468512222784,0.6867397919,0.725258261166,0.0,0.0,0.0,0.0,0.0,0.0,0.435908545516,2.19975594442,2.03422213505,-0.154371028676,0.276888042381,-0.00907919018796
27102000000,ocean_waves,wamv,0.0,0.0,0.0,0.0,0.0,0.0,1.0,0.833686280682,9.44160966808,1.24126545672,-0.0138852330221,-0.0466982456416,0.686742006042,0.725266772502,0.0,0.0,0.0,0.0,0.0,0.0,0.436361169571,2.19997299895,2.02210488367,-0.153951361428,0.275902679197,-0.00911264638266
27103000000,ocean_waves,wamv,0.0,0.0,0.0,0.0,0.0,0.0,1.0,0.834123098853,9.44380986105,1.24327546994,-0.0138467263885,-0.0465457807946,0.686744173914,0.72527525675,0.0,0.0,0.0,0.0,0.0,0.0,0.436816874294,2.20019266356,2.01002580188,-0.153519728019,0.274896225897,-0.00914604246175
