%time,field.name0,field.name1,field.pose0.position.x,field.pose0.position.y,field.pose0.position.z,field.pose0.orientation.x,field.pose0.orientation.y,field.pose0.orientation.z,field.pose0.orientation.w,field.pose1.position.x,field.pose1.position.y,field.pose1.position.z,field.pose1.orientation.x,field.pose1.orientation.y,field.pose1.orientation.z,field.pose1.orientation.w,field.twist0.linear.x,field.twist0.linear.y,field.twist0.linear.z,field.twist0.angular.x,field.twist0.angular.y,field.twist0.angular.z,field.twist1.linear.x,field.twist1.linear.y,field.twist1.linear.z,field.twist1.angular.x,field.twist1.angular.y,field.twist1.angular.z
18941000000,ocean_waves,wamv,0.0,0.0,0.0,0.0,0.0,0.0,1.0,0.975469208957,9.61425241678,0.308350582833,-0.0995683582418,0.116398019702,0.670218085865,0.72618548624,0.0,0.0,0.0,0.0,0.0,0.0,0.542475245796,2.07258939554,2.02487288117,-0.558572841704,0.093972883179,-0.0245896012187
18942000000,ocean_waves,wamv,0.0,0.0,0.0,0.0,0.0,0.0,1.0,0.976012812276,9.61632652368,0.310375449915,-0.099737551868,0.11661700298,0.670181697497,0.726160717543,0.0,0.0,0.0,0.0,0.0,0.0,0.543603570505,2.0741186353,2.02490538512,-0.552668464132,0.0897714970742,-0.0238685582762
18943000000,ocean_waves,wamv,0.0,0.0,0.0,0.0,0.0,0.0,1.0,0.976557531526,9.61840216482,0.312400339758,-0.0999060222425,0.11683244663,0.670145654828,0.726136190704,0.0,0.0,0.0,0.0,0.0,0.0,0.544719462635,2.07565261315,2.02492725112,-0.546744809245,0.0856127885759,-0.0231532894153
18944000000,ocean_waves,wamv,0.0,0.0,0.0,0.0,0.0,0.0,1.0,0.977103354383,9.62047934488,0.314425241808,-0.100073748131,0.117044360198,0.670109960482,0.726111908417,0.0,0.0,0.0,0.0,0.0,0.0,0.545823033423,2.07719128468,2.02493857561,-0.540802019297,0.0814964322883,-0.0224438064597
18945000000,ocean_waves,wamv,0.0,0.0,0.0,0.0,0.0,0.0,1.0,0.977650268635,9.6225580685,0.316450145608,-0.100240708462,0.117252753159,0.670074617041,0.72608787336,0.0,0.0,0.0,0.0,0.0,0.0,0.546914391776,2.07873460366,2.02493945523,-0.534840242787,0.0774220977964,-0.0217401249851
18946000000,ocean_waves,wamv,0.0,0.0,0.0,0.0,0.0,0.0,1.0,0.978198262174,9.62463834029,0.318475040799,-0.100406882327,0.117457634916,0.670039627042,0.726064088201,0.0,0.0,0.0,0.0,0.0,0.0,0.547993644105,2.08028252203,2.02492998633,-0.528859634604,0.0733894492961,-0.0210422641674
18947000000,ocean_waves,wamv,0.0,0.0,0.0,0.0,0.0,0.0,1.0,0.978747322996,9.6267201648,0.320499917112,-0.100572248984,0.117659014802,0.670004992972,0.726040555591,0.0,0.0,0.0,0.0,0.0,0.0,0.549060892057,2.08183499103,2.02491026081,-0.522860352633,0.06939815256,-0.020350248037
18948000000,ocean_waves,wamv,0.0,0.0,0.0,0.0,0.0,0.0,1.0,0.979297439194,9.62880354651,0.322524764372,-0.100736787866,0.11785690208,0.669970717268,0.726017278174,0.0,0.0,0.0,0.0,0.0,0.0,0.550116235753,2.08339195958,2.02488037301,-0.516842562702,0.0654478636056,-0.0196641028998
18949000000,ocean_waves,wamv,0.0,0.0,0.0,0.0,0.0,0.0,1.0,0.97984859896,9.63088848989,0.3245495725,-0.100900478572,0.118051305943,0.669936802316,0.725994258581,0.0,0.0,0.0,0.0,0.0,0.0,0.551159770635,2.08495337607,2.02484041539,-0.510806433174,0.0615382391552,-0.018983859092
18950000000,ocean_waves,wamv,0.0,0.0,0.0,0.0,0.0,0.0,1.0,0.980400790574,9.63297499931,0.326574331503,-0.101063300879,0.118242235518,0.669903250448,0.725971499437,0.0,0.0,0.0,0.0,0.0,0.0,0.552191588111,2.08651918806,2.02479047679,-0.504752135746,0.0576689346556,-0.0183095500667
18951000000,ocean_waves,wamv,0.0,0.0,0.0,0.0,0.0,0.0,1.0,0.980954002408,9.63506307912,0.32859903148,-0.101225234742,0.118429699861,0.669870063942,0.725949003358,0.0,0.0,0.0,0.0,0.0,0.0,0.553211777874,2.08808934152,2.02473064946,-0.498679847881,0.0538395971524,-0.0176412102951
18951000000,ocean_waves,wamv,0.0,0.0,0.0,0.0,0.0,0.0,1.0,0.981508222919,9.63715273361,0.33062366262,-0.101386260292,0.118613707959,0.669837245019,0.725926772955,0.0,0.0,0.0,0.0,0.0,0.0,0.554220425275,2.0896637824,2.02466102183,-0.492589747815,0.0500498751478,-0.0169788765071
18958000000,ocean_waves,wamv,0.0,0.0,0.0,0.0,0.0,0.0,1.0,0.982063440647,9.63924396701,0.332648215199,-0.10154635784,0.11879426873,0.669804795846,0.725904810831,0.0,0.0,0.0,0.0,0.0,0.0,0.55521761348,2.09124245598,2.02458168276,-0.486482016402,0.0462994129177,-0.0163225856142
18958000000,ocean_waves,wamv,0.0,0.0,0.0,0.0,0.0,0.0,1.0,0.982619644212,9.64133678348,0.334672679586,-0.101705507883,0.118971391023,0.669772718531,0.725883119584,0.0,0.0,0.0,0.0,0.0,0.0,0.556203424191,2.09282530702,2.02449272182,-0.48035683659,0.0425878501241,-0.015672373593
18958000000,ocean_waves,wamv,0.0,0.0,0.0,0.0,0.0,0.0,1.0,0.983176822318,9.64343118716,0.336697046233,-0.101863691097,0.119145083616,0.669741015126,0.725861701803,0.0,0.0,0.0,0.0,0.0,0.0,0.557177937375,2.09441228041,2.02439422593,-0.474214391297,0.0389148251917,-0.0150282750458
18958000000,ocean_waves,wamv,0.0,0.0,0.0,0.0,0.0,0.0,1.0,0.983734963744,9.6455271821,0.338721305682,-0.102020888344,0.119315355212,0.669709687629,0.725840560073,0.0,0.0,0.0,0.0,0.0,0.0,0.558141233013,2.09600332088,2.02428628318,-0.468054863873,0.0352799722806,-0.0143903213846
18958000000,ocean_waves,wamv,0.0,0.0,0.0,0.0,0.0,0.0,1.0,0.984294057353,9.64762477231,0.340745448562,-0.102177080672,0.119482214445,0.669678737984,0.72581969697,0.0,0.0,0.0,0.0,0.0,0.0,0.55909339105,2.09759837365,2.02416897942,-0.461878436095,0.031682924592,-0.0137585402981
18958000000,ocean_waves,wamv,0.0,0.0,0.0,0.0,0.0,0.0,1.0,0.984854092089,9.64972396176,0.342769465587,-0.102332249316,0.119645669869,0.669648168078,0.725799115059,0.0,0.0,0.0,0.0,0.0,0.0,0.560034494496,2.09919738342,2.02404240262,-0.455685290869,0.0281233072554,-0.0131329530983
18958000000,ocean_waves,wamv,0.0,0.0,0.0,0.0,0.0,0.0,1.0,0.985415056981,9.65182475433,0.34479334756,-0.102486375698,0.119805729961,0.669617979753,0.725778816897,0.0,0.0,0.0,0.0,0.0,0.0,0.560964628216,2.10080029558,2.02390663887,-0.449475608351,0.0246007446436,-0.0125135751512
18960000000,ocean_waves,wamv,0.0,0.0,0.0,0.0,0.0,0.0,1.0,0.985976941148,9.65392715388,0.346817085368,-0.10263944143,0.119962403119,0.669588174799,0.725758805024,0.0,0.0,0.0,0.0,0.0,0.0,0.561883880921,2.10240705569,2.02376177408,-0.443249567322,0.0211148568058,-0.0119004142007
18961000000,ocean_waves,wamv,0.0,0.0,0.0,0.0,0.0,0.0,1.0,0.986539733801,9.6560311642,0.348840669987,-0.102791428315,0.120115697657,0.669558754962,0.725739081968,0.0,0.0,0.0,0.0,0.0,0.0,0.562792346223,2.10401760934,2.02360789512,-0.437007345278,0.0176652587015,-0.0112934694772
18962000000,ocean_waves,wamv,0.0,0.0,0.0,0.0,0.0,0.0,1.0,0.98710342425,9.65813678902,0.350864092474,-0.102942318346,0.120265621803,0.669529721944,0.725719650237,0.0,0.0,0.0,0.0,0.0,0.0,0.563690122617,2.10563190242,2.0234450863,-0.430749117579,0.0142515625261,-0.0106927316905
18963000000,ocean_waves,wamv,0.0,0.0,0.0,0.0,0.0,0.0,1.0,0.987668001911,9.66024403202,0.352887343975,-0.103092093712,0.120412183698,0.669501077409,0.725700512319,0.0,0.0,0.0,0.0,0.0,0.0,0.564577315034,2.10724988056,2.02327343345,-0.424475058959,0.0108733742247,-0.0100981820894
18964000000,ocean_waves,wamv,0.0,0.0,0.0,0.0,0.0,0.0,1.0,0.988233456309,9.66235289684,0.354910415719,-0.103240736794,0.120555391391,0.669472822983,0.72568167068,0.0,0.0,0.0,0.0,0.0,0.0,0.565454034573,2.10887148924,2.02309302148,-0.41818534304,0.00753029539794,-0.00950979292102
18965000000,ocean_waves,wamv,0.0,0.0,0.0,0.0,0.0,0.0,1.0,0.988799777088,9.66446338705,0.35693329902,-0.103388230172,0.12069525284,0.669444960258,0.725663127759,0.0,0.0,0.0,0.0,0.0,0.0,0.566320397791,2.11049667413,2.02290393316,-0.411880141429,0.00422192600308,-0.00892752833314
18967000000,ocean_waves,wamv,0.0,0.0,0.0,0.0,0.0,0.0,1.0,0.989366954014,9.66657550615,0.358955985274,-0.103534556623,0.120831775906,0.669417490796,0.725644885969,0.0,0.0,0.0,0.0,0.0,0.0,0.567176528889,2.11212537975,2.02270625377,-0.405559627676,0.000947856741975,-0.00835134336003
18967000000,ocean_waves,wamv,0.0,0.0,0.0,0.0,0.0,0.0,1.0,0.989934976984,9.66868925763,0.360978465962,-0.103679699128,0.120964968356,0.669390416127,0.725626947692,0.0,0.0,0.0,0.0,0.0,0.0,0.568022557222,2.11375755043,2.02250006568,-0.399223974521,-0.00229232356768,-0.00778118624691
18967000000,ocean_waves,wamv,0.0,0.0,0.0,0.0,0.0,0.0,1.0,0.990503836028,9.67080464488,0.363000732647,-0.103823640867,0.121094837853,0.669363737756,0.725609315279,0.0,0.0,0.0,0.0,0.0,0.0,0.568858617388,2.11539312994,2.02228545114,-0.392873355033,-0.00549902971344,-0.00721699902972
18967000000,ocean_waves,wamv,0.0,0.0,0.0,0.0,0.0,0.0,1.0,0.991073521318,9.67292167125,0.365022776971,-0.103966365227,0.121221391966,0.66933745716,0.725591991048,0.0,0.0,0.0,0.0,0.0,0.0,0.569684848876,2.11703206124,2.02206249122,-0.386507943649,-0.00867268073029,-0.00665871842926
18970000000,ocean_waves,wamv,0.0,0.0,0.0,0.0,0.0,0.0,1.0,0.991644023166,9.67504034004,0.367044590658,-0.104107855801,0.121344638159,0.669311575792,0.725574977285,0.0,0.0,0.0,0.0,0.0,0.0,0.570501395336,2.11867428638,2.0218312655,-0.380127916551,-0.0118136995189,-0.00610627700472
18971000000,ocean_waves,wamv,0.0,0.0,0.0,0.0,0.0,0.0,1.0,0.992215332035,9.67716065447,0.36906616551,-0.104248096389,0.121464583796,0.66928609508,0.725558276237,0.0,0.0,0.0,0.0,0.0,0.0,0.571308403801,2.12031974648,2.02159185351,-0.373733451816,-0.0149225124616,-0.00555960430185
18972000000,ocean_waves,wamv,0.0,0.0,0.0,0.0,0.0,0.0,1.0,0.992787438536,9.67928261772,0.37108749341,-0.104387071005,0.121581236137,0.669261016427,0.725541890119,0.0,0.0,0.0,0.0,0.0,0.0,0.572106024579,2.12196838139,2.02134433454,-0.367324730892,-0.0179995512776,-0.00501862747014
18973000000,ocean_waves,wamv,0.0,0.0,0.0,0.0,0.0,0.0,1.0,0.993360333431,9.68140623289,0.373108566315,-0.104524763874,0.121694602341,0.669236341214,0.72552582111,0.0,0.0,0.0,0.0,0.0,0.0,0.572894408515,2.12362013059,2.02108878414,-0.360901935718,-0.0210452460542,-0.00448327366515
18974000000,ocean_waves,wamv,0.0,0.0,0.0,0.0,0.0,0.0,1.0,0.993934007636,9.68353150304,0.375129376258,-0.104661159436,0.121804689462,0.669212070793,0.725510071354,0.0,0.0,0.0,0.0,0.0,0.0,0.57367370944,2.12527493162,2.02082527939,-0.354465253898,-0.0240600354431,-0.00395346871285
18975000000,ocean_waves,wamv,0.0,0.0,0.0,0.0,0.0,0.0,1.0,0.99450845222,9.68565843116,0.377149915351,-0.104796242351,0.121911504455,0.669188206493,0.725494642958,0.0,0.0,0.0,0.0,0.0,0.0,0.57444408096,2.12693272138,2.0205538948,-0.348014874773,-0.0270443578081,-0.00342913968677
18976000000,ocean_waves,wamv,0.0,0.0,0.0,0.0,0.0,0.0,1.0,0.995083658408,9.68778702016,0.379170175773,-0.104929997495,0.122015054168,0.669164749616,0.725479537998,0.0,0.0,0.0,0.0,0.0,0.0,0.575205676902,2.12859343562,2.02027470395,-0.341550991152,-0.0299986543729,-0.00291021482294
18977000000,ocean_waves,wamv,0.0,0.0,0.0,0.0,0.0,0.0,1.0,0.995659617577,9.6899172729,0.381190149782,-0.105062409965,0.122115345348,0.669141701435,0.725464758513,0.0,0.0,0.0,0.0,0.0,0.0,0.575958650654,2.13025700904,2.01998777901,-0.335073799166,-0.0329233684612,-0.00239662414283
18978000000,ocean_waves,wamv,0.0,0.0,0.0,0.0,0.0,0.0,1.0,0.996236321255,9.69204919218,0.383209829703,-0.105193465083,0.122212384643,0.669119063193,0.72545030651,0.0,0.0,0.0,0.0,0.0,0.0,0.576703154787,2.13192337526,2.01969319167,-0.328583498321,-0.0358189455143,-0.00188829980191
18979000000,ocean_waves,wamv,0.0,0.0,0.0,0.0,0.0,0.0,1.0,0.996813761124,9.6941827807,0.38522920793,-0.105323148391,0.122306178597,0.669096836105,0.725436183964,0.0,0.0,0.0,0.0,0.0,0.0,0.577439340244,2.13359246705,2.01939101032,-0.322080291052,-0.0386858314552,-0.00138517668275
18980000000,ocean_waves,wamv,0.0,0.0,0.0,0.0,0.0,0.0,1.0,0.997391929014,9.69631804113,0.38724827693,-0.105451445661,0.122396733655,0.66907502135,0.725422392819,0.0,0.0,0.0,0.0,0.0,0.0,0.57816735764,2.13526421561,2.01908130572,-0.315564384912,-0.0415244779098,-0.000887191447032
18981000000,ocean_waves,wamv,0.0,0.0,0.0,0.0,0.0,0.0,1.0,0.997970816904,9.69845497606,0.389267029234,-0.105578342891,0.12248405616,0.669053620077,0.725408934988,0.0,0.0,0.0,0.0,0.0,0.0,0.578887354612,2.13693855173,2.01876414419,-0.309035989086,-0.0443353341532,-0.00039428432341
18982000000,ocean_waves,wamv,0.0,0.0,0.0,0.0,0.0,0.0,1.0,0.998550416919,9.70059358798,0.391285457439,-0.105703826306,0.122568152358,0.669032633397,0.725395812355,0.0,0.0,0.0,0.0,0.0,0.0,0.579599476834,2.13861540528,2.01843959155,-0.302495316037,-0.0471188510829,9.36017280616e-05
18985000000,ocean_waves,wamv,0.0,0.0,0.0,0.0,0.0,0.0,1.0,0.999130721328,9.70273387936,0.393303554211,-0.105827882364,0.122649028396,0.669012062385,0.725383026773,0.0,0.0,0.0,0.0,0.0,0.0,0.580303868492,2.14029470491,2.01810771383,-0.295942582441,-0.0498754832849,0.000576521518465
18985000000,ocean_waves,wamv,0.0,0.0,0.0,0.0,0.0,0.0,1.0,0.999711722539,9.70487585255,0.395321312275,-0.105950497753,0.122726690323,0.668991908079,0.725370580071,0.0,0.0,0.0,0.0,0.0,0.0,0.581000670805,2.14197637879,2.01776857481,-0.289378006926,-0.0526056844355,0.00105452677002
18985000000,ocean_waves,wamv,0.0,0.0,0.0,0.0,0.0,0.0,1.0,1.0002934131,9.70701950986,0.397338724422,-0.106071659393,0.122801144091,0.668972171476,0.725358474048,0.0,0.0,0.0,0.0,0.0,0.0,0.581690022895,2.14366035419,2.01742223669,-0.282801811476,-0.055309910397,0.00152766696237
18986000000,ocean_waves,wamv,0.0,0.0,0.0,0.0,0.0,0.0,1.0,1.0008757857,9.70916485352,0.399355783503,-0.106191354439,0.122872395554,0.668952853534,0.725346710479,0.0,0.0,0.0,0.0,0.0,0.0,0.582372061174,2.14534655794,2.017068762,-0.27621421993,-0.0579886171893,0.00199598913766
18988000000,ocean_waves,wamv,0.0,0.0,0.0,0.0,0.0,0.0,1.0,1.00145883316,9.71131188567,0.401372482433,-0.106309570279,0.122940450472,0.668933955166,0.725335291111,0.0,0.0,0.0,0.0,0.0,0.0,0.583046919866,2.14703491617,2.01670821149,-0.269615458822,-0.060642262586,0.00245953855757
18988000000,ocean_waves,wamv,0.0,0.0,0.0,0.0,0.0,0.0,1.0,1.00204254843,9.71346060838,0.40338881418,-0.106426294536,0.123005314508,0.668915477245,0.725324217668,0.0,0.0,0.0,0.0,0.0,0.0,0.583714729608,2.14872535522,2.01634064293,-0.263005754548,-0.0632713010884,0.00291835799874
18989000000,ocean_waves,wamv,0.0,0.0,0.0,0.0,0.0,0.0,1.0,1.00262692458,9.71561102368,0.405404771777,-0.10654151507,0.12306699323,0.668897420601,0.725313491849,0.0,0.0,0.0,0.0,0.0,0.0,0.58437562089,2.15041780011,2.01596611761,-0.256385338055,-0.0658761947841,0.00337249052626
18990000000,ocean_waves,wamv,0.0,0.0,0.0,0.0,0.0,0.0,1.0,1.00321195483,9.71776313347,0.407420348313,-0.106655219977,0.12312549211,0.668879786016,0.725303115327,0.0,0.0,0.0,0.0,0.0,0.0,0.585029720489,2.1521121765,2.01558469169,-0.249754438715,-0.0684574006536,0.00382197728814
18991000000,ocean_waves,wamv,0.0,0.0,0.0,0.0,0.0,0.0,1.0,1.00379763251,9.71991693962,0.40943553693,-0.106767397587,0.123180816525,0.668862574233,0.725293089753,0.0,0.0,0.0,0.0,0.0,0.0,0.585677153674,2.15380840992,2.01519642086,-0.243113286706,-0.0710153768268,0.00426685943397
18992000000,ocean_waves,wamv,0.0,0.0,0.0,0.0,0.0,0.0,1.0,1.00438395107,9.7220724439,0.41145033083,-0.10687803647,0.123232971757,0.668845785946,0.725283416751,0.0,0.0,0.0,0.0,0.0,0.0,0.586318045135,2.1555064256,2.01480136251,-0.23646211329,-0.0735505843207,0.00470717912276
18993000000,ocean_waves,wamv,0.0,0.0,0.0,0.0,0.0,0.0,1.0,1.0049709041,9.72422964802,0.413464723271,-0.106987125431,0.123281962991,0.668829421807,0.725274097923,0.0,0.0,0.0,0.0,0.0,0.0,0.586952519061,2.15720614875,2.01439957301,-0.229801150019,-0.0760634857556,0.00514297993157
18994000000,ocean_waves,wamv,0.0,0.0,0.0,0.0,0.0,0.0,1.0,1.0055584853,9.72638855361,0.415478707562,-0.107094653513,0.123327795315,0.668813482423,0.725265134844,0.0,0.0,0.0,0.0,0.0,0.0,0.587580698426,2.15890750524,2.01399110541,-0.223130626408,-0.0785545412154,0.00557430666637
18995000000,ocean_waves,wamv,0.0,0.0,0.0,0.0,0.0,0.0,1.0,1.00614668851,9.72854916222,0.417492277069,-0.107200609997,0.123370473721,0.668797968359,0.725256529063,0.0,0.0,0.0,0.0,0.0,0.0,0.588202707121,2.16061042097,2.01357601494,-0.216450771723,-0.0810242134637,0.00600120717978
18996000000,ocean_waves,wamv,0.0,0.0,0.0,0.0,0.0,0.0,1.0,1.00673550767,9.73071147533,0.41950542521,-0.107304984399,0.123410003101,0.668782880139,0.725248282102,0.0,0.0,0.0,0.0,0.0,0.0,0.588818669221,2.16231482249,2.01315435307,-0.209761813016,-0.0834729635504,0.00642373209896
18997000000,ocean_waves,wamv,0.0,0.0,0.0,0.0,0.0,0.0,1.0,1.00732493686,9.73287549436,0.421518145456,-0.107407766473,0.123446388249,0.668768218243,0.725240395454,0.0,0.0,0.0,0.0,0.0,0.0,0.589428711806,2.16402063594,2.01272617392,-0.203063978154,-0.0859012583026,0.0068419370396
18998000000,ocean_waves,wamv,0.0,0.0,0.0,0.0,0.0,0.0,1.0,1.00791497029,9.73504122064,0.42353043133,-0.107508946213,0.123479633858,0.668753983114,0.725232870584,0.0,0.0,0.0,0.0,0.0,0.0,0.59003296366,2.165727788,2.01229153034,-0.196357492851,-0.0883095641931,0.00725588178921
18999000000,ocean_waves,wamv,0.0,0.0,0.0,0.0,0.0,0.0,1.0,1.00850560231,9.73720865543,0.425542276406,-0.107608513849,0.123509744517,0.668740175159,0.725225708924,0.0,0.0,0.0,0.0,0.0,0.0,0.590631555171,2.16743620611,2.01185047236,-0.189642579795,-0.0906983454826,0.00766563028055
19000000000,ocean_waves,wamv,0.0,0.0,0.0,0.0,0.0,0.0,1.0,1.00909682737,9.73937779992,0.427553674311,-0.107706459847,0.123536724716,0.668726794746,0.725218911876,0.0,0.0,0.0,0.0,0.0,0.0,0.591224620684,2.16914581744,2.01140305121,-0.182919461723,-0.0930680707768,0.0080712522277
19001000000,ocean_waves,wamv,0.0,0.0,0.0,0.0,0.0,0.0,1.0,1.00968864011,9.74154865523,0.42956461872,-0.107802774915,0.123560578836,0.668713842211,0.725212480804,0.0,0.0,0.0,0.0,0.0,0.0,0.591812298031,2.17085654923,2.01094931822,-0.176188360388,-0.0954192106182,0.00847282265666
19002000000,ocean_waves,wamv,0.0,0.0,0.0,0.0,0.0,0.0,1.0,1.01028103526,9.7437212224,0.43157510336,-0.107897449996,0.123581311157,0.668701317855,0.72520641704,0.0,0.0,0.0,0.0,0.0,0.0,0.592394728265,2.17256832884,2.01048932287,-0.169449496294,-0.0977522361725,0.00887042149827
19003000000,ocean_waves,wamv,0.0,0.0,0.0,0.0,0.0,0.0,1.0,1.01087400773,9.7458955024,0.433585122003,-0.107990476276,0.123598925849,0.668689221952,0.725200721875,0.0,0.0,0.0,0.0,0.0,0.0,0.592972055482,2.1742810838,2.01002311316,-0.162703088629,-0.100067618651,0.00926413316574
19004000000,ocean_waves,wamv,0.0,0.0,0.0,0.0,0.0,0.0,1.0,1.01146755255,9.74807149614,0.435594668475,-0.108081845177,0.123613426976,0.668677554742,0.725195396564,0.0,0.0,0.0,0.0,0.0,0.0,0.593544427717,2.17599474119,2.0095507389,-0.155949357036,-0.102365832731,0.00965404684327
19005000000,ocean_waves,wamv,0.0,0.0,0.0,0.0,0.0,0.0,1.0,1.01206166492,9.75024920443,0.437603736646,-0.108171548363,0.123624818495,0.66866631644,0.725190442322,0.0,0.0,0.0,0.0,0.0,0.0,0.59411199532,2.17770922821,2.00907224663,-0.14918852013,-0.104647351983,0.010040254927
19006000000,ocean_waves,wamv,0.0,0.0,0.0,0.0,0.0,0.0,1.0,1.0126563402,9.75242862804,0.439612320431,-0.108259577739,0.123633104254,0.668655507231,0.725185860321,0.0,0.0,0.0,0.0,0.0,0.0,0.594674911501,2.17942447164,2.00858768263,-0.142420797115,-0.106912651855,0.0104228530004
19008000000,ocean_waves,wamv,0.0,0.0,0.0,0.0,0.0,0.0,1.0,1.01325157388,9.75460976763,0.441620413796,-0.108345925452,0.12363828799,0.668645127273,0.725181651695,0.0,0.0,0.0,0.0,0.0,0.0,0.5952333325,2.18114039748,2.00809709444,-0.135646409024,-0.109162211614,0.0108019395338
19008000000,ocean_waves,wamv,0.0,0.0,0.0,0.0,0.0,0.0,1.0,1.01384736163,9.75679262382,0.443628010746,-0.108430583888,0.123640373333,0.668635176699,0.725177817531,0.0,0.0,0.0,0.0,0.0,0.0,0.595787414821,2.182856932,2.00760052507,-0.128865575654,-0.1113965067,0.0111776134906
19009000000,ocean_waves,wamv,0.0,0.0,0.0,0.0,0.0,0.0,1.0,1.01444369926,9.75897719714,0.445635105335,-0.108513545682,0.123639363805,0.668625655614,0.725174358879,0.0,0.0,0.0,0.0,0.0,0.0,0.596337317554,2.1845740003,2.00709802016,-0.122078520052,-0.113616018076,0.0115499756313
19009000000,ocean_waves,wamv,0.0,0.0,0.0,0.0,0.0,0.0,1.0,1.01504058276,9.76116348803,0.447641691658,-0.108594803705,0.123635262816,0.668616564096,0.725171276743,0.0,0.0,0.0,0.0,0.0,0.0,0.596883198731,2.18629152788,2.00658962164,-0.115285463891,-0.115821221681,0.0119191255548
19011000000,ocean_waves,wamv,0.0,0.0,0.0,0.0,0.0,0.0,1.0,1.01563800826,9.76335149688,0.449647763851,-0.108674351078,0.12362807367,0.668607902196,0.725168572085,0.0,0.0,0.0,0.0,0.0,0.0,0.597425218268,2.18800943881,2.0060753731,-0.108486633134,-0.118012599761,0.0122851635604
19012000000,ocean_waves,wamv,0.0,0.0,0.0,0.0,0.0,0.0,1.0,1.01623597205,9.765541224,0.451653316094,-0.108752181164,0.123617799563,0.668599669935,0.725166245826,0.0,0.0,0.0,0.0,0.0,0.0,0.59796353427,2.18972765741,2.00555531405,-0.101682253044,-0.120190629958,0.012648187767
19013000000,ocean_waves,wamv,0.0,0.0,0.0,0.0,0.0,0.0,1.0,1.01683447059,9.7677326696,0.453658342605,-0.108828287572,0.123604443582,0.668591867308,0.725164298845,0.0,0.0,0.0,0.0,0.0,0.0,0.59849830536,2.19144610693,2.00502948678,-0.0948725523245,-0.122355794284,0.0130082956431
19014000000,ocean_waves,wamv,0.0,0.0,0.0,0.0,0.0,0.0,1.0,1.0174335005,9.76992583385,0.455662837644,-0.108902664156,0.123588008709,0.668584494279,0.72516273198,0.0,0.0,0.0,0.0,0.0,0.0,0.59902968765,2.19316471086,2.00449792959,-0.0880577591604,-0.124508570092,0.0133655817339
19015000000,ocean_waves,wamv,0.0,0.0,0.0,0.0,0.0,0.0,1.0,1.01803305853,9.77212071681,0.457666795507,-0.108975305016,0.123568497819,0.668577550779,0.725161546028,0.0,0.0,0.0,0.0,0.0,0.0,0.599557836958,2.19488339169,2.00396068141,-0.0812381051188,-0.126649438309,0.0137201392283
19018000000,ocean_waves,wamv,0.0,0.0,0.0,0.0,0.0,0.0,1.0,1.01863314161,9.77431731848,0.459670210528,-0.109046204498,0.123545913682,0.668571036711,0.725160741745,0.0,0.0,0.0,0.0,0.0,0.0,0.600082907039,2.19660207179,2.00341778039,-0.0744138225312,-0.128778878219,0.0140720586942
19018000000,ocean_waves,wamv,0.0,0.0,0.0,0.0,0.0,0.0,1.0,1.01923374681,9.77651563877,0.46167307708,-0.109115357195,0.123520258961,0.668564951942,0.72516031985,0.0,0.0,0.0,0.0,0.0,0.0,0.600605049753,2.19832067314,2.00286926229,-0.0675851452104,-0.130897368532,0.0144214282663
19018000000,ocean_waves,wamv,0.0,0.0,0.0,0.0,0.0,0.0,1.0,1.01983487136,9.77871567753,0.463675389571,-0.109182757947,0.123491536219,0.668559296306,0.725160281022,0.0,0.0,0.0,0.0,0.0,0.0,0.601124414971,2.20003911761,2.00231516462,-0.0607523078952,-0.133005387371,0.01476833366
19019000000,ocean_waves,wamv,0.0,0.0,0.0,0.0,0.0,0.0,1.0,1.02043651261,9.78091743452,0.465677142443,-0.109248401837,0.123459747913,0.668554069603,0.725160625902,0.0,0.0,0.0,0.0,0.0,0.0,0.601641150718,2.20175732664,2.00175552227,-0.0539155470206,-0.13510341296,0.0151128584187
19019000000,ocean_waves,wamv,0.0,0.0,0.0,0.0,0.0,0.0,1.0,1.0210386681,9.78312090942,0.467678330176,-0.109312284201,0.123424896397,0.668549271594,0.725161355095,0.0,0.0,0.0,0.0,0.0,0.0,0.602155403284,2.20347522134,2.00119037029,-0.0470751004653,-0.137191923999,0.0154550841351
19021000000,ocean_waves,wamv,0.0,0.0,0.0,0.0,0.0,0.0,1.0,1.02164133547,9.78532610183,0.46967894728,-0.109374400617,0.123386983925,0.668544902008,0.725162469165,0.0,0.0,0.0,0.0,0.0,0.0,0.602667316037,2.20519272319,2.0006197417,-0.0402312054948,-0.139271395636,0.0157950897682
19022000000,ocean_waves,wamv,0.0,0.0,0.0,0.0,0.0,0.0,1.0,1.02224451253,9.78753301127,0.471678988301,-0.109434746911,0.123346012648,0.668540960533,0.725163968645,0.0,0.0,0.0,0.0,0.0,0.0,0.603177031279,2.20690975318,2.00004367115,-0.0333841013118,-0.14134230538,0.0161329531673
19023000000,ocean_waves,wamv,0.0,0.0,0.0,0.0,0.0,0.0,1.0,1.02284819722,9.7897416372,0.473678447817,-0.109493319153,0.123301984615,0.66853744682,0.725165854029,0.0,0.0,0.0,0.0,0.0,0.0,0.603684687968,2.20862623306,1.9994621898,-0.0265340252195,-0.143405125192,0.0164687496302
19024000000,ocean_waves,wamv,0.0,0.0,0.0,0.0,0.0,0.0,1.0,1.02345238763,9.79195197897,0.475677320438,-0.109550113661,0.123254901778,0.668534360482,0.725168125775,0.0,0.0,0.0,0.0,0.0,0.0,0.604190425214,2.21034208367,1.99887533123,-0.0196812176333,-0.145460332572,0.0168025546308
19025000000,ocean_waves,wamv,0.0,0.0,0.0,0.0,0.0,0.0,1.0,1.02405708196,9.79416403588,0.477675600805,-0.109605126998,0.123204765984,0.668531701091,0.725170784306,0.0,0.0,0.0,0.0,0.0,0.0,0.604694378997,2.21205722687,1.998283126,-0.0128259163131,-0.147508399048,0.0171344416603
19026000000,ocean_waves,wamv,0.0,0.0,0.0,0.0,0.0,0.0,1.0,1.02466227856,9.79637780714,0.479673283592,-0.109658355972,0.123151578982,0.668529468183,0.725173830009,0.0,0.0,0.0,0.0,0.0,0.0,0.605196685182,2.21377158409,1.99768560618,-0.00596836051963,-0.149549799397,0.0174644846153
19027000000,ocean_waves,wamv,0.0,0.0,0.0,0.0,0.0,0.0,1.0,1.02526797593,9.79859329188,0.481670363501,-0.109709797635,0.123095342421,0.668527661253,0.725177263237,0.0,0.0,0.0,0.0,0.0,0.0,0.605697477619,2.21548507761,1.99708280234,0.00089121274963,-0.151585004442,0.0177927566306
19028000000,ocean_waves,wamv,0.0,0.0,0.0,0.0,0.0,0.0,1.0,1.02587417269,9.80081048915,0.483666835269,-0.109759449283,0.123036057849,0.668526279758,0.725181084306,0.0,0.0,0.0,0.0,0.0,0.0,0.606196890064,2.21719762967,1.99647474505,0.0077525663344,-0.153614486405,0.0181193316705
19029000000,ocean_waves,wamv,0.0,0.0,0.0,0.0,0.0,0.0,1.0,1.02648086758,9.80302939793,0.48566269366,-0.109807308456,0.122973726713,0.668525323115,0.725185293495,0.0,0.0,0.0,0.0,0.0,0.0,0.606695056329,2.21890916275,1.99586146604,0.014615463628,-0.155638718257,0.0184442848183
19030000000,ocean_waves,wamv,0.0,0.0,0.0,0.0,0.0,0.0,1.0,1.02708805949,9.80525001713,0.487657933469,-0.109853372938,0.122908350359,0.668524790705,0.725189891049,0.0,0.0,0.0,0.0,0.0,0.0,0.60719210898,2.22061960038,1.99524299393,0.0214796712743,-0.157658168172,0.0187676915017
19031000000,ocean_waves,wamv,0.0,0.0,0.0,0.0,0.0,0.0,1.0,1.02769574745,9.80747234556,0.48965254952,-0.109897640753,0.122839930033,0.66852468187,0.725194877172,0.0,0.0,0.0,0.0,0.0,0.0,0.607688181384,2.22232886636,1.99461935831,0.0283449568752,-0.159673305061,0.0190896291085
19032000000,ocean_waves,wamv,0.0,0.0,0.0,0.0,0.0,0.0,1.0,1.0283039306,9.80969638197,0.49164653667,-0.109940110167,0.122768466878,0.668524995917,0.725200252035,0.0,0.0,0.0,0.0,0.0,0.0,0.608183409036,2.22403688427,1.99399059039,0.0352110875357,-0.161684601693,0.0194101780478
19033000000,ocean_waves,wamv,0.0,0.0,0.0,0.0,0.0,0.0,1.0,1.02891260824,9.81192212504,0.493639889801,-0.109980779689,0.122693961934,0.668525732116,0.725206015766,0.0,0.0,0.0,0.0,0.0,0.0,0.608677927314,2.22574357881,1.99335671884,0.0420778341035,-0.163692526042,0.0197294201877
19034000000,ocean_waves,wamv,0.0,0.0,0.0,0.0,0.0,0.0,1.0,1.02952177979,9.81414957337,0.495632603828,-0.110019648067,0.12261641614,0.668526889703,0.725212168456,0.0,0.0,0.0,0.0,0.0,0.0,0.609171873479,2.22744887499,1.99271777386,0.0489449687128,-0.16569754681,0.0200474403074
19035000000,ocean_waves,wamv,0.0,0.0,0.0,0.0,0.0,0.0,1.0,1.03013144482,9.81637872547,0.497624673695,-0.11005671429,0.122535830328,0.668528467882,0.725218710154,0.0,0.0,0.0,0.0,0.0,0.0,0.609665386941,2.22915269799,1.99207378459,0.0558122644651,-0.167700133395,0.020364326247
19036000000,ocean_waves,wamv,0.0,0.0,0.0,0.0,0.0,0.0,1.0,1.03074160305,9.8186095798,0.499616094373,-0.110091977585,0.12245220523,0.668530465822,0.725225640869,0.0,0.0,0.0,0.0,0.0,0.0,0.610158608966,2.23085497343,1.99142478021,0.0626794963326,-0.169700754238,0.0206801685885
19037000000,ocean_waves,wamv,0.0,0.0,0.0,0.0,0.0,0.0,1.0,1.03135225431,9.82084213474,0.501606860867,-0.110125437422,0.12236554147,0.668532882664,0.725232960566,0.0,0.0,0.0,0.0,0.0,0.0,0.610651683565,2.23255562692,1.99077079103,0.0695464397209,-0.171699879407,0.0209950611376
19038000000,ocean_waves,wamv,0.0,0.0,0.0,0.0,0.0,0.0,1.0,1.03196339861,9.82307638857,0.503596968206,-0.110157093508,0.122275839568,0.668535717516,0.725240669167,0.0,0.0,0.0,0.0,0.0,0.0,0.611144756619,2.23425458433,1.99011184528,0.0764128714615,-0.17369797761,0.0213091000691
19039000000,ocean_waves,wamv,0.0,0.0,0.0,0.0,0.0,0.0,1.0,1.03257503609,9.82531233952,0.505586411452,-0.110186945791,0.122183099937,0.668538969458,0.72524876655,0.0,0.0,0.0,0.0,0.0,0.0,0.611637976439,2.23595177153,1.98944797323,0.0832785688268,-0.175695518378,0.0216223840596
19040000000,ocean_waves,wamv,0.0,0.0,0.0,0.0,0.0,0.0,1.0,1.03318716706,9.82754998576,0.507575185695,-0.110214994456,0.122087322887,0.668542637543,0.725257252549,0.0,0.0,0.0,0.0,0.0,0.0,0.612131492842,2.23764711453,1.98877920279,0.090143309998,-0.177692969634,0.0219350133176
19041000000,ocean_waves,wamv,0.0,0.0,0.0,0.0,0.0,0.0,1.0,1.03379979196,9.82978932535,0.509563286054,-0.110241239931,0.121988508618,0.668546720793,0.72526612695,0.0,0.0,0.0,0.0,0.0,0.0,0.61262545826,2.23934053878,1.98810556467,0.0970068718345,-0.179690802331,0.0222470900386
19042000000,ocean_waves,wamv,0.0,0.0,0.0,0.0,0.0,0.0,1.0,1.03441291138,9.8320303563,0.511550707676,-0.110265682882,0.121886657228,0.668551218203,0.725275389495,0.0,0.0,0.0,0.0,0.0,0.0,0.613120025374,2.24103197002,1.98742708653,0.103869032387,-0.181689483824,0.0225587163586
19043000000,ocean_waves,wamv,0.0,0.0,0.0,0.0,0.0,0.0,1.0,1.03502652609,9.83427307653,0.513537445737,-0.110288324211,0.121781768708,0.668556128743,0.72528503988,0.0,0.0,0.0,0.0,0.0,0.0,0.613615347573,2.24272133379,1.98674379609,0.110729569344,-0.183689480819,0.0228699943393
19044000000,ocean_waves,wamv,0.0,0.0,0.0,0.0,0.0,0.0,1.0,1.035640637,9.83651748391,0.515523495442,-0.110309165065,0.121673842944,0.66856145135,0.725295077754,0.0,0.0,0.0,0.0,0.0,0.0,0.614111579626,2.24440855483,1.98605572314,0.117588257929,-0.185691263164,0.0231810261348
19045000000,ocean_waves,wamv,0.0,0.0,0.0,0.0,0.0,0.0,1.0,1.03625524516,9.83876357621,0.517508852025,-0.110328206827,0.121562879718,0.668567184937,0.725305502722,0.0,0.0,0.0,0.0,0.0,0.0,0.614608875505,2.24609355784,1.98536289623,0.124444873266,-0.1876952982,0.0234919121403
19046000000,ocean_waves,wamv,0.0,0.0,0.0,0.0,0.0,0.0,1.0,1.0368703518,9.84101135112,0.519493510746,-0.11034545112,0.121448878708,0.668573328385,0.725316314342,0.0,0.0,0.0,0.0,0.0,0.0,0.61510738781,2.24777626751,1.98466534238,0.131299190325,-0.189702050399,0.0238027503438
19047000000,ocean_waves,wamv,0.0,0.0,0.0,0.0,0.0,0.0,1.0,1.03748595828,9.84326080629,0.521477466894,-0.11036089981,0.121331839491,0.668579880545,0.725327512128,0.0,0.0,0.0,0.0,0.0,0.0,0.615607269302,2.24945660752,1.98396309047,0.138150980654,-0.191711987907,0.0241136372567
19048000000,ocean_waves,wamv,0.0,0.0,0.0,0.0,0.0,0.0,1.0,1.03810206612,9.84551193925,0.523460715786,-0.110374554998,0.121211761539,0.668586840237,0.725339095551,0.0,0.0,0.0,0.0,0.0,0.0,0.61610866973,2.251134502,1.98325616762,0.145000016806,-0.193725573268,0.0244246655108
19049000000,ocean_waves,wamv,0.0,0.0,0.0,0.0,0.0,0.0,1.0,1.03871867699,9.84776474749,0.525443252766,-0.110386419027,0.121088644228,0.66859420625,0.725351064039,0.0,0.0,0.0,0.0,0.0,0.0,0.616611737436,2.2528098745,1.98254460162,0.151846069143,-0.195743269861,0.0247359249707
19050000000,ocean_waves,wamv,0.0,0.0,0.0,0.0,0.0,0.0,1.0,1.0393357927,9.8500192284,0.527425073206,-0.110396494479,0.12096248683,0.668601977338,0.725363416975,0.0,0.0,0.0,0.0,0.0,0.0,0.617116618547,2.25448264832,1.98182842044,0.158688906761,-0.197765540055,0.0250475021588
19051000000,ocean_waves,wamv,0.0,0.0,0.0,0.0,0.0,0.0,1.0,1.0399534152,9.8522753793,0.529406172507,-0.110404784174,0.120833288521,0.66861015222,0.725376153706,0.0,0.0,0.0,0.0,0.0,0.0,0.617623456875,2.25615274649,1.98110765167,0.165528297326,-0.199792845507,0.0253594802517
19052000000,ocean_waves,wamv,0.0,0.0,0.0,0.0,0.0,0.0,1.0,1.04057154661,9.85453319743,0.531386546096,-0.110411291171,0.120701048378,0.66861872958,0.725389273533,0.0,0.0,0.0,0.0,0.0,0.0,0.618132392677,2.25782009244,1.98038232232,0.172364009114,-0.201825643478,0.0256719383073
19053000000,ocean_waves,wamv,0.0,0.0,0.0,0.0,0.0,0.0,1.0,1.04119018914,9.85679267997,0.533366189426,-0.110416018768,0.120565765383,0.668627708065,0.725402775722,0.0,0.0,0.0,0.0,0.0,0.0,0.618643564327,2.25948460909,1.97965246066,0.1791958083,-0.203864392568,0.025984952619
19053000000,ocean_waves,wamv,0.0,0.0,0.0,0.0,0.0,0.0,1.0,1.04180934517,9.859053824,0.535345097982,-0.110418970499,0.12042743842,0.668637086283,0.725416659498,0.0,0.0,0.0,0.0,0.0,0.0,0.619157107576,2.26114621934,1.97891809445,0.186023460216,-0.205909550286,0.0262985963773
19055000000,ocean_waves,wamv,0.0,0.0,0.0,0.0,0.0,0.0,1.0,1.0424290172,9.86131662653,0.537323267274,-0.110420150136,0.120286066282,0.668646862803,0.725430924049,0.0,0.0,0.0,0.0,0.0,0.0,0.61967315458,2.26280484664,1.97817925176,0.19284673145,-0.207961569674,0.0266129391805
19056000000,ocean_waves,wamv,0.0,0.0,0.0,0.0,0.0,0.0,1.0,1.04304920788,9.86358108451,0.53930069284,-0.110419561687,0.120141647664,0.668657036155,0.725445568526,0.0,0.0,0.0,0.0,0.0,0.0,0.620191835123,2.26446041451,1.97743596048,0.19966538801,-0.210020903057,0.0269280481443
19057000000,ocean_waves,wamv,0.0,0.0,0.0,0.0,0.0,0.0,1.0,1.04366991995,9.86584719479,0.541277370249,-0.110417209394,0.11999418117,0.668667604829,0.725460592043,0.0,0.0,0.0,0.0,0.0,0.0,0.620713276559,2.26611284662,1.97668824873,0.206479195943,-0.212088001432,0.0272439881026
19058000000,ocean_waves,wamv,0.0,0.0,0.0,0.0,0.0,0.0,1.0,1.0442911563,9.86811495416,0.543253295097,-0.110413097737,0.119843665311,0.668678567271,0.72547599368,0.0,0.0,0.0,0.0,0.0,0.0,0.621237604447,2.26776206675,1.97593614685,0.213287921,-0.214163316017,0.0275608223035
19059000000,ocean_waves,wamv,0.0,0.0,0.0,0.0,0.0,0.0,1.0,1.04491291995,9.87038435932,0.545228463009,-0.110407231427,0.119690098505,0.668689921889,0.725491772477,0.0,0.0,0.0,0.0,0.0,0.0,0.62176494129,2.26940799951,1.97517968291,0.220091331009,-0.216247293371,0.0278786117545
19060000000,ocean_waves,wamv,0.0,0.0,0.0,0.0,0.0,0.0,1.0,1.04553521401,9.87265540692,0.547202869641,-0.110399615407,0.119533479079,0.668701667049,0.725507927444,0.0,0.0,0.0,0.0,0.0,0.0,0.622295408046,2.27105056986,1.97441888755,0.226889194469,-0.218340379621,0.0281974165428
19061000000,ocean_waves,wamv,0.0,0.0,0.0,0.0,0.0,0.0,1.0,1.04615804175,9.8749280935,0.549176510679,-0.110390254854,0.119373805267,0.668713801072,0.725524457551,0.0,0.0,0.0,0.0,0.0,0.0,0.622829123961,2.27268970334,1.97365379034,0.233681281217,-0.220443019004,0.0285172959593
19062000000,ocean_waves,wamv,0.0,0.0,0.0,0.0,0.0,0.0,1.0,1.04678140653,9.87720241556,0.551149381841,-0.110379155173,0.119211075213,0.668726322242,0.725541361736,0.0,0.0,0.0,0.0,0.0,0.0,0.623366207263,2.27432532607,1.97288442408,0.240467362565,-0.222555655112,0.0288383092099
19063000000,ocean_waves,wamv,0.0,0.0,0.0,0.0,0.0,0.0,1.0,1.04740531183,9.87947836951,0.553121478877,-0.110366322001,0.119045286968,0.6687392288,0.7255586389,0.0,0.0,0.0,0.0,0.0,0.0,0.623906775221,2.27595736478,1.97211081981,0.247247211542,-0.22467872995,0.0291605156849
19065000000,ocean_waves,wamv,0.0,0.0,0.0,0.0,0.0,0.0,1.0,1.04802976125,9.88175595169,0.555092797569,-0.1103517612,0.118876438491,0.668752518947,0.725576287908,0.0,0.0,0.0,0.0,0.0,0.0,0.624450943787,2.27758574747,1.97133300995,0.254020604879,-0.226812681453,0.0294839748887
19065000000,ocean_waves,wamv,0.0,0.0,0.0,0.0,0.0,0.0,1.0,1.0486547585,9.88403515837,0.55706333373,-0.110335478861,0.118704527649,0.668766190843,0.725594307589,0.0,0.0,0.0,0.0,0.0,0.0,0.624998829896,2.27921040234,1.97055102791,0.260787319906,-0.228957949753,0.0298087482648
19066000000,ocean_waves,wamv,0.0,0.0,0.0,0.0,0.0,0.0,1.0,1.04928030743,9.88631598574,0.559033083213,-0.1103174813,0.118529552215,0.668780242611,0.725612696737,0.0,0.0,0.0,0.0,0.0,0.0,0.625550550824,2.28083125853,1.96976490948,0.267547136882,-0.23111497358,0.0301348988789
19067000000,ocean_waves,wamv,0.0,0.0,0.0,0.0,0.0,0.0,1.0,1.04990641199,9.88859842993,0.561002041903,-0.110297775056,0.118351509869,0.668794672335,0.725631454104,0.0,0.0,0.0,0.0,0.0,0.0,0.626106223747,2.28244824652,1.96897468879,0.274299840354,-0.23328418725,0.0304624912226
19068000000,ocean_waves,wamv,0.0,0.0,0.0,0.0,0.0,0.0,1.0,1.05053307624,9.89088248701,0.562970205722,-0.110276366894,0.118170398197,0.668809478065,0.725650578409,0.0,0.0,0.0,0.0,0.0,0.0,0.626665968748,2.28406129684,1.96818040376,0.281045215415,-0.235466029152,0.030791593429
19069000000,ocean_waves,wamv,0.0,0.0,0.0,0.0,0.0,0.0,1.0,1.05116030438,9.89316815297,0.56493757063,-0.110253263801,0.11798621469,0.668824657813,0.725670068327,0.0,0.0,0.0,0.0,0.0,0.0,0.627229906895,2.28567034132,1.96738209086,0.28778305141,-0.237660933843,0.0311222759264
19070000000,ocean_waves,wamv,0.0,0.0,0.0,0.0,0.0,0.0,1.0,1.05178810073,9.89545542372,0.566904132625,-0.110228472982,0.11779895674,0.668840209561,0.725689922494,0.0,0.0,0.0,0.0,0.0,0.0,0.627798161546,2.28727531259,1.96657978885,0.294513140807,-0.239869335007,0.0314546123285
19071000000,ocean_waves,wamv,0.0,0.0,0.0,0.0,0.0,0.0,1.0,1.05241646972,9.89774429512,0.568869887746,-0.110202001865,0.117608621646,0.668856131255,0.725710139506,0.0,0.0,0.0,0.0,0.0,0.0,0.628370859046,2.2888761439,1.96577353787,0.301235278405,-0.242091666596,0.0317886798355
19072000000,ocean_waves,wamv,0.0,0.0,0.0,0.0,0.0,0.0,1.0,1.05304541594,9.90003476297,0.570834832072,-0.110173858096,0.117415206607,0.668872420815,0.725730717913,0.0,0.0,0.0,0.0,0.0,0.0,0.62894812901,2.29047276892,1.96496337931,0.307949261152,-0.244328362837,0.0321245592616
19073000000,ocean_waves,wamv,0.0,0.0,0.0,0.0,0.0,0.0,1.0,1.05367494408,9.90232682299,0.572798961725,-0.110144049541,0.117218708723,0.668889076129,0.725751656224,0.0,0.0,0.0,0.0,0.0,0.0,0.629530104068,2.29206512194,1.9641493546,0.314654888499,-0.246579856821,0.0324623346118
19074000000,ocean_waves,wamv,0.0,0.0,0.0,0.0,0.0,0.0,1.0,1.05430505898,9.90462047084,0.574762272868,-0.110112584283,0.117019124995,0.668906095059,0.7257729529,0.0,0.0,0.0,0.0,0.0,0.0,0.630116920325,2.29365313752,1.96333150695,0.321351961528,-0.248846581844,0.0328020930847
19075000000,ocean_waves,wamv,0.0,0.0,0.0,0.0,0.0,0.0,1.0,1.05493576563,9.90691570211,0.576724761711,-0.110079470623,0.116816452326,0.668923475441,0.725794606357,0.0,0.0,0.0,0.0,0.0,0.0,0.630708716644,2.29523675066,1.96250987978,0.3280402834,-0.251128969411,0.0331439241587
19076000000,ocean_waves,wamv,0.0,0.0,0.0,0.0,0.0,0.0,1.0,1.05556706915,9.90921251234,0.578686424506,-0.110044717078,0.116610687517,0.668941215086,0.725816614965,0.0,0.0,0.0,0.0,0.0,0.0,0.631305635625,2.29681589607,1.96168451956,0.334719657096,-0.253427453143,0.0334879198731
19077000000,ocean_waves,wamv,0.0,0.0,0.0,0.0,0.0,0.0,1.0,1.0561989748,9.91151089698,0.580647257553,-0.110008332385,0.116401827269,0.668959311779,0.725838977045,0.0,0.0,0.0,0.0,0.0,0.0,0.631907821629,2.29839050875,1.9608554711,0.34138988706,-0.255742463651,0.0338341728841
19078000000,ocean_waves,wamv,0.0,0.0,0.0,0.0,0.0,0.0,1.0,1.05683148799,9.91381085144,0.582607257199,-0.109970325495,0.116189868185,0.668977763282,0.725861690872,0.0,0.0,0.0,0.0,0.0,0.0,0.632515421763,2.29996052315,1.96002278209,0.348050776502,-0.258074433489,0.034182776653
19079000000,ocean_waves,wamv,0.0,0.0,0.0,0.0,0.0,0.0,1.0,1.0574646143,9.91611237105,0.584566419837,-0.109930705578,0.115974806767,0.668996567332,0.725884754672,0.0,0.0,0.0,0.0,0.0,0.0,0.633128584414,2.30152587336,1.9591864994,0.354702127902,-0.260423794347,0.0345338238911
19080000000,ocean_waves,wamv,0.0,0.0,0.0,0.0,0.0,0.0,1.0,1.05809835943,9.91841545107,0.586524741911,-0.109889482022,0.115756639418,0.66901572164,0.725908166623,0.0,0.0,0.0,0.0,0.0,0.0,0.63374745807,2.3030864934,1.958346673,0.361343743677,-0.262790975641,0.0348874051684
19081000000,ocean_waves,wamv,0.0,0.0,0.0,0.0,0.0,0.0,1.0,1.05873272923,9.92072008671,0.588482219912,-0.10984666443,0.115535362447,0.669035223894,0.725931924857,0.0,0.0,0.0,0.0,0.0,0.0,0.634372190547,2.30464231694,1.95750335015,0.367975425093,-0.265176404397,0.0352436079404
19082000000,ocean_waves,wamv,0.0,0.0,0.0,0.0,0.0,0.0,1.0,1.05936772972,9.9230262731,0.590438850382,-0.109802262622,0.115310972064,0.669055071751,0.725956027462,0.0,0.0,0.0,0.0,0.0,0.0,0.635002929796,2.30619327651,1.95665658208,0.374596969759,-0.267580510602,0.0356025166925
19083000000,ocean_waves,wamv,0.0,0.0,0.0,0.0,0.0,0.0,1.0,1.06000336705,9.9253340053,0.592394629912,-0.109756286636,0.115083464386,0.669075262843,0.725980472479,0.0,0.0,0.0,0.0,0.0,0.0,0.635639819812,2.30773930525,1.95580641895,0.381208176707,-0.270003716024,0.0359642097411
19084000000,ocean_waves,wamv,0.0,0.0,0.0,0.0,0.0,0.0,1.0,1.06063964751,9.92764327832,0.594349555146,-0.109708746724,0.114852835437,0.669095794768,0.726005257906,0.0,0.0,0.0,0.0,0.0,0.0,0.63628300353,2.3092803348,1.95495291074,0.387808839881,-0.272446446182,0.0363287610704
19086000000,ocean_waves,wamv,0.0,0.0,0.0,0.0,0.0,0.0,1.0,1.06127657753,9.92995408708,0.596303622779,-0.109659653356,0.114619081149,0.669116665095,0.726030381702,0.0,0.0,0.0,0.0,0.0,0.0,0.636932620235,2.31081629666,1.95409611062,0.394398751983,-0.274909123648,0.0366962383876
19086000000,ocean_waves,wamv,0.0,0.0,0.0,0.0,0.0,0.0,1.0,1.06191416367,9.93226642645,0.598256829559,-0.109609017218,0.114382197367,0.669137871356,0.726055841783,0.0,0.0,0.0,0.0,0.0,0.0,0.637588804646,2.31234712232,1.95323607232,0.400977704934,-0.277392166587,0.0370667024953
19087000000,ocean_waves,wamv,0.0,0.0,0.0,0.0,0.0,0.0,1.0,1.06255241265,9.93458029121,0.600209172287,-0.10955684921,0.114142179847,0.669159411046,0.72608163603,0.0,0.0,0.0,0.0,0.0,0.0,0.638251687039,2.31387274294,1.95237284646,0.407545488683,-0.279895990343,0.0374402074994
19088000000,ocean_waves,wamv,0.0,0.0,0.0,0.0,0.0,0.0,1.0,1.06319133127,9.9368956761,0.602160647818,-0.109503160447,0.113899024262,0.669181281621,0.726107762286,0.0,0.0,0.0,0.0,0.0,0.0,0.638921393841,2.31539308926,1.95150648938,0.414101890918,-0.282421010154,0.0378168014149
19089000000,ocean_waves,wamv,0.0,0.0,0.0,0.0,0.0,0.0,1.0,1.06383092649,9.93921257575,0.604111253063,-0.109447962256,0.113652726199,0.669203480497,0.726134218362,0.0,0.0,0.0,0.0,0.0,0.0,0.639598046158,2.31690809218,1.95063705562,0.420646698857,-0.284967636601,0.0381965254399
19091000000,ocean_waves,wamv,0.0,0.0,0.0,0.0,0.0,0.0,1.0,1.06447120537,9.94153098477,0.606060984988,-0.109391266178,0.113403281164,0.669226005047,0.726161002034,0.0,0.0,0.0,0.0,0.0,0.0,0.640281759963,2.31841768286,1.94976460012,0.427179699463,-0.287536276204,0.0385794144356
19091000000,ocean_waves,wamv,0.0,0.0,0.0,0.0,0.0,0.0,1.0,1.06511217508,9.94385089766,0.608009840615,-0.109333083963,0.113150684585,0.669248852597,0.726188111048,0.0,0.0,0.0,0.0,0.0,0.0,0.640972647433,2.31992179217,1.94888918059,0.433700677824,-0.290127335549,0.0389654982594
19092000000,ocean_waves,wamv,0.0,0.0,0.0,0.0,0.0,0.0,1.0,1.06575384289,9.94617230888,0.609957817026,-0.109273427573,0.112894931808,0.669272020429,0.72621554312,0.0,0.0,0.0,0.0,0.0,0.0,0.641670815237,2.32142035179,1.94801085445,0.440209420531,-0.292741214978,0.0393548010017
19093000000,ocean_waves,wamv,0.0,0.0,0.0,0.0,0.0,0.0,1.0,1.06639621621,9.9484952128,0.611904911359,-0.109212309178,0.112636018105,0.669295505777,0.726243295939,0.0,0.0,0.0,0.0,0.0,0.0,0.642376366323,2.32291329342,1.94712968028,0.446705713448,-0.295378313767,0.0397473426824
19094000000,ocean_waves,wamv,0.0,0.0,0.0,0.0,0.0,0.0,1.0,1.06703930249,9.95081960373,0.613851120816,-0.109149741153,0.112373938669,0.669319305827,0.726271367164,0.0,0.0,0.0,0.0,0.0,0.0,0.643089399552,2.32440054941,1.94624571951,0.453189343492,-0.298039027914,0.0401431394319
19095000000,ocean_waves,wamv,0.0,0.0,0.0,0.0,0.0,0.0,1.0,1.06768310934,9.95314547592,0.615796442657,-0.109085736082,0.112108688618,0.669343417714,0.726299754428,0.0,0.0,0.0,0.0,0.0,0.0,0.64381001033,2.32588205252,1.94535903306,0.459660098092,-0.300723751169,0.0405422043782
19097000000,ocean_waves,wamv,0.0,0.0,0.0,0.0,0.0,0.0,1.0,1.0683276444,9.95547282356,0.617740874207,-0.10902030675,0.111840262998,0.669367838526,0.72632845534,0.0,0.0,0.0,0.0,0.0,0.0,0.64453828937,2.32735773702,1.94446968314,0.466117768676,-0.303432869708,0.0409445472097
19097000000,ocean_waves,wamv,0.0,0.0,0.0,0.0,0.0,0.0,1.0,1.06897291544,9.95780164074,0.619684412855,-0.108953466145,0.111568656777,0.669392565298,0.72635746748,0.0,0.0,0.0,0.0,0.0,0.0,0.645274326278,2.32882753706,1.94357773549,0.472562145637,-0.306166772812,0.041350177058
19098000000,ocean_waves,wamv,0.0,0.0,0.0,0.0,0.0,0.0,1.0,1.0696189303,9.96013192153,0.621627056054,-0.108885227453,0.111293864854,0.669417595019,0.726386788404,0.0,0.0,0.0,0.0,0.0,0.0,0.646018206355,2.33029138859,1.94268325279,0.478993024445,-0.308925840822,0.0417591006729
19099000000,ocean_waves,wamv,0.0,0.0,0.0,0.0,0.0,0.0,1.0,1.07026569691,9.9624636599,0.623568801323,-0.10881560406,0.111015882051,0.669442924626,0.726416415642,0.0,0.0,0.0,0.0,0.0,0.0,0.646770013999,2.33174922812,1.9417863037,0.485410201843,-0.31171045504,0.042171325112
19100000000,ocean_waves,wamv,0.0,0.0,0.0,0.0,0.0,0.0,1.0,1.07091322328,9.96479684979,0.625509646255,-0.108744609548,0.110734703117,0.669468551008,0.726446346698,0.0,0.0,0.0,0.0,0.0,0.0,0.647529832638,2.33320099297,1.94088695906,0.491813476783,-0.314520995934,0.0425868580194
19101000000,ocean_waves,wamv,0.0,0.0,0.0,0.0,0.0,0.0,1.0,1.0715615175,9.96713148505,0.627449588509,-0.108672257691,0.110450322731,0.669494471007,0.72647657905,0.0,0.0,0.0,0.0,0.0,0.0,0.648297742812,2.33464662259,1.93998528652,0.498202654557,-0.317357835071,0.0430057066065
19101000000,ocean_waves,wamv,0.0,0.0,0.0,0.0,0.0,0.0,1.0,1.07221058774,9.96946755949,0.629388625819,-0.108598562456,0.110162735492,0.669520681417,0.726507110148,0.0,0.0,0.0,0.0,0.0,0.0,0.649073825914,2.33608605716,1.93908136019,0.50457754259,-0.320221345829,0.0434278804741
19103000000,ocean_waves,wamv,0.0,0.0,0.0,0.0,0.0,0.0,1.0,1.07286044226,9.97180506684,0.631326755993,-0.108523538,0.10987193593,0.669547178987,0.726537937416,0.0,0.0,0.0,0.0,0.0,0.0,0.649858164002,2.3375192379,1.93817525626,0.510937951637,-0.323111900904,0.0438533917139
19104000000,ocean_waves,wamv,0.0,0.0,0.0,0.0,0.0,0.0,1.0,1.07351108939,9.97414400081,0.633263976916,-0.108447198666,0.109577918494,0.669573960423,0.726569058248,0.0,0.0,0.0,0.0,0.0,0.0,0.65065083823,2.33894610826,1.93726704815,0.517283699461,-0.326029865053,0.044282254017
19105000000,ocean_waves,wamv,0.0,0.0,0.0,0.0,0.0,0.0,1.0,1.07416253756,9.97648435502,0.63520028655,-0.108369558982,0.109280677562,0.669601022388,0.726600470007,0.0,0.0,0.0,0.0,0.0,0.0,0.651451932372,2.34036661262,1.93635681631,0.523614607017,-0.328975604851,0.0447144852166
19106000000,ocean_waves,wamv,0.0,0.0,0.0,0.0,0.0,0.0,1.0,1.07481479527,9.97882612305,0.637135682937,-0.10829063366,0.108980207432,0.669628361504,0.726632170027,0.0,0.0,0.0,0.0,0.0,0.0,0.652261532203,2.34178069666,1.9354446391,0.529930499831,-0.331949484568,0.0451501069557
19107000000,ocean_waves,wamv,0.0,0.0,0.0,0.0,0.0,0.0,1.0,1.07546787111,9.98116929842,0.639070164203,-0.108210437594,0.108676502321,0.669655974359,0.726664155608,0.0,0.0,0.0,0.0,0.0,0.0,0.653079726162,2.34318830766,1.93453060027,0.536231208886,-0.334951866344,0.0455891451367
19108000000,ocean_waves,wamv,0.0,0.0,0.0,0.0,0.0,0.0,1.0,1.07612177377,9.98351387461,0.641003728557,-0.108128985853,0.10836955637,0.6696838575,0.726696424014,0.0,0.0,0.0,0.0,0.0,0.0,0.65390660559,2.34458939437,1.93361478296,0.542516570534,-0.337983109116,0.0460316300342
19109000000,ocean_waves,wamv,0.0,0.0,0.0,0.0,0.0,0.0,1.0,1.07677651203,9.98585984505,0.642936374294,-0.108046293684,0.108059363637,0.669712007445,0.726728972475,0.0,0.0,0.0,0.0,0.0,0.0,0.654742266025,2.34598390665,1.93269727405,0.54878642548,-0.341043571266,0.046477597018
19110000000,ocean_waves,wamv,0.0,0.0,0.0,0.0,0.0,0.0,1.0,1.07743209477,9.9882072031,0.644868099797,-0.107962376512,0.107745918097,0.66974042068,0.726761798183,0.0,0.0,0.0,0.0,0.0,0.0,0.655586808481,2.34737179481,1.93177816201,0.555040616726,-0.344133613575,0.0469270871751
19110000000,ocean_waves,wamv,0.0,0.0,0.0,0.0,0.0,0.0,1.0,1.07808853098,9.9905559421,0.646798903542,-0.107877249935,0.107429213644,0.66976909366,0.72679489829,0.0,0.0,0.0,0.0,0.0,0.0,0.656440337426,2.34875301071,1.9308575368,0.561278993304,-0.347253591558,0.0473801455818
19112000000,ocean_waves,wamv,0.0,0.0,0.0,0.0,0.0,0.0,1.0,1.07874582975,9.99290605532,0.648728784098,-0.107790929723,0.107109244083,0.669798022816,0.726828269905,0.0,0.0,0.0,0.0,0.0,0.0,0.657302963653,2.35012750628,1.92993549499,0.567501405423,-0.3504038647,0.0478368227776
19113000000,ocean_waves,wamv,0.0,0.0,0.0,0.0,0.0,0.0,1.0,1.0794040003,9.99525753599,0.650657740125,-0.107703431817,0.106786003139,0.669827204552,0.726861910097,0.0,0.0,0.0,0.0,0.0,0.0,0.65817480003,2.35149523514,1.92901212665,0.5737077098,-0.353584782504,0.048297171343
19114000000,ocean_waves,wamv,0.0,0.0,0.0,0.0,0.0,0.0,1.0,1.08006305195,9.9976103773,0.652585770383,-0.107614772331,0.106459484446,0.669856635251,0.72689581589,0.0,0.0,0.0,0.0,0.0,0.0,0.659055967042,2.35285614961,1.92808752913,0.579897760069,-0.356796704032,0.0487612489625
19116000000,ocean_waves,wamv,0.0,0.0,0.0,0.0,0.0,0.0,1.0,1.08072299416,9.99996457238,0.654512873724,-0.107524967547,0.106129681558,0.66988631127,0.726929984262,0.0,0.0,0.0,0.0,0.0,0.0,0.659946586522,2.35421020345,1.92716179908,0.586071415401,-0.360039978551,0.0492291134471
19116000000,ocean_waves,wamv,0.0,0.0,0.0,0.0,0.0,0.0,1.0,1.08138383651,10.0023201143,0.656439049107,-0.107434033917,0.105796587939,0.669916228947,0.726964412148,0.0,0.0,0.0,0.0,0.0,0.0,0.660846785094,2.3555573495,1.92623503877,0.592228532933,-0.363314959443,0.0497008242465
19117000000,ocean_waves,wamv,0.0,0.0,0.0,0.0,0.0,0.0,1.0,1.0820455887,10.0046769962,0.658364295583,-0.107341988062,0.105460196972,0.669946384597,0.726999096436,0.0,0.0,0.0,0.0,0.0,0.0,0.661756690471,2.35689754068,1.92530734487,0.598368970639,-0.366621994774,0.0501764391409
19118000000,ocean_waves,wamv,0.0,0.0,0.0,0.0,0.0,0.0,1.0,1.08270826056,10.007035211,0.660288612308,-0.10724884677,0.105120501955,0.669976774511,0.72703403397,0.0,0.0,0.0,0.0,0.0,0.0,0.662676431451,2.35823072949,1.92437881779,0.604492585715,-0.369961430746,0.0506560134009
19119000000,ocean_waves,wamv,0.0,0.0,0.0,0.0,0.0,0.0,1.0,1.08337186208,10.0093947516,0.662211998542,-0.107154626999,0.104777496107,0.670007394958,0.727069221549,0.0,0.0,0.0,0.0,0.0,0.0,0.663606137709,2.3595568675,1.92344956498,0.610599232529,-0.373333614801,0.0511395988609
19120000000,ocean_waves,wamv,0.0,0.0,0.0,0.0,0.0,0.0,1.0,1.08403640333,10.011755611,0.664134453646,-0.107059345872,0.104431172564,0.670038242179,0.727104655931,0.0,0.0,0.0,0.0,0.0,0.0,0.664545936696,2.36087590577,1.9225196871,0.616688763777,-0.376738889182,0.0516272411763
19121000000,ocean_waves,wamv,0.0,0.0,0.0,0.0,0.0,0.0,1.0,1.08470189453,10.014117782,0.666055977089,-0.106963020681,0.104081524389,0.670069312387,0.727140333832,0.0,0.0,0.0,0.0,0.0,0.0,0.665495952627,2.36218779508,1.92158928943,0.622761031001,-0.380177591414,0.0521189785585
19122000000,ocean_waves,wamv,0.0,0.0,0.0,0.0,0.0,0.0,1.0,1.08536834603,10.0164812574,0.667976568444,-0.106865668882,0.103728544569,0.670100601766,0.727176251929,0.0,0.0,0.0,0.0,0.0,0.0,0.666456306325,2.36349248531,1.9206584794,0.628815882228,-0.383650057438,0.0526148412591
19123000000,ocean_waves,wamv,0.0,0.0,0.0,0.0,0.0,0.0,1.0,1.08603576827,10.0188460299,0.669896227388,-0.106767308096,0.103372226019,0.670132106463,0.727212406864,0.0,0.0,0.0,0.0,0.0,0.0,0.667427112289,2.36478992622,1.91972735857,0.634853164342,-0.387156614986,0.0531148493829
19125000000,ocean_waves,wamv,0.0,0.0,0.0,0.0,0.0,0.0,1.0,1.08670417182,10.0212120923,0.671814953706,-0.10666795611,0.103012561587,0.67016382259,0.727248795246,0.0,0.0,0.0,0.0,0.0,0.0,0.66840848153,2.36608006598,1.91879603781,0.64087271823,-0.390697595796,0.0536190146824
19126000000,ocean_waves,wamv,0.0,0.0,0.0,0.0,0.0,0.0,1.0,1.08737356734,10.0235794372,0.673732747292,-0.10656763087,0.102649544056,0.670195746216,0.727285413651,0.0,0.0,0.0,0.0,0.0,0.0,0.669400514979,2.36736285414,1.91786462239,0.646874387896,-0.394273315465,0.0541273363148
19126000000,ocean_waves,wamv,0.0,0.0,0.0,0.0,0.0,0.0,1.0,1.0880439656,10.0259480573,0.675649608148,-0.106466350487,0.102283166147,0.670227873367,0.72732225863,0.0,0.0,0.0,0.0,0.0,0.0,0.670403309704,2.36863823834,1.91693322393,0.652858010129,-0.397884095738,0.054639805233
19127000000,ocean_waves,wamv,0.0,0.0,0.0,0.0,0.0,0.0,1.0,1.08871537743,10.0283179449,0.677565536385,-0.106364133228,0.101913420521,0.67026020002,0.727359326708,0.0,0.0,0.0,0.0,0.0,0.0,0.671416952536,2.36990616752,1.91600194745,0.658823424431,-0.401530243718,0.0551564004081
19128000000,ocean_waves,wamv,0.0,0.0,0.0,0.0,0.0,0.0,1.0,1.08938781378,10.0306890927,0.679480532219,-0.106260997518,0.101540299785,0.670292722103,0.727396614387,0.0,0.0,0.0,0.0,0.0,0.0,0.672441524147,2.37116659012,1.91507090353,0.664770467458,-0.405212065676,0.0556770920625
19128000000,ocean_waves,wamv,0.0,0.0,0.0,0.0,0.0,0.0,1.0,1.09006128564,10.033061493,0.681394595986,-0.106156961938,0.10116379649,0.670325435489,0.72743411815,0.0,0.0,0.0,0.0,0.0,0.0,0.673477098269,2.37241945469,1.91414020611,0.670698974902,-0.408929863927,0.056201841792
19130000000,ocean_waves,wamv,0.0,0.0,0.0,0.0,0.0,0.0,1.0,1.09073580408,10.0354351384,0.683307728127,-0.106052045219,0.100783903138,0.670358335996,0.727471834461,0.0,0.0,0.0,0.0,0.0,0.0,0.674523739506,2.37366471124,1.91320996547,0.676608785648,-0.412683928523,0.0567306018445
19131000000,ocean_waves,wamv,0.0,0.0,0.0,0.0,0.0,0.0,1.0,1.09141138022,10.037810021,0.685219929199,-0.105946266245,0.100400612183,0.670391419382,0.72750975977,0.0,0.0,0.0,0.0,0.0,0.0,0.675581506751,2.37490230977,1.91228029354,0.682499737487,-0.416474547471,0.0572633180918
19132000000,ocean_waves,wamv,0.0,0.0,0.0,0.0,0.0,0.0,1.0,1.09208802526,10.0401861332,0.687131199874,-0.105839644046,0.100013916029,0.670424681349,0.727547890511,0.0,0.0,0.0,0.0,0.0,0.0,0.676650454419,2.37613220016,1.91135130747,0.688371666702,-0.420302009357,0.0577999315683
19133000000,ocean_waves,wamv,0.0,0.0,0.0,0.0,0.0,0.0,1.0,1.09276575041,10.0425634673,0.689041540935,-0.105732197797,0.0996238070378,0.670458117535,0.727586223105,0.0,0.0,0.0,0.0,0.0,0.0,0.677730627777,2.37735433492,1.91042311916,0.694224416793,-0.42416658585,0.0583403761625
19134000000,ocean_waves,wamv,0.0,0.0,0.0,0.0,0.0,0.0,1.0,1.09344456694,10.0449420154,0.690950953285,-0.105623946815,0.0992302775275,0.670491723516,0.727624753961,0.0,0.0,0.0,0.0,0.0,0.0,0.67882206882,2.37856866666,1.90949584615,0.700057830734,-0.428068549665,0.0588845831412
19135000000,ocean_waves,wamv,0.0,0.0,0.0,0.0,0.0,0.0,1.0,1.09412448615,10.0473217697,0.692859437945,-0.105514910557,0.0988333197726,0.670525494809,0.727663479476,0.0,0.0,0.0,0.0,0.0,0.0,0.679924815297,2.37977514905,1.9085696094,0.70587175409,-0.432008169347,0.0594324811702
19136000000,ocean_waves,wamv,0.0,0.0,0.0,0.0,0.0,0.0,1.0,1.0948055194,10.0497027224,0.694766996058,-0.105405108612,0.098432926007,0.670559426867,0.727702396036,0.0,0.0,0.0,0.0,0.0,0.0,0.681038899146,2.38097373803,1.90764452703,0.711666038757,-0.435985702009,0.0599839959273
19137000000,ocean_waves,wamv,0.0,0.0,0.0,0.0,0.0,0.0,1.0,1.09548767803,10.0520848653,0.696673628884,-0.105294560703,0.098029088424,0.67059351508,0.727741500013,0.0,0.0,0.0,0.0,0.0,0.0,0.682164349838,2.38216439047,1.9067207195,0.717440539223,-0.440001402559,0.0605390528267
19138000000,ocean_waves,wamv,0.0,0.0,0.0,0.0,0.0,0.0,1.0,1.09617097345,10.0544681907,0.698579337808,-0.105183286683,0.0976217991761,0.670627754779,0.727780787771,0.0,0.0,0.0,0.0,0.0,0.0,0.683301194604,2.38334706468,1.90579831111,0.723195114013,-0.44405552238,0.0610975776728
19139000000,ocean_waves,wamv,0.0,0.0,0.0,0.0,0.0,0.0,1.0,1.09685541708,10.0568526904,0.70048412434,-0.105071306529,0.0972110503753,0.670662141233,0.727820255658,0.0,0.0,0.0,0.0,0.0,0.0,0.684449458074,2.38452172098,1.90487742656,0.728929627664,-0.448148305953,0.0616594968981
19140000000,ocean_waves,wamv,0.0,0.0,0.0,0.0,0.0,0.0,1.0,1.09754102035,10.0592383565,0.702387990115,-0.10495864034,0.0967968340938,0.670696669655,0.727859900009,0.0,0.0,0.0,0.0,0.0,0.0,0.685609163238,2.38568832157,1.90395818997,0.734643950626,-0.452279991838,0.0622247385978
19141000000,ocean_waves,wamv,0.0,0.0,0.0,0.0,0.0,0.0,1.0,1.09822779474,10.0616251807,0.704290936896,-0.104845308331,0.0963791423628,0.670731335198,0.727899717146,0.0,0.0,0.0,0.0,0.0,0.0,0.68678033265,2.38684683067,1.90304073102,0.740337959588,-0.456450814386,0.0627932336542
19142000000,ocean_waves,wamv,0.0,0.0,0.0,0.0,0.0,0.0,1.0,1.09891575173,10.0640131551,0.706192966578,-0.104731330837,0.0959579671713,0.670766132962,0.727939703375,0.0,0.0,0.0,0.0,0.0,0.0,0.687962990494,2.38799721358,1.90212518082,0.746011535026,-0.460661008293,0.063364917375
19143000000,ocean_waves,wamv,0.0,0.0,0.0,0.0,0.0,0.0,1.0,1.09960490283,10.0664022714,0.708094081189,-0.104616728301,0.0955333004658,0.670801057992,0.727979854981,0.0,0.0,0.0,0.0,0.0,0.0,0.689157160728,2.38913943844,1.90121167339,0.751664566538,-0.46491079976,0.0639397285489
19144000000,ocean_waves,wamv,0.0,0.0,0.0,0.0,0.0,0.0,1.0,1.10029525958,10.0687925214,0.70999428289,-0.104501521271,0.0951051341503,0.670836105285,0.728020168234,0.0,0.0,0.0,0.0,0.0,0.0,0.69036286789,2.39027347593,1.90030033906,0.757296952348,-0.469200406615,0.0645176101653
19145000000,ocean_waves,wamv,0.0,0.0,0.0,0.0,0.0,0.0,1.0,1.10098683356,10.071183897,0.711893573979,-0.104385730404,0.0946734600826,0.670871269789,0.72806063938,0.0,0.0,0.0,0.0,0.0,0.0,0.691580142438,2.3913992972,1.8993913182,0.76290859291,-0.473530053771,0.0650985128956
19146000000,ocean_waves,wamv,0.0,0.0,0.0,0.0,0.0,0.0,1.0,1.10167963635,10.0735763899,0.713791956893,-0.104269376457,0.0942382700745,0.670906546408,0.728101264642,0.0,0.0,0.0,0.0,0.0,0.0,0.69280901653,2.39251687629,1.89848474942,0.768499398661,-0.477899956395,0.0656823924458
19147000000,ocean_waves,wamv,0.0,0.0,0.0,0.0,0.0,0.0,1.0,1.1023736796,10.0759699918,0.715689434212,-0.104152480281,0.0937995558907,0.670941930003,0.728142040216,0.0,0.0,0.0,0.0,0.0,0.0,0.694049525891,2.39362618951,1.89758077299,0.774069288346,-0.482310323817,0.0662692106606
19148000000,ocean_waves,wamv,0.0,0.0,0.0,0.0,0.0,0.0,1.0,1.10306897499,10.0783646944,0.717586008655,-0.104035062825,0.0933573092463,0.670977415397,0.72818296227,0.0,0.0,0.0,0.0,0.0,0.0,0.695301712663,2.3947272141,1.89667953135,0.779618184892,-0.486761367083,0.0668589371225
19149000000,ocean_waves,wamv,0.0,0.0,0.0,0.0,0.0,0.0,1.0,1.10376553423,10.0807604895,0.71948168309,-0.103917145128,0.0929115218054,0.671012997378,0.728224026941,0.0,0.0,0.0,0.0,0.0,0.0,0.696565625196,2.39581992856,1.89578117122,0.78514601662,-0.491253296551,0.0674515486784
19150000000,ocean_waves,wamv,0.0,0.0,0.0,0.0,0.0,0.0,1.0,1.10446336911,10.0831573687,0.721376460532,-0.103798748323,0.0924621851796,0.671048670699,0.728265230333,0.0,0.0,0.0,0.0,0.0,0.0,0.697841317085,2.39690431312,1.89488584096,0.790652718811,-0.495786317487,0.068047028363
19151000000,ocean_waves,wamv,0.0,0.0,0.0,0.0,0.0,0.0,1.0,1.10516249148,10.0855553236,0.723270344143,-0.103679893622,0.0920092909293,0.671084430086,0.728306568512,0.0,0.0,0.0,0.0,0.0,0.0,0.699128846242,2.39798034994,1.89399368684,0.79613823453,-0.500360626459,0.0686453642074
19152000000,ocean_waves,wamv,0.0,0.0,0.0,0.0,0.0,0.0,1.0,1.10586291323,10.0879543459,0.725163337239,-0.103560602328,0.0915528305595,0.671120270233,0.728348037509,0.0,0.0,0.0,0.0,0.0,0.0,0.700428280093,2.39904802024,1.89310486383,0.801602505451,-0.504976429315,0.0692465516919
19153000000,ocean_waves,wamv,0.0,0.0,0.0,0.0,0.0,0.0,1.0,1.10656464633,10.0903544273,0.727055443286,-0.103440895826,0.0910927955226,0.671156185813,0.728389633314,0.0,0.0,0.0,0.0,0.0,0.0,0.701739688765,2.40010730715,1.89221952168,0.807045480939,-0.509633919332,0.0698505885981
19153000000,ocean_waves,wamv,0.0,0.0,0.0,0.0,0.0,0.0,1.0,1.10726770285,10.0927555592,0.728946665906,-0.10332079558,0.0906291772162,0.671192171469,0.728431351876,0.0,0.0,0.0,0.0,0.0,0.0,0.703063149609,2.40115819287,1.89133781545,0.812467108827,-0.514333294743,0.0704574767752
19155000000,ocean_waves,wamv,0.0,0.0,0.0,0.0,0.0,0.0,1.0,1.10797209492,10.0951577333,0.730837008876,-0.103200323139,0.0901619669853,0.671228221824,0.728473189102,0.0,0.0,0.0,0.0,0.0,0.0,0.704398742825,2.40220066015,1.8904599017,0.817867340131,-0.519074746961,0.0710672182913
