%time,field.name0,field.name1,field.pose0.position.x,field.pose0.position.y,field.pose0.position.z,field.pose0.orientation.x,field.pose0.orientation.y,field.pose0.orientation.z,field.pose0.orientation.w,field.pose1.position.x,field.pose1.position.y,field.pose1.position.z,field.pose1.orientation.x,field.pose1.orientation.y,field.pose1.orientation.z,field.pose1.orientation.w,field.twist0.linear.x,field.twist0.linear.y,field.twist0.linear.z,field.twist0.angular.x,field.twist0.angular.y,field.twist0.angular.z,field.twist1.linear.x,field.twist1.linear.y,field.twist1.linear.z,field.twist1.angular.x,field.twist1.angular.y,field.twist1.angular.z
9882000000,ocean_waves,wamv,0.0,0.0,0.0,0.0,0.0,0.0,1.0,-0.00931045901097,1.75094171529,1.55657803638,-0.0225125826074,0.0130272497557,0.686371658186,0.726785677643,0.0,0.0,0.0,0.0,0.0,0.0,0.139431339746,1.71813674473,0.255099714134,0.594579200765,-0.423513479571,0.0180232125479
9882000000,ocean_waves,wamv,0.0,0.0,0.0,0.0,0.0,0.0,1.0,-0.00916995665746,1.75266172992,1.55683200347,-0.0224416117565,0.0126660234922,0.686377264099,0.726788963344,0.0,0.0,0.0,0.0,0.0,0.0,0.140501947606,1.72001697523,0.254036248031,0.599326174039,-0.427476617391,0.0180533339394
9882000000,ocean_waves,wamv,0.0,0.0,0.0,0.0,0.0,0.0,1.0,-0.00902839863591,1.7543836038,1.55708479676,-0.0223702778105,0.0123017654612,0.686382771076,0.726792218456,0.0,0.0,0.0,0.0,0.0,0.0,0.141557588993,1.72187621985,0.252863595581,0.604011955233,-0.431388753548,0.0180783922955
9885000000,ocean_waves,wamv,0.0,0.0,0.0,0.0,0.0,0.0,1.0,-0.00888579998045,1.75610731595,1.55733630707,-0.0222985853543,0.0119345154116,0.686388175238,0.726795441185,0.0,0.0,0.0,0.0,0.0,0.0,0.142598195382,1.72371448685,0.251581761484,0.608636442714,-0.435249558881,0.0180984399168
9886000000,ocean_waves,wamv,0.0,0.0,0.0,0.0,0.0,0.0,1.0,-0.00874217579039,1.75783284543,1.55758642525,-0.0222265388942,0.0115643132433,0.686393472751,0.726798629741,0.0,0.0,0.0,0.0,0.0,0.0,0.143623701594,1.72553178912,0.250190768408,0.613199549796,-0.439058704805,0.0181135327262
9886000000,ocean_waves,wamv,0.0,0.0,0.0,0.0,0.0,0.0,1.0,-0.00859754121622,1.75956017128,1.5578350422,-0.0221541428678,0.0111911989885,0.686398659825,0.726801782338,0.0,0.0,0.0,0.0,0.0,0.0,0.144634056439,1.72732814314,0.248690673116,0.617701200939,-0.442815904111,0.0181237309812
9886000000,ocean_waves,wamv,0.0,0.0,0.0,0.0,0.0,0.0,1.0,-0.0084519114567,1.76128927257,1.5580820489,-0.0220814016426,0.0108152128086,0.68640373272,0.726804897191,0.0,0.0,0.0,0.0,0.0,0.0,0.145629211662,1.72910356778,0.24708154287,0.622141327258,-0.446520871725,0.0181290969307
9889000000,ocean_waves,wamv,0.0,0.0,0.0,0.0,0.0,0.0,1.0,-0.00830530175055,1.7630201284,1.55832733641,-0.0220083195191,0.0104363949807,0.686408687744,0.726807972522,0.0,0.0,0.0,0.0,0.0,0.0,0.146609127281,1.73085808629,0.245363474423,0.626519873799,-0.450173346608,0.0181296946744
9890000000,ocean_waves,wamv,0.0,0.0,0.0,0.0,0.0,0.0,1.0,-0.00815772737331,1.7647527179,1.55857079592,-0.0219349007302,0.010054785892,0.686413521253,0.726811006556,0.0,0.0,0.0,0.0,0.0,0.0,0.147573766506,1.73259172485,0.243536580024,0.630836794205,-0.453773075264,0.0181255885939
9890000000,ocean_waves,wamv,0.0,0.0,0.0,0.0,0.0,0.0,1.0,-0.0080092036305,1.76648702021,1.55881231877,-0.0218611494424,0.00967042602438,0.686418229658,0.726813997525,0.0,0.0,0.0,0.0,0.0,0.0,0.148523099327,1.73430451563,0.241601016222,0.635092061709,-0.457319827629,0.0181168429629
9893000000,ocean_waves,wamv,0.0,0.0,0.0,0.0,0.0,0.0,1.0,-0.00785974585335,1.76822301453,1.55905179645,-0.0217870697609,0.00928335594794,0.686422809417,0.72681694367,0.0,0.0,0.0,0.0,0.0,0.0,0.149457100063,1.73599649168,0.239556939909,0.639285650535,-0.460813390613,0.0181035207921
9893000000,ocean_waves,wamv,0.0,0.0,0.0,0.0,0.0,0.0,1.0,-0.00770936939622,1.76996068008,1.55928912066,-0.021712665727,0.00889361630985,0.686427257039,0.726819843242,0.0,0.0,0.0,0.0,0.0,0.0,0.150375745555,1.73766769201,0.237404551922,0.643417554318,-0.464253564016,0.0180856828772
9894000000,ocean_waves,wamv,0.0,0.0,0.0,0.0,0.0,0.0,1.0,-0.00755808963556,1.77169999612,1.55952418329,-0.021637941322,0.00850124783054,0.686431569085,0.726822694503,0.0,0.0,0.0,0.0,0.0,0.0,0.151279013761,1.73931815626,0.235144056068,0.647487766724,-0.467640157772,0.0180633870056
9895000000,ocean_waves,wamv,0.0,0.0,0.0,0.0,0.0,0.0,1.0,-0.00740592196375,1.77344094198,1.5597568765,-0.0215629004724,0.00810629128817,0.686435742164,0.726825495731,0.0,0.0,0.0,0.0,0.0,0.0,0.15216688872,1.74094792825,0.232775691046,0.651496294231,-0.470973012622,0.018036688113
9897000000,ocean_waves,wamv,0.0,0.0,0.0,0.0,0.0,0.0,1.0,-0.00725288179331,1.77518349699,1.55998709268,-0.0214875470428,0.00770878751508,0.686439772936,0.726828245219,0.0,0.0,0.0,0.0,0.0,0.0,0.153039350331,1.74255705689,0.230299718941,0.655443159321,-0.474251964089,0.0180056367056
9897000000,ocean_waves,wamv,0.0,0.0,0.0,0.0,0.0,0.0,1.0,-0.00709898455098,1.77692764059,1.56021472452,-0.0214118848457,0.00730877738413,0.686443658106,0.726830941283,0.0,0.0,0.0,0.0,0.0,0.0,0.153896384338,1.74414559294,0.22771642297,0.659328388961,-0.477476881058,0.0179702799438
9898000000,ocean_waves,wamv,0.0,0.0,0.0,0.0,0.0,0.0,1.0,-0.0069442456793,1.77867335222,1.56043966502,-0.0213359176378,0.00690630180062,0.68644739443,0.726833582256,0.0,0.0,0.0,0.0,0.0,0.0,0.154737974998,1.74571359223,0.225026118994,0.663152026042,-0.480647639711,0.0179306607697
9899000000,ocean_waves,wamv,0.0,0.0,0.0,0.0,0.0,0.0,1.0,-0.00678868063689,1.78042061142,1.56066180752,-0.0212596491229,0.00650140169631,0.686450978706,0.726836166497,0.0,0.0,0.0,0.0,0.0,0.0,0.155564106218,1.74726111249,0.222229128663,0.666914118164,-0.483764128413,0.0178868182227
9900000000,ocean_waves,wamv,0.0,0.0,0.0,0.0,0.0,0.0,1.0,-0.00663230489809,1.78216939777,1.56088104568,-0.0211830829519,0.00609411801915,0.686454407781,0.726838692393,0.0,0.0,0.0,0.0,0.0,0.0,0.156374762296,1.74878821584,0.219325811016,0.670614726506,-0.486826250778,0.0178387878542
9901000000,ocean_waves,wamv,0.0,0.0,0.0,0.0,0.0,0.0,1.0,-0.00647513394914,1.78391969092,1.56109727357,-0.0211062227279,0.00568449171885,0.686457678547,0.726841158356,0.0,0.0,0.0,0.0,0.0,0.0,0.15716993133,1.75029496851,0.216316544673,0.674253925101,-0.489833938255,0.0177866025426
9902000000,ocean_waves,wamv,0.0,0.0,0.0,0.0,0.0,0.0,1.0,-0.00631718329132,1.7856714706,1.56131038567,-0.0210290720026,0.00527256374251,0.686460787938,0.726843562829,0.0,0.0,0.0,0.0,0.0,0.0,0.157949598315,1.75178144027,0.213201734368,0.677831798679,-0.492787124069,0.0177302922141
9903000000,ocean_waves,wamv,0.0,0.0,0.0,0.0,0.0,0.0,1.0,-0.00615846843543,1.78742471659,1.56152027686,-0.0209516342835,0.00485837501831,0.686463732935,0.726845904287,0.0,0.0,0.0,0.0,0.0,0.0,0.158713753738,1.75324770486,0.20998180767,0.681348444478,-0.495685774508,0.0176698854056
9904000000,ocean_waves,wamv,0.0,0.0,0.0,0.0,0.0,0.0,1.0,-0.0059990049616,1.78917940875,1.56172684263,-0.020873912978,0.0044419665481,0.686466510561,0.726848181238,0.0,0.0,0.0,0.0,0.0,0.0,0.159462328286,1.75469382366,0.206657347025,0.684803913556,-0.498529644862,0.0176054026915
9905000000,ocean_waves,wamv,0.0,0.0,0.0,0.0,0.0,0.0,1.0,-0.00583880895111,1.79093552688,1.56192998009,-0.0207959110065,0.00402338014179,0.686469117884,0.726850392233,0.0,0.0,0.0,0.0,0.0,0.0,0.160194820831,1.75611973509,0.203229986716,0.688197811588,-0.501316891539,0.0175368175083
9906000000,ocean_waves,wamv,0.0,0.0,0.0,0.0,0.0,0.0,1.0,-0.00567789680409,1.79269305077,1.5621295876,-0.0207176309652,0.00360265809947,0.686471552017,0.726852535864,0.0,0.0,0.0,0.0,0.0,0.0,0.160910912539,1.75752543391,0.199700970969,0.691529943639,-0.504046356636,0.0174641258438
9907000000,ocean_waves,wamv,0.0,0.0,0.0,0.0,0.0,0.0,1.0,-0.00551628516466,1.79445196023,1.5623255646,-0.0206390751901,0.00317984307507,0.686473810123,0.726854610764,0.0,0.0,0.0,0.0,0.0,0.0,0.161610359455,1.75891094182,0.196071387329,0.694800209308,-0.50671716766,0.0173873341115
9908000000,ocean_waves,wamv,0.0,0.0,0.0,0.0,0.0,0.0,1.0,-0.00535399088335,1.7962122351,1.56251781156,-0.0205602457917,0.00275497800932,0.686475889411,0.726856615604,0.0,0.0,0.0,0.0,0.0,0.0,0.162292955176,1.76027629256,0.192342263234,0.698008549198,-0.509328597576,0.0173064552787
9909000000,ocean_waves,wamv,0.0,0.0,0.0,0.0,0.0,0.0,1.0,-0.00519103099731,1.79797385527,1.56270622998,-0.0204811446687,0.00232810608855,0.686477787143,0.726858549096,0.0,0.0,0.0,0.0,0.0,0.0,0.162958513129,1.76162153063,0.188514609969,0.701154940826,-0.511879997661,0.0172215073666
9910000000,ocean_waves,wamv,0.0,0.0,0.0,0.0,0.0,0.0,1.0,-0.00502742271436,1.7997368007,1.56289072235,-0.0204017735179,0.00189927071115,0.686479500634,0.726860409994,0.0,0.0,0.0,0.0,0.0,0.0,0.163606862656,1.76294670968,0.18458944425,0.704239392835,-0.514370781658,0.0171325134514
9911000000,ocean_waves,wamv,0.0,0.0,0.0,0.0,0.0,0.0,1.0,-0.00486318339834,1.80150105136,1.5630711922,-0.0203221338491,0.00146851546235,0.686481027255,0.726862197089,0.0,0.0,0.0,0.0,0.0,0.0,0.164237847761,1.76425188752,0.18056777819,0.707261927333,-0.516800419813,0.0170395019032
9912000000,ocean_waves,wamv,0.0,0.0,0.0,0.0,0.0,0.0,1.0,-0.00469833055899,1.80326658735,1.56324754405,-0.0202422269874,0.00103588409016,0.686482364433,0.726863909211,0.0,0.0,0.0,0.0,0.0,0.0,0.164851322561,1.76553713049,0.176450637643,0.710222595841,-0.519168420567,0.0169425063468
9914000000,ocean_waves,wamv,0.0,0.0,0.0,0.0,0.0,0.0,1.0,-0.00453288184166,1.80503338878,1.5634196835,-0.0201620540811,0.000601420487191,0.686483509653,0.72686554523,0.0,0.0,0.0,0.0,0.0,0.0,0.165447151484,1.76680250881,0.172239057663,0.713121462597,-0.521474329877,0.0168415660196
9914000000,ocean_waves,wamv,0.0,0.0,0.0,0.0,0.0,0.0,1.0,-0.00436685501813,1.80680143588,1.56358751716,-0.0200816161039,0.000165168670377,0.686484460465,0.726867104053,0.0,0.0,0.0,0.0,0.0,0.0,0.166025208138,1.76804809995,0.167934095605,0.715958617043,-0.523717725587,0.0167367260281
9915000000,ocean_waves,wamv,0.0,0.0,0.0,0.0,0.0,0.0,1.0,-0.00420026797681,1.80857070894,1.56375095276,-0.0200009138594,-0.000272827237334,0.686485214481,0.726868584621,0.0,0.0,0.0,0.0,0.0,0.0,0.166585375883,1.76927398672,0.163536826983,0.718734167083,-0.525898218021,0.0166280376979
9916000000,ocean_waves,wamv,0.0,0.0,0.0,0.0,0.0,0.0,1.0,-0.00403313871382,1.81034118835,1.56390989909,-0.0199199479845,-0.000712523022799,0.686485769379,0.726869985914,0.0,0.0,0.0,0.0,0.0,0.0,0.167127547081,1.77048025656,0.159048342781,0.721448236604,-0.528015445662,0.0165155587753
9917000000,ocean_waves,wamv,0.0,0.0,0.0,0.0,0.0,0.0,1.0,-0.00386548532287,1.81211285458,1.56406426605,-0.0198387189553,-0.00115387439837,0.686486122909,0.726871306944,0.0,0.0,0.0,0.0,0.0,0.0,0.167651624132,1.77166700069,0.154469745241,0.724100962586,-0.530069077411,0.016399353753
9918000000,ocean_waves,wamv,0.0,0.0,0.0,0.0,0.0,0.0,1.0,-0.00369732598579,1.81388568822,1.5642139647,-0.0197572270881,-0.00159683701983,0.686486272889,0.726872546754,0.0,0.0,0.0,0.0,0.0,0.0,0.168157518964,1.77283431686,0.149802173682,0.726692505432,-0.532058809107,0.0162794940392
9921000000,ocean_waves,wamv,0.0,0.0,0.0,0.0,0.0,0.0,1.0,-0.00352867896167,1.81565966992,1.56435890722,-0.0196754725438,-0.00204136650247,0.686486217214,0.72687370442,0.0,0.0,0.0,0.0,0.0,0.0,0.168645154337,1.77398230686,0.145046776862,0.729223039948,-0.533984366794,0.016156058185
9921000000,ocean_waves,wamv,0.0,0.0,0.0,0.0,0.0,0.0,1.0,-0.00335956257704,1.81743478048,1.56449900698,-0.0195934553306,-0.00248741843643,0.686485953857,0.726874779048,0.0,0.0,0.0,0.0,0.0,0.0,0.169114462841,1.77511107742,0.140204733487,0.731692758834,-0.535845501451,0.0160291318759
9921000000,ocean_waves,wamv,0.0,0.0,0.0,0.0,0.0,0.0,1.0,-0.00318999521598,1.81921100079,1.56463417855,-0.0195111753059,-0.00293494840096,0.686485480866,0.726875769768,0.0,0.0,0.0,0.0,0.0,0.0,0.169565386942,1.77622073965,0.135277238075,0.734101870971,-0.537641987733,0.0158988079244
9922000000,ocean_waves,wamv,0.0,0.0,0.0,0.0,0.0,0.0,1.0,-0.00301999530672,1.82098831186,1.56476433771,-0.0194286321835,-0.00338391198234,0.686484796378,0.726876675739,0.0,0.0,0.0,0.0,0.0,0.0,0.169997882545,1.77731140846,0.130265511522,0.73645059919,-0.539373636031,0.0157651864431
9923000000,ocean_waves,wamv,0.0,0.0,0.0,0.0,0.0,0.0,1.0,-0.00284958131204,1.82276669481,1.5648894015,-0.0193458255341,-0.00383426478719,0.686483898608,0.726877496144,0.0,0.0,0.0,0.0,0.0,0.0,0.170411915095,1.77838320325,0.125170789019,0.738739183263,-0.5410402769,0.0156283743111
9924000000,ocean_waves,wamv,0.0,0.0,0.0,0.0,0.0,0.0,1.0,-0.00267877171879,1.8245461309,1.5650092882,-0.0192627547861,-0.0042859624579,0.686482785862,0.726878230186,0.0,0.0,0.0,0.0,0.0,0.0,0.170807460558,1.77943624876,0.119994342923,0.740967883112,-0.542641764123,0.0154884850197
9925000000,ocean_waves,wamv,0.0,0.0,0.0,0.0,0.0,0.0,1.0,-0.00250758502483,1.82632660152,1.5651239174,-0.0191794192191,-0.00473896070205,0.686481456536,0.726878877092,0.0,0.0,0.0,0.0,0.0,0.0,0.171184507968,1.7804706831,0.114737465233,0.743137008235,-0.544177985077,0.0153456396169
9926000000,ocean_waves,wamv,0.0,0.0,0.0,0.0,0.0,0.0,1.0,-0.00233603972834,1.82810808817,1.56523320997,-0.019095817998,-0.00519321527428,0.686479909113,0.726879436106,0.0,0.0,0.0,0.0,0.0,0.0,0.171543057012,1.78148662361,0.109401448604,0.745246793224,-0.545648847916,0.0151999615047
9927000000,ocean_waves,wamv,0.0,0.0,0.0,0.0,0.0,0.0,1.0,-0.00216415431707,1.82989057249,1.56533708814,-0.0190119501594,-0.00564868200706,0.686478142172,0.726879906493,0.0,0.0,0.0,0.0,0.0,0.0,0.171883118154,1.78248420435,0.103987624587,0.747297534231,-0.547054286785,0.0150515802482
9928000000,ocean_waves,wamv,0.0,0.0,0.0,0.0,0.0,0.0,1.0,-0.00199194725682,1.83167403627,1.56543547547,-0.0189278146173,-0.00610531682519,0.686476154383,0.726880287533,0.0,0.0,0.0,0.0,0.0,0.0,0.172204713361,1.7834635624,0.0984973430143,0.749289539371,-0.548394264367,0.0149006291278
9932000000,ocean_waves,wamv,0.0,0.0,0.0,0.0,0.0,0.0,1.0,-0.00181943698074,1.83345846142,1.56552829687,-0.0188434101688,-0.00656307575893,0.686473944512,0.726880578525,0.0,0.0,0.0,0.0,0.0,0.0,0.172507875317,1.78442483699,0.0929319743434,0.751223125556,-0.549668770717,0.014747244011
9933000000,ocean_waves,wamv,0.0,0.0,0.0,0.0,0.0,0.0,1.0,-0.00164664188203,1.83524383001,1.56561547869,-0.0187587354953,-0.00702191495461,0.686471511418,0.726880778784,0.0,0.0,0.0,0.0,0.0,0.0,0.172792643999,1.78536817065,0.0872929179379,0.753098622679,-0.550877812701,0.0145915619777
9933000000,ocean_waves,wamv,0.0,0.0,0.0,0.0,0.0,0.0,1.0,-0.00147358030364,1.83703012423,1.56569694867,-0.0186737891707,-0.00748179068807,0.686468854055,0.726880887642,0.0,0.0,0.0,0.0,0.0,0.0,0.173059069682,1.78629370739,0.0815815810719,0.754916366962,-0.552021427995,0.0144337202739
9933000000,ocean_waves,wamv,0.0,0.0,0.0,0.0,0.0,0.0,1.0,-0.00130027053207,1.83881732644,1.56577263598,-0.0185885696609,-0.00794265937779,0.686465971471,0.726880904449,0.0,0.0,0.0,0.0,0.0,0.0,0.173307208839,1.78720159603,0.0757994026834,0.756676713039,-0.553099672863,0.0142738548334
9933000000,ocean_waves,wamv,0.0,0.0,0.0,0.0,0.0,0.0,1.0,-0.0011267307874,1.84060541913,1.56584247126,-0.0185030753373,-0.00840447759704,0.686462862806,0.726880828574,0.0,0.0,0.0,0.0,0.0,0.0,0.173537127933,1.78809198439,0.0699478356711,0.758380012556,-0.554112639656,0.0141120992057
9935000000,ocean_waves,wamv,0.0,0.0,0.0,0.0,0.0,0.0,1.0,-0.00095297922195,1.84239438498,1.5659063866,-0.018417304473,-0.00886720208207,0.68645952729,0.726880659405,0.0,0.0,0.0,0.0,0.0,0.0,0.173748894712,1.78896502458,0.0640283602223,0.760026633607,-0.555060427687,0.0139485829362
9935000000,ocean_waves,wamv,0.0,0.0,0.0,0.0,0.0,0.0,1.0,-0.000779033913514,1.84418420677,1.56596431563,-0.0183312552513,-0.00933078974561,0.686455964241,0.726880396352,0.0,0.0,0.0,0.0,0.0,0.0,0.173942583772,1.78982087026,0.0580424679545,0.761616950486,-0.55594316746,0.0137834308404
9936000000,ocean_waves,wamv,0.0,0.0,0.0,0.0,0.0,0.0,1.0,-0.000604912861749,1.84597486747,1.56601619344,-0.0182449257711,-0.00979519768695,0.686452173065,0.726880038851,0.0,0.0,0.0,0.0,0.0,0.0,0.174118273255,1.79065967658,0.0519916716079,0.76315134348,-0.556761011516,0.013616761937
9936000000,ocean_waves,wamv,0.0,0.0,0.0,0.0,0.0,0.0,1.0,-0.000430633986175,1.8477663502,1.56606195671,-0.0181583140494,-0.0102603832026,0.68644815325,0.72687958636,0.0,0.0,0.0,0.0,0.0,0.0,0.174276043333,1.7914816015,0.0458775113002,0.764630203596,-0.557514131601,0.0134486887224
9939000000,ocean_waves,wamv,0.0,0.0,0.0,0.0,0.0,0.0,1.0,-0.00025621512309,1.84955863824,1.56610154363,-0.018071418028,-0.0107263037977,0.686443904363,0.726879038369,0.0,0.0,0.0,0.0,0.0,0.0,0.174415977256,1.79228680442,0.0397015407289,0.766053927542,-0.558202725029,0.0132793167739
9939000000,ocean_waves,wamv,0.0,0.0,0.0,0.0,0.0,0.0,1.0,-8.16740252372e-05,1.85135171502,1.56613489398,-0.017984235576,-0.0111929171949,0.68643942605,0.726878394395,0.0,0.0,0.0,0.0,0.0,0.0,0.174538158607,1.79307544713,0.03346533042,0.767422921186,-0.55882700628,0.0131087444233
9940000000,ocean_waves,wamv,0.0,0.0,0.0,0.0,0.0,0.0,1.0,9.29716386813e-05,1.85314556416,1.56616194915,-0.0178967644932,-0.0116601813452,0.686434718032,0.726877653991,0.0,0.0,0.0,0.0,0.0,0.0,0.17464267146,1.79384769371,0.0271704756771,0.76873759924,-0.559387208883,0.0129370628136
9941000000,ocean_waves,wamv,0.0,0.0,0.0,0.0,0.0,0.0,1.0,0.00026770428771,1.85494016942,1.56618265211,-0.0178090025178,-0.0121280544417,0.686429780098,0.726876816744,0.0,0.0,0.0,0.0,0.0,0.0,0.17472960359,1.79460371052,0.0208185893487,0.769998385251,-0.55988359826,0.0127643563069
9942000000,ocean_waves,wamv,0.0,0.0,0.0,0.0,0.0,0.0,1.0,0.000442506427604,1.85673551475,1.5661969475,-0.0177209473278,-0.0125964949285,0.686424612108,0.726875882275,0.0,0.0,0.0,0.0,0.0,0.0,0.174799041739,1.79534366631,0.0144113035341,0.771205712101,-0.560316454085,0.0125907027138
9943000000,ocean_waves,wamv,0.0,0.0,0.0,0.0,0.0,0.0,1.0,0.000617360654201,1.85853158425,1.56620478158,-0.0176325965476,-0.0130654615154,0.686419213987,0.726874850249,0.0,0.0,0.0,0.0,0.0,0.0,0.17485107602,1.79606773262,0.00795027409293,0.772360023521,-0.560686086537,0.0124161741142
9944000000,ocean_waves,wamv,0.0,0.0,0.0,0.0,0.0,0.0,1.0,0.000792249653353,1.86032836221,1.5662061023,-0.0175439477512,-0.0135349131864,0.686413585721,0.726873720366,0.0,0.0,0.0,0.0,0.0,0.0,0.17488579648,1.79677608257,0.00143717031559,0.773461769855,-0.56099282259,0.0122408374207
9945000000,ocean_waves,wamv,0.0,0.0,0.0,0.0,0.0,0.0,1.0,0.000967156205318,1.86212583308,1.56620085929,-0.0174549984669,-0.0140048092176,0.686407727361,0.726872492371,0.0,0.0,0.0,0.0,0.0,0.0,0.174903297554,1.79746889391,-0.00512631174286,0.774511419412,-0.561237021729,0.0120647554311
9946000000,ocean_waves,wamv,0.0,0.0,0.0,0.0,0.0,0.0,1.0,0.00114206318458,1.86392398152,1.56618900392,-0.0173657461795,-0.0144751091848,0.686401639015,0.726871166048,0.0,0.0,0.0,0.0,0.0,0.0,0.174903673505,1.79814634603,-0.0117384597157,0.775509447594,-0.561419057344,0.011887987459
9948000000,ocean_waves,wamv,0.0,0.0,0.0,0.0,0.0,0.0,1.0,0.00131695356495,1.86572279234,1.56617048927,-0.0172761883371,-0.0149457729789,0.686395320846,0.726869741224,0.0,0.0,0.0,0.0,0.0,0.0,0.174887023672,1.79880862111,-0.018397539252,0.776456341246,-0.561539334961,0.0117105904316
9948000000,ocean_waves,wamv,0.0,0.0,0.0,0.0,0.0,0.0,1.0,0.0014918104242,1.86752225055,1.56614527018,-0.0171863223573,-0.0154167608206,0.686388773078,0.726868217769,0.0,0.0,0.0,0.0,0.0,0.0,0.174853452074,1.79945590382,-0.025101796757,0.777352597778,-0.561598289092,0.0115326197127
9949000000,ocean_waves,wamv,0.0,0.0,0.0,0.0,0.0,0.0,1.0,0.00166661695004,1.86932234135,1.56611330328,-0.0170961456302,-0.015888033279,0.686381995986,0.726866595593,0.0,0.0,0.0,0.0,0.0,0.0,0.174803068663,1.80008838409,-0.0318494503746,0.778198735592,-0.561596386277,0.0113541300024
9950000000,ocean_waves,wamv,0.0,0.0,0.0,0.0,0.0,0.0,1.0,0.00184135644348,1.87112305013,1.56607454697,-0.0170056555232,-0.0163595512815,0.686374989903,0.726864874649,0.0,0.0,0.0,0.0,0.0,0.0,0.174735986762,1.80070625326,-0.0386387072142,0.778995280026,-0.56153411362,0.0111751759498
9951000000,ocean_waves,wamv,0.0,0.0,0.0,0.0,0.0,0.0,1.0,0.00201601232813,1.87292436247,1.56602896151,-0.0169148493876,-0.0168312761361,0.686367755212,0.726863054928,0.0,0.0,0.0,0.0,0.0,0.0,0.174652329006,1.80130970763,-0.0454677354382,0.779742776707,-0.561411999538,0.0109958130964
9952000000,ocean_waves,wamv,0.0,0.0,0.0,0.0,0.0,0.0,1.0,0.00219056815543,1.87472626416,1.56597650898,-0.0168237245632,-0.0173031695434,0.686360292351,0.726861136462,0.0,0.0,0.0,0.0,0.0,0.0,0.174552223259,1.80189894584,-0.0523346945226,0.780441781948,-0.561230596579,0.010816098333
9953000000,ocean_waves,wamv,0.0,0.0,0.0,0.0,0.0,0.0,1.0,0.00236500761455,1.87652874117,1.56591715334,-0.0167322783854,-0.0177751936178,0.686352601812,0.726859119319,0.0,0.0,0.0,0.0,0.0,0.0,0.174435807277,1.80247417044,-0.0592377121743,0.781092868748,-0.560990497407,0.0106360906198
9954000000,ocean_waves,wamv,0.0,0.0,0.0,0.0,0.0,0.0,1.0,0.00253931454051,1.87833177972,1.56585086045,-0.0166405081888,-0.0182473109055,0.686344684139,0.726857003603,0.0,0.0,0.0,0.0,0.0,0.0,0.174303226915,1.80303558897,-0.0661748901834,0.781696631288,-0.560692326361,0.0104558514565
9955000000,ocean_waves,wamv,0.0,0.0,0.0,0.0,0.0,0.0,1.0,0.00271347292495,1.8801353662,1.56577759809,-0.0165484113163,-0.018719484404,0.686336539928,0.72685478945,0.0,0.0,0.0,0.0,0.0,0.0,0.174154638825,1.80358341168,-0.0731443101188,0.782253676292,-0.560336747963,0.0102754453332
9956000000,ocean_waves,wamv,0.0,0.0,0.0,0.0,0.0,0.0,1.0,0.0028874669279,1.88193948722,1.56569733598,-0.0164559851244,-0.0191916775857,0.686328169829,0.72685247703,0.0,0.0,0.0,0.0,0.0,0.0,0.173990211439,1.80411785441,-0.0801440150502,0.78276463415,-0.559924469036,0.0100949401789
9958000000,ocean_waves,wamv,0.0,0.0,0.0,0.0,0.0,0.0,1.0,0.00306128088808,1.88374412964,1.56561004584,-0.0163632269909,-0.019663854415,0.686319574545,0.72685006654,0.0,0.0,0.0,0.0,0.0,0.0,0.173810123451,1.80463913585,-0.0871720272791,0.783230148939,-0.559456231227,0.00991440759898
9958000000,ocean_waves,wamv,0.0,0.0,0.0,0.0,0.0,0.0,1.0,0.00323489933777,1.8855492805,1.56551570139,-0.0162701343221,-0.0201359793761,0.686310754833,0.726847558202,0.0,0.0,0.0,0.0,0.0,0.0,0.173614568427,1.8051474808,-0.0942263341008,0.783650890812,-0.558932826856,0.00973392328687
9958000000,ocean_waves,wamv,0.0,0.0,0.0,0.0,0.0,0.0,1.0,0.00340830701638,1.88735492711,1.5654142784,-0.0161767045603,-0.0206080174961,0.686301711502,0.726844952266,0.0,0.0,0.0,0.0,0.0,0.0,0.173403753534,1.80564311878,-0.101304889591,0.784027551025,-0.55835509236,0.00955356717204
9958000000,ocean_waves,wamv,0.0,0.0,0.0,0.0,0.0,0.0,1.0,0.00358148888711,1.88916105699,1.56530575471,-0.0160829351953,-0.0210799343714,0.686292445416,0.726842248997,0.0,0.0,0.0,0.0,0.0,0.0,0.173177902567,1.80612628332,-0.108405612096,0.784360839624,-0.557723918104,0.00937342358188
9961000000,ocean_waves,wamv,0.0,0.0,0.0,0.0,0.0,0.0,1.0,0.00375443015431,1.89096765791,1.5651901103,-0.0159888237726,-0.0215516961978,0.686282957494,0.726839448681,0.0,0.0,0.0,0.0,0.0,0.0,0.172937256702,1.80659721506,-0.115526382218,0.784651497157,-0.557040249643,0.00919358136819
9962000000,ocean_waves,wamv,0.0,0.0,0.0,0.0,0.0,0.0,1.0,0.00392711628261,1.89277471787,1.56506732728,-0.0158943679045,-0.0220232698012,0.686273248706,0.726836551617,0.0,0.0,0.0,0.0,0.0,0.0,0.172682076208,1.80705615978,-0.122665044836,0.784900287852,-0.556305092657,0.00901413384686
9963000000,ocean_waves,wamv,0.0,0.0,0.0,0.0,0.0,0.0,1.0,0.00409953301572,1.89458222515,1.56493739,-0.0157995652794,-0.0224946226687,0.686263320077,0.726833558117,0.0,0.0,0.0,0.0,0.0,0.0,0.1724126402,1.80750337019,-0.129819384862,0.785108006392,-0.555519510675,0.00883517869978
9964000000,ocean_waves,wamv,0.0,0.0,0.0,0.0,0.0,0.0,1.0,0.00427166640217,1.89639016827,1.56480028506,-0.0157044136791,-0.0229657229887,0.686253172687,0.726830468497,0.0,0.0,0.0,0.0,0.0,0.0,0.172129253479,1.80793910553,-0.136987139169,0.785275476837,-0.554684649812,0.00865681773058
9965000000,ocean_waves,wamv,0.0,0.0,0.0,0.0,0.0,0.0,1.0,0.00444350282029,1.89819853602,1.56465600137,-0.0156089109922,-0.0234365396929,0.686242807666,0.726827283081,0.0,0.0,0.0,0.0,0.0,0.0,0.171832245869,1.8083636335,-0.144165991796,0.785403560248,-0.553801735486,0.00847915647032
9966000000,ocean_waves,wamv,0.0,0.0,0.0,0.0,0.0,0.0,1.0,0.00461502900439,1.90000731747,1.56450453024,-0.0155130552295,-0.0239070424987,0.686232226199,0.726824002192,0.0,0.0,0.0,0.0,0.0,0.0,0.171521973335,1.8087772301,-0.151353552154,0.785493154367,-0.552872076173,0.00830230359422
9967000000,ocean_waves,wamv,0.0,0.0,0.0,0.0,0.0,0.0,1.0,0.00478623207736,1.90181650197,1.56434586544,-0.0154168445433,-0.0243772019651,0.686221429519,0.726820626151,0.0,0.0,0.0,0.0,0.0,0.0,0.171198824472,1.80918018257,-0.158547354566,0.785545205082,-0.551897088106,0.00812637021414
9968000000,ocean_waves,wamv,0.0,0.0,0.0,0.0,0.0,0.0,1.0,0.00495709958736,1.90362607917,1.56418000329,-0.015320277252,-0.0248469895537,0.686210418907,0.726817155273,0.0,0.0,0.0,0.0,0.0,0.0,0.170863224544,1.80957278906,-0.165744843102,0.785560705684,-0.550878311183,0.00795146886714
9970000000,ocean_waves,wamv,0.0,0.0,0.0,0.0,0.0,0.0,1.0,0.005127619549,1.90543603905,1.56400694281,-0.0152233518664,-0.0253163777026,0.686199195691,0.726813589864,0.0,0.0,0.0,0.0,0.0,0.0,0.170515639984,1.80995536286,-0.172943342564,0.785540713074,-0.549817427324,0.00777771239262
9970000000,ocean_waves,wamv,0.0,0.0,0.0,0.0,0.0,0.0,1.0,0.00529778049269,1.90724637191,1.56382668581,-0.0151260671203,-0.0257853399164,0.68618776124,0.726809930218,0.0,0.0,0.0,0.0,0.0,0.0,0.170156586581,1.81032823609,-0.180140032523,0.785486362605,-0.548716293486,0.00760521255139
9971000000,ocean_waves,wamv,0.0,0.0,0.0,0.0,0.0,0.0,1.0,0.00546757153156,1.90905706838,1.56363923711,-0.01502842202,-0.0262538508883,0.686176116958,0.726806176612,0.0,0.0,0.0,0.0,0.0,0.0,0.16978664705,1.81069176433,-0.187331910495,0.785398885869,-0.547577011078,0.0074340783177
9972000000,ocean_waves,wamv,0.0,0.0,0.0,0.0,0.0,0.0,1.0,0.00563698244513,1.91086811953,1.56344460481,-0.0149304158981,-0.0267218866627,0.686164264278,0.726802329304,0.0,0.0,0.0,0.0,0.0,0.0,0.169406487759,1.81104633901,-0.194515707084,0.785279659015,-0.546401993071,0.00726441407617
9973000000,ocean_waves,wamv,0.0,0.0,0.0,0.0,0.0,0.0,1.0,0.00580600380719,1.91267951684,1.56324280068,-0.0148320485038,-0.027189424883,0.686152204651,0.726798388527,0.0,0.0,0.0,0.0,0.0,0.0,0.169016902949,1.8113924041,-0.201687741094,0.785130267291,-0.545194136521,0.00709631724409
9974000000,ocean_waves,wamv,0.0,0.0,0.0,0.0,0.0,0.0,1.0,0.00597462721821,1.91449125235,1.56303384093,-0.0147333201619,-0.0276564452515,0.686139939528,0.726794354476,0.0,0.0,0.0,0.0,0.0,0.0,0.168618919268,1.81173050577,-0.208843582111,0.784952696767,-0.543957226319,0.00692987519056
9975000000,ocean_waves,wamv,0.0,0.0,0.0,0.0,0.0,0.0,1.0,0.00614284612986,1.916303319,1.56281774888,-0.0146342323406,-0.0281229311612,0.68612747031,0.726790227282,0.0,0.0,0.0,0.0,0.0,0.0,0.168214387834,1.81206155651,-0.21597609334,0.784750349317,-0.542698202512,0.00676515729945
9976000000,ocean_waves,wamv,0.0,0.0,0.0,0.0,0.0,0.0,1.0,0.00631065518964,1.91811571036,1.56259455287,-0.0145347872076,-0.0285888684043,0.686114798371,0.726786007034,0.0,0.0,0.0,0.0,0.0,0.0,0.167804504412,1.81238616942,-0.223080286785,0.784525498419,-0.541421515718,0.00660221939628
9976000000,ocean_waves,wamv,0.0,0.0,0.0,0.0,0.0,0.0,1.0,0.00647804892624,1.91992842001,1.56236428188,-0.0144349867368,-0.029054242571,0.686101925127,0.726781693828,0.0,0.0,0.0,0.0,0.0,0.0,0.167389150229,1.81270436264,-0.230155502051,0.784278145291,-0.540126605266,0.00644111625397
9978000000,ocean_waves,wamv,0.0,0.0,0.0,0.0,0.0,0.0,1.0,0.00664502175057,1.92174144154,1.56212696555,-0.0143348327115,-0.0295190390547,0.686088852032,0.726777287772,0.0,0.0,0.0,0.0,0.0,0.0,0.166968207493,1.81301615497,-0.23720108566,0.784008292544,-0.538812922461,0.00628189679102
9979000000,ocean_waves,wamv,0.0,0.0,0.0,0.0,0.0,0.0,1.0,0.00681156795057,1.92355476857,1.56188263417,-0.0142343267243,-0.0299832430465,0.686075580579,0.726772788988,0.0,0.0,0.0,0.0,0.0,0.0,0.16654155325,1.81332156383,-0.244216381681,0.783715936151,-0.53747990985,0.0061246034815
9980000000,ocean_waves,wamv,0.0,0.0,0.0,0.0,0.0,0.0,1.0,0.00697768169009,1.92536839473,1.56163131868,-0.0141334701812,-0.0304468395371,0.686062112291,0.726768197613,0.0,0.0,0.0,0.0,0.0,0.0,0.166109063444,1.81362060622,-0.251200748929,0.783401068971,-0.536127019194,0.00596927190803
9981000000,ocean_waves,wamv,0.0,0.0,0.0,0.0,0.0,0.0,1.0,0.00714335700534,1.92718231367,1.56137305065,-0.0140322643027,-0.0309098133175,0.686048448728,0.726763513805,0.0,0.0,0.0,0.0,0.0,0.0,0.165670610419,1.81391329927,-0.25815354479,0.783063682981,-0.534753703828,0.00581593074301
9982000000,ocean_waves,wamv,0.0,0.0,0.0,0.0,0.0,0.0,1.0,0.00730858780181,1.92899651906,1.5611078623,-0.0139307101267,-0.0313721489793,0.686034591474,0.726758737742,0.0,0.0,0.0,0.0,0.0,0.0,0.165226063474,1.81419965965,-0.265074138658,0.782703766813,-0.533359421929,0.00566460189241
9983000000,ocean_waves,wamv,0.0,0.0,0.0,0.0,0.0,0.0,1.0,0.00747336784675,1.93081100459,1.56083578647,-0.0138288085051,-0.0318338309102,0.686020542144,0.72675386963,0.0,0.0,0.0,0.0,0.0,0.0,0.164775284417,1.8144797041,-0.271961899544,0.782321307907,-0.531943620117,0.00551530109192
9984000000,ocean_waves,wamv,0.0,0.0,0.0,0.0,0.0,0.0,1.0,0.0076376907683,1.93262576394,1.56055685661,-0.0137265601092,-0.032294843298,0.686006302375,0.726748909697,0.0,0.0,0.0,0.0,0.0,0.0,0.1643181341,1.81475344912,-0.278816203881,0.781916291294,-0.530505758264,0.00536803833937
9985000000,ocean_waves,wamv,0.0,0.0,0.0,0.0,0.0,0.0,1.0,0.00780155004846,1.93444079085,1.56027110681,-0.0136239654257,-0.0327551701277,0.685991873829,0.726743858204,0.0,0.0,0.0,0.0,0.0,0.0,0.163854466454,1.81502091224,-0.285636432416,0.781488704468,-0.529045286144,0.00522281895292
9986000000,ocean_waves,wamv,0.0,0.0,0.0,0.0,0.0,0.0,1.0,0.0079649390234,1.93625607903,1.55997857177,-0.0135210247629,-0.0332147951866,0.685977258188,0.72673871544,0.0,0.0,0.0,0.0,0.0,0.0,0.163384135623,1.81528211069,-0.292421974777,0.781038532397,-0.527561669573,0.00507964421862
9987000000,ocean_waves,wamv,0.0,0.0,0.0,0.0,0.0,0.0,1.0,0.00812785087874,1.93807162225,1.55967928678,-0.0134177382491,-0.0336737020629,0.685962457155,0.726733481727,0.0,0.0,0.0,0.0,0.0,0.0,0.162906991098,1.81553706232,-0.299172224084,0.780565761073,-0.526054370437,0.00493851261106
9987000000,ocean_waves,wamv,0.0,0.0,0.0,0.0,0.0,0.0,1.0,0.00829027864669,1.93988741428,1.55937328776,-0.013314105833,-0.0341318741468,0.685947472454,0.72672815742,0.0,0.0,0.0,0.0,0.0,0.0,0.162422879486,1.81578578533,-0.30588657011,0.780070376494,-0.52452285175,0.00479942077941
9989000000,ocean_waves,wamv,0.0,0.0,0.0,0.0,0.0,0.0,1.0,0.00845221520444,1.9417034489,1.55906061121,-0.0132101272839,-0.0345892946328,0.685932305825,0.726722742908,0.0,0.0,0.0,0.0,0.0,0.0,0.161931645773,1.81602829946,-0.312564415332,0.779552369439,-0.522966580736,0.00466236457995
9990000000,ocean_waves,wamv,0.0,0.0,0.0,0.0,0.0,0.0,1.0,0.00861365327269,1.94351971993,1.55874129424,-0.0131058021918,-0.0350459465218,0.685916959029,0.726717238613,0.0,0.0,0.0,0.0,0.0,0.0,0.161433133487,1.81626462479,-0.319205164325,0.7790117308,-0.521385027476,0.00452734004699
9991000000,ocean_waves,wamv,0.0,0.0,0.0,0.0,0.0,0.0,1.0,0.00877458541589,1.94533622119,1.55841537453,-0.0130011299686,-0.0355018126248,0.685901433848,0.726711644991,0.0,0.0,0.0,0.0,0.0,0.0,0.160927186407,1.81649478309,-0.325808225216,0.778448457044,-0.51977766958,0.00439434431281
9992000000,ocean_waves,wamv,0.0,0.0,0.0,0.0,0.0,0.0,1.0,0.00893500404066,1.94715294655,1.55808289039,-0.0128961098474,-0.0359568755634,0.685885732082,0.72670596253,0.0,0.0,0.0,0.0,0.0,0.0,0.16041364671,1.81671879637,-0.33237300456,0.777862544526,-0.51814398314,0.00426337654015
9993000000,ocean_waves,wamv,0.0,0.0,0.0,0.0,0.0,0.0,1.0,0.00909490139889,1.94896988987,1.55774388069,-0.0127907408851,-0.0364111177764,0.685869855551,0.726700191755,0.0,0.0,0.0,0.0,0.0,0.0,0.159892359693,1.81693668862,-0.338898916419,0.777253996442,-0.516483459,0.00413443855009
9994000000,ocean_waves,wamv,0.0,0.0,0.0,0.0,0.0,0.0,1.0,0.00925426958537,1.95078704507,1.55739838487,-0.012685021958,-0.0368645215194,0.685853806098,0.726694333218,0.0,0.0,0.0,0.0,0.0,0.0,0.159363168265,1.81714848506,-0.345385376901,0.77662281988,-0.514795579804,0.00400753581521
9995000000,ocean_waves,wamv,0.0,0.0,0.0,0.0,0.0,0.0,1.0,0.0094131005413,1.95260440607,1.557046443,-0.0125789517652,-0.0373170688694,0.685837585591,0.726688387505,0.0,0.0,0.0,0.0,0.0,0.0,0.158825918848,1.81735421172,-0.351831798258,0.775969024435,-0.513079840813,0.00388267779871
9996000000,ocean_waves,wamv,0.0,0.0,0.0,0.0,0.0,0.0,1.0,0.00957138605492,1.95442196682,1.5566880957,-0.0124725288243,-0.0377687417292,0.685821195918,0.72668235523,0.0,0.0,0.0,0.0,0.0,0.0,0.158280458508,1.81755389774,-0.358237602893,0.775292631179,-0.511335737241,0.00375987876703
9997000000,ocean_waves,wamv,0.0,0.0,0.0,0.0,0.0,0.0,1.0,0.00972911776476,1.95623972132,1.55632338416,-0.0123657514734,-0.0382195218311,0.685804638996,0.726676237036,0.0,0.0,0.0,0.0,0.0,0.0,0.157726637545,1.81774757298,-0.364602205438,0.774593663493,-0.509562772366,0.00363915809088
9998000000,ocean_waves,wamv,0.0,0.0,0.0,0.0,0.0,0.0,1.0,0.00988628716173,1.95805766359,1.55595235019,-0.0122586178686,-0.0386693907404,0.685787916771,0.726670033591,0.0,0.0,0.0,0.0,0.0,0.0,0.157164308354,1.81793526948,-0.370925027313,0.773872152752,-0.507760451494,0.00352054081919
9999000000,ocean_waves,wamv,0.0,0.0,0.0,0.0,0.0,0.0,1.0,0.0100428855929,1.95987578768,1.55557503615,-0.0121511259834,-0.0391183298604,0.685771031216,0.726663745587,0.0,0.0,0.0,0.0,0.0,0.0,0.156593327076,1.81811702119,-0.377205484233,0.773128137635,-0.505928286542,0.00340405798133
10000000000,ocean_waves,wamv,0.0,0.0,0.0,0.0,0.0,0.0,1.0,0.0101989042647,1.96169408769,1.555191485,-0.0120432736069,-0.0395663204369,0.685753984338,0.726657373742,0.0,0.0,0.0,0.0,0.0,0.0,0.156013553176,1.81829286445,-0.383442993394,0.772361665895,-0.504065792701,0.00328974697662
10001000000,ocean_waves,wamv,0.0,0.0,0.0,0.0,0.0,0.0,1.0,0.0103543342468,1.96351255773,1.55480174028,-0.0119350583406,-0.0400133435622,0.685736778175,0.726650918789,0.0,0.0,0.0,0.0,0.0,0.0,0.155424849788,1.81846283788,-0.389636967779,0.771572794244,-0.502172488027,0.00317765184673
10002000000,ocean_waves,wamv,0.0,0.0,0.0,0.0,0.0,0.0,1.0,0.0105091664763,1.96533119198,1.55440584613,-0.0118264775966,-0.0404593801801,0.685719414804,0.726644381486,0.0,0.0,0.0,0.0,0.0,0.0,0.154827084467,1.81862698271,-0.395786816101,0.770761589608,-0.500247894596,0.00306782346492
10003000000,ocean_waves,wamv,0.0,0.0,0.0,0.0,0.0,0.0,1.0,0.0106633917595,1.96714998465,1.55400384727,-0.0117175285904,-0.0409044110868,0.685701896337,0.726637762601,0.0,0.0,0.0,0.0,0.0,0.0,0.154220126382,1.8187853428,-0.401891944544,0.769928129571,-0.498291526079,0.00296031989579
10004000000,ocean_waves,wamv,0.0,0.0,0.0,0.0,0.0,0.0,1.0,0.0108170007778,1.96896893001,1.55359578904,-0.011608208339,-0.0413484169362,0.685684224929,0.72663106292,0.0,0.0,0.0,0.0,0.0,0.0,0.153603850485,1.8189379645,-0.407951745391,0.769072501861,-0.496302902194,0.00285520616979
10005000000,ocean_waves,wamv,0.0,0.0,0.0,0.0,0.0,0.0,1.0,0.0109699840908,1.97078802237,1.55318171737,-0.0114985136536,-0.041791378245,0.685666402774,0.726624283241,0.0,0.0,0.0,0.0,0.0,0.0,0.152978135253,1.81908489833,-0.413965609096,0.768194811065,-0.494281538696,0.00275255445994
10006000000,ocean_waves,wamv,0.0,0.0,0.0,0.0,0.0,0.0,1.0,0.01112233214,1.97260725608,1.55276167885,-0.0113884411314,-0.0422332753951,0.685648432114,0.72661742437,0.0,0.0,0.0,0.0,0.0,0.0,0.152342862477,1.81922619852,-0.41993291265,0.767295177118,-0.492226945433,0.00265244392642
10007000000,ocean_waves,wamv,0.0,0.0,0.0,0.0,0.0,0.0,1.0,0.01127403525,1.97442662558,1.55233572067,-0.0112779871449,-0.0426740886342,0.685630315233,0.726610487124,0.0,0.0,0.0,0.0,0.0,0.0,0.151697915208,1.81936192308,-0.425853013174,0.766373735664,-0.490138617622,0.00255496058286
10008000000,ocean_waves,wamv,0.0,0.0,0.0,0.0,0.0,0.0,1.0,0.0114250836291,1.97624612535,1.55190389072,-0.0111671478281,-0.0431137980769,0.685612054467,0.726603472325,0.0,0.0,0.0,0.0,0.0,0.0,0.151043177135,1.81949213527,-0.43172524421,0.765430643938,-0.488016033101,0.00246019695483
10009000000,ocean_waves,wamv,0.0,0.0,0.0,0.0,0.0,0.0,1.0,0.0115754673673,1.97806574994,1.55146623756,-0.011055919056,-0.0435523837049,0.685593652197,0.726596380802,0.0,0.0,0.0,0.0,0.0,0.0,0.150378530161,1.81961690554,-0.437548912492,0.764466088682,-0.485858643132,0.00236825174051
10010000000,ocean_waves,wamv,0.0,0.0,0.0,0.0,0.0,0.0,1.0,0.0117251764277,1.97988549399,1.55102281051,-0.0109442964132,-0.0439898253605,0.685575110858,0.726589213389,0.0,0.0,0.0,0.0,0.0,0.0,0.149703847155,1.8197363134,-0.443323276619,0.763480293477,-0.48366584519,0.00227922972918
10011000000,ocean_waves,wamv,0.0,0.0,0.0,0.0,0.0,0.0,1.0,0.0118742006318,1.98170535224,1.5505736597,-0.0108322751486,-0.0444261027385,0.685556432935,0.726581970925,0.0,0.0,0.0,0.0,0.0,0.0,0.149018986639,1.81985045172,-0.449047512634,0.762473535866,-0.481436963807,0.0021932415467
10012000000,ocean_waves,wamv,0.0,0.0,0.0,0.0,0.0,0.0,1.0,0.0120225296214,1.98352531952,1.55011883623,-0.0107198500804,-0.044861195364,0.685537620965,0.726574654255,0.0,0.0,0.0,0.0,0.0,0.0,0.148323768946,1.81995944049,-0.454720656913,0.761446201687,-0.479171160975,0.00211040532361
10012000000,ocean_waves,wamv,0.0,0.0,0.0,0.0,0.0,0.0,1.0,0.0121701527013,1.98534539091,1.54965839271,-0.0106070152488,-0.0452950824969,0.685518677541,0.726567264244,0.0,0.0,0.0,0.0,0.0,0.0,0.147617857092,1.82006349396,-0.460341196196,0.760399049516,-0.476866981751,0.00203085932956
10012000000,ocean_waves,wamv,0.0,0.0,0.0,0.0,0.0,0.0,1.0,0.0123170589785,1.9871655616,1.5491923828,-0.0104937642058,-0.0457277432146,0.685499605307,0.726559801762,0.0,0.0,0.0,0.0,0.0,0.0,0.146901053121,1.82016274733,-0.465908079834,0.759332530607,-0.474523491569,0.00195472762844
10015000000,ocean_waves,wamv,0.0,0.0,0.0,0.0,0.0,0.0,1.0,0.0124632376275,1.98898582676,1.54872086034,-0.0103800905799,-0.046159156575,0.685480406955,0.726552267676,0.0,0.0,0.0,0.0,0.0,0.0,0.146173424796,1.82025718346,-0.471421142124,0.758246499118,-0.472140766607,0.00188210225864
10016000000,ocean_waves,wamv,0.0,0.0,0.0,0.0,0.0,0.0,1.0,0.0126086778928,1.99080618158,1.54824387931,-0.0102659880777,-0.0465893016184,0.685461085224,0.726544662844,0.0,0.0,0.0,0.0,0.0,0.0,0.145435041862,1.82034678542,-0.476880224281,0.757140809309,-0.469718888405,0.00181307086703
10017000000,ocean_waves,wamv,0.0,0.0,0.0,0.0,0.0,0.0,1.0,0.012753369089,1.99262662119,1.54776149384,-0.0101514504858,-0.0470181573669,0.685441642898,0.726536988124,0.0,0.0,0.0,0.0,0.0,0.0,0.144685974511,1.82043153562,-0.482285169262,0.756015312083,-0.467257941601,0.0017477154509
10018000000,ocean_waves,wamv,0.0,0.0,0.0,0.0,0.0,0.0,1.0,0.0128973006013,1.99444714072,1.54727375825,-0.0100364716748,-0.0474457028272,0.685422082802,0.726529244372,0.0,0.0,0.0,0.0,0.0,0.0,0.143926293435,1.82051141618,-0.487635825267,0.754869856326,-0.464758017969,0.00168611114768
10019000000,ocean_waves,wamv,0.0,0.0,0.0,0.0,0.0,0.0,1.0,0.013040461886,1.99626773529,1.54678072696,-0.00992104560096,-0.0478719169945,0.6854024078,0.726521432443,0.0,0.0,0.0,0.0,0.0,0.0,0.143156069655,1.82058641047,-0.49293205727,0.753704294775,-0.462219219357,0.00162832528648
10021000000,ocean_waves,wamv,0.0,0.0,0.0,0.0,0.0,0.0,1.0,0.0131828424683,1.99808839998,1.54628245453,-0.00980516631075,-0.048296778852,0.685382620795,0.726513553197,0.0,0.0,0.0,0.0,0.0,0.0,0.142375371999,1.82065650015,-0.498173724522,0.752518472221,-0.459641651026,0.00157441675822
10022000000,ocean_waves,wamv,0.0,0.0,0.0,0.0,0.0,0.0,1.0,0.0133244319391,1.99990912987,1.54577899568,-0.00968882794099,-0.0487202673721,0.685362724718,0.726505607499,0.0,0.0,0.0,0.0,0.0,0.0,0.141584266331,1.82072166782,-0.503360699794,0.751312235967,-0.457025421444,0.00152443572005
10022000000,ocean_waves,wamv,0.0,0.0,0.0,0.0,0.0,0.0,1.0,0.0134652199534,2.00172992003,1.54527040521,-0.00957202472344,-0.0491423615189,0.685342722533,0.726497596223,0.0,0.0,0.0,0.0,0.0,0.0,0.14078281661,1.82078189565,-0.50849285882,0.750085430118,-0.454370648335,0.00147842324563
10023000000,ocean_waves,wamv,0.0,0.0,0.0,0.0,0.0,0.0,1.0,0.0136051962237,2.00355076549,1.54475673808,-0.00945475098235,-0.049563040246,0.685322617228,0.726489520255,0.0,0.0,0.0,0.0,0.0,0.0,0.139971080309,1.82083716633,-0.513570085316,0.748837899427,-0.451677442397,0.00143641197445
10024000000,ocean_waves,wamv,0.0,0.0,0.0,0.0,0.0,0.0,1.0,0.0137443505199,2.00537166128,1.54423804932,-0.00933700114103,-0.0499822825032,0.685302411816,0.726481380495,0.0,0.0,0.0,0.0,0.0,0.0,0.139149114965,1.820887463,-0.518592271881,0.747569488983,-0.448945933303,0.00139842579287
10025000000,ocean_waves,wamv,0.0,0.0,0.0,0.0,0.0,0.0,1.0,0.0138826726649,2.00719260241,1.54371439408,-0.00921876972299,-0.0504000672363,0.685282109327,0.726473177856,0.0,0.0,0.0,0.0,0.0,0.0,0.138316973484,1.82093276873,-0.523559313223,0.746280041974,-0.446176251566,0.00136448095263
10026000000,ocean_waves,wamv,0.0,0.0,0.0,0.0,0.0,0.0,1.0,0.0140201525292,2.00901358386,1.54318582762,-0.00910005135013,-0.0508163733875,0.685261712811,0.726464913273,0.0,0.0,0.0,0.0,0.0,0.0,0.137474703501,1.82097306782,-0.528471114762,0.744969405011,-0.443368525578,0.00133458704639
10027000000,ocean_waves,wamv,0.0,0.0,0.0,0.0,0.0,0.0,1.0,0.0141567800304,2.01083460062,1.54265240526,-0.00898084074798,-0.0512311799009,0.685241225332,0.726456587699,0.0,0.0,0.0,0.0,0.0,0.0,0.13662235216,1.82100834503,-0.533327587429,0.743637425085,-0.440522899033,0.00130874741558
10028000000,ocean_waves,wamv,0.0,0.0,0.0,0.0,0.0,0.0,1.0,0.0142925451273,2.01265564764,1.54211418244,-0.00886113274329,-0.0516444657196,0.685220649967,0.726448202108,0.0,0.0,0.0,0.0,0.0,0.0,0.135759960533,1.82103858543,-0.538128643286,0.742283948904,-0.437639507904,0.00128696087343
10029000000,ocean_waves,wamv,0.0,0.0,0.0,0.0,0.0,0.0,1.0,0.0144274378215,2.01447671987,1.54157121464,-0.00874092227029,-0.0520562097947,0.685199989806,0.726439757495,0.0,0.0,0.0,0.0,0.0,0.0,0.134887571472,1.82106377514,-0.542874202816,0.74090882601,-0.434718509182,0.00126922194082
10030000000,ocean_waves,wamv,0.0,0.0,0.0,0.0,0.0,0.0,1.0,0.0145614481532,2.01629781225,1.54102355744,-0.008620204367,-0.0524663910854,0.685179247948,0.726431254879,0.0,0.0,0.0,0.0,0.0,0.0,0.134005223639,1.82108390228,-0.547564198807,0.739511912619,-0.431760055936,0.00125552272382
10031000000,ocean_waves,wamv,0.0,0.0,0.0,0.0,0.0,0.0,1.0,0.0146945662015,2.0181189197,1.54047126649,-0.00849897417983,-0.0528749885629,0.685158427501,0.7264226953,0.0,0.0,0.0,0.0,0.0,0.0,0.133112955897,1.82109895473,-0.552198560165,0.738093062732,-0.428764312237,0.00124585339705
10032000000,ocean_waves,wamv,0.0,0.0,0.0,0.0,0.0,0.0,1.0,0.0148267820832,2.01994003714,1.53991439747,-0.00837722696342,-0.0532819812131,0.685137531583,0.726414079821,0.0,0.0,0.0,0.0,0.0,0.0,0.13221080597,1.82110892171,-0.556777222375,0.73665213459,-0.425731446046,0.00124020347474
10033000000,ocean_waves,wamv,0.0,0.0,0.0,0.0,0.0,0.0,1.0,0.0149580859552,2.02176115947,1.53935300617,-0.00825495808417,-0.0536873480434,0.685116563321,0.726405409527,0.0,0.0,0.0,0.0,0.0,0.0,0.131298813876,1.82111379386,-0.561300128328,0.735188991043,-0.422661640557,0.00123856234501
10034000000,ocean_waves,wamv,0.0,0.0,0.0,0.0,0.0,0.0,1.0,0.0150884680134,2.02358228157,1.53878714838,-0.00813216301808,-0.0540910680858,0.68509552585,0.726396685523,0.0,0.0,0.0,0.0,0.0,0.0,0.130377018682,1.82111356369,-0.565767229869,0.733703501514,-0.419555079716,0.00124092057975
10035000000,ocean_waves,wamv,0.0,0.0,0.0,0.0,0.0,0.0,1.0,0.015217918497,2.02540339836,1.53821687996,-0.00800883735688,-0.0544931204032,0.685074422314,0.726387908933,0.0,0.0,0.0,0.0,0.0,0.0,0.129445463584,1.82110822403,-0.570178477323,0.732195535918,-0.416411966,0.00124727000306
10036000000,ocean_waves,wamv,0.0,0.0,0.0,0.0,0.0,0.0,1.0,0.0153464276874,2.02722450469,1.53764225681,-0.00788497680408,-0.054893484092,0.685053255866,0.726379080902,0.0,0.0,0.0,0.0,0.0,0.0,0.128504191037,1.82109777014,-0.574533832486,0.730664973002,-0.413232499821,0.00125760511844
10037000000,ocean_waves,wamv,0.0,0.0,0.0,0.0,0.0,0.0,1.0,0.0154739859126,2.02904559547,1.53706333488,-0.0077605771796,-0.0552921382869,0.685032029672,0.726370202589,0.0,0.0,0.0,0.0,0.0,0.0,0.127553247186,1.82108219726,-0.578833251766,0.729111690886,-0.410016894857,0.00127192305116
10038000000,ocean_waves,wamv,0.0,0.0,0.0,0.0,0.0,0.0,1.0,0.0156005835517,2.03086666556,1.53648017013,-0.00763563442258,-0.0556890621703,0.685010746905,0.726361275169,0.0,0.0,0.0,0.0,0.0,0.0,0.126592683529,1.82106150305,-0.583076704481,0.727535576982,-0.406765382956,0.0012902239616
10039000000,ocean_waves,wamv,0.0,0.0,0.0,0.0,0.0,0.0,1.0,0.0157262110347,2.03268770983,1.53589281856,-0.00751014458703,-0.0560842349714,0.684989410755,0.726352299831,0.0,0.0,0.0,0.0,0.0,0.0,0.125622550843,1.82103568649,-0.587264161702,0.725936523467,-0.403478188781,0.00131251231193
10040000000,ocean_waves,wamv,0.0,0.0,0.0,0.0,0.0,0.0,1.0,0.0158508588516,2.03450872317,1.5353013362,-0.0073841038503,-0.0564776359788,0.684968024421,0.726343277773,0.0,0.0,0.0,0.0,0.0,0.0,0.124642909066,1.8210047477,-0.591395598401,0.72431442692,-0.400155566571,0.00133879591127
10041000000,ocean_waves,wamv,0.0,0.0,0.0,0.0,0.0,0.0,1.0,0.0159745175541,2.03632970046,1.53470577909,-0.00725750851024,-0.0568692445422,0.684946591118,0.726334210203,0.0,0.0,0.0,0.0,0.0,0.0,0.123653819995,1.82096868854,-0.595470994963,0.722669190744,-0.396797770104,0.00136908730655
10042000000,ocean_waves,wamv,0.0,0.0,0.0,0.0,0.0,0.0,1.0,0.0160971777613,2.03815063656,1.53410620329,-0.00713035498726,-0.0572590400786,0.684925114077,0.726325098337,0.0,0.0,0.0,0.0,0.0,0.0,0.122655350767,1.82092751208,-0.599490334339,0.721000723179,-0.393405064588,0.00140340357099
10043000000,ocean_waves,wamv,0.0,0.0,0.0,0.0,0.0,0.0,1.0,0.0162188301667,2.03997152638,1.53350266488,-0.00700263982796,-0.0576470020808,0.684903596546,0.726315943392,0.0,0.0,0.0,0.0,0.0,0.0,0.121647575976,1.82088122293,-0.603453605668,0.719308938997,-0.389977733278,0.00144176623439
10044000000,ocean_waves,wamv,0.0,0.0,0.0,0.0,0.0,0.0,1.0,0.0163394655436,2.0417923648,1.53289521994,-0.00687435970647,-0.0580331101215,0.684882041791,0.726306746589,0.0,0.0,0.0,0.0,0.0,0.0,0.120630575454,1.82082982648,-0.607360797466,0.717593756286,-0.386516067268,0.00148420171035
10045000000,ocean_waves,wamv,0.0,0.0,0.0,0.0,0.0,0.0,1.0,0.0164590747498,2.04361314672,1.53228392456,-0.00674551142268,-0.0584173438577,0.684860453097,0.726297509149,0.0,0.0,0.0,0.0,0.0,0.0,0.119604433611,1.82077333002,-0.611211906275,0.715855101177,-0.383020361522,0.00153074151326
10046000000,ocean_waves,wamv,0.0,0.0,0.0,0.0,0.0,0.0,1.0,0.0165776487365,2.04543386704,1.53166883481,-0.00661609190643,-0.0587996830393,0.684838833772,0.726288232288,0.0,0.0,0.0,0.0,0.0,0.0,0.118569243751,1.82071174218,-0.615006934978,0.714092905998,-0.379490930374,0.00158142154145
10048000000,ocean_waves,wamv,0.0,0.0,0.0,0.0,0.0,0.0,1.0,0.0166951785553,2.04725452068,1.53105000679,-0.00648609822097,-0.059180107514,0.684817187144,0.726278917219,0.0,0.0,0.0,0.0,0.0,0.0,0.11752510632,1.82064507167,-0.618745882974,0.712307104051,-0.375928099578,0.00163628209286
10048000000,ocean_waves,wamv,0.0,0.0,0.0,0.0,0.0,0.0,1.0,0.0168116553662,2.04907510257,1.53042749656,-0.00635552756509,-0.0595585972348,0.684795516566,0.726269565145,0.0,0.0,0.0,0.0,0.0,0.0,0.116472129765,1.82057332869,-0.622428758273,0.710497635579,-0.372332209023,0.00169536747047
10049000000,ocean_waves,wamv,0.0,0.0,0.0,0.0,0.0,0.0,1.0,0.0169270704422,2.05089560765,1.5298013602,-0.00622437727089,-0.0599351322616,0.684773825414,0.726260177262,0.0,0.0,0.0,0.0,0.0,0.0,0.115410427,1.82049652458,-0.626055574761,0.708664446456,-0.368703598572,0.00175872603415
10050000000,ocean_waves,wamv,0.0,0.0,0.0,0.0,0.0,0.0,1.0,0.0170414151801,2.05271603085,1.52917165374,-0.00609264481213,-0.0603096927707,0.684752117089,0.726250754753,0.0,0.0,0.0,0.0,0.0,0.0,0.11434012184,1.82041467057,-0.629626346061,0.706807483099,-0.365042633218,0.00182640846964
10051000000,ocean_waves,wamv,0.0,0.0,0.0,0.0,0.0,0.0,1.0,0.0171546811063,2.05453636715,1.52853843322,-0.00596032780367,-0.0606822590588,0.684730395019,0.726241298788,0.0,0.0,0.0,0.0,0.0,0.0,0.113261343722,1.82032777906,-0.633141095348,0.704926698012,-0.361349683215,0.00189846782697
10052000000,ocean_waves,wamv,0.0,0.0,0.0,0.0,0.0,0.0,1.0,0.0172668598832,2.05635661152,1.52790175463,-0.00582742400463,-0.0610528115475,0.684708662654,0.726231810525,0.0,0.0,0.0,0.0,0.0,0.0,0.112174228922,1.8202358626,-0.636599849064,0.703022045395,-0.357625130004,0.00197495825509
10053000000,ocean_waves,wamv,0.0,0.0,0.0,0.0,0.0,0.0,1.0,0.0173779433139,2.05817675894,1.52726167394,-0.00569393131861,-0.0614213307845,0.684686923473,0.726222291104,0.0,0.0,0.0,0.0,0.0,0.0,0.111078917824,1.8201389338,-0.640002636984,0.701093480844,-0.353869357354,0.00205593425591
10054000000,ocean_waves,wamv,0.0,0.0,0.0,0.0,0.0,0.0,1.0,0.0174879233497,2.05999680442,1.52661824708,-0.00555984780035,-0.0617877974509,0.684665180977,0.726212741651,0.0,0.0,0.0,0.0,0.0,0.0,0.109975558698,1.82003700498,-0.64334949279,0.699140960088,-0.350082768465,0.00214144872262
10055000000,ocean_waves,wamv,0.0,0.0,0.0,0.0,0.0,0.0,1.0,0.0175967920914,2.06181674295,1.52597152996,-0.00542517165375,-0.0621521923607,0.684643438691,0.726203163278,0.0,0.0,0.0,0.0,0.0,0.0,0.108864301175,1.81993008878,-0.64664045751,0.697164441176,-0.34626576342,0.0022315526179
10056000000,ocean_waves,wamv,0.0,0.0,0.0,0.0,0.0,0.0,1.0,0.0177045417959,2.06363656957,1.5253215784,-0.00528990123773,-0.0625144964683,0.684621700162,0.72619355708,0.0,0.0,0.0,0.0,0.0,0.0,0.107745301037,1.81981819813,-0.649875582479,0.695163884371,-0.342418761194,0.00232629270485
10057000000,ocean_waves,wamv,0.0,0.0,0.0,0.0,0.0,0.0,1.0,0.0178111648756,2.06545627932,1.5246684482,-0.00515403506698,-0.0628746908666,0.684599968954,0.726183924139,0.0,0.0,0.0,0.0,0.0,0.0,0.106618714023,1.81970134482,-0.653054917607,0.693139246246,-0.338542178941,0.00242571106464
10058000000,ocean_waves,wamv,0.0,0.0,0.0,0.0,0.0,0.0,1.0,0.0179166539013,2.06727586723,1.5240121951,-0.00501757181622,-0.0632327567915,0.684578248653,0.726174265526,0.0,0.0,0.0,0.0,0.0,0.0,0.105484698476,1.81957954056,-0.656178521112,0.691090483794,-0.334636446131,0.00252984332061
10059000000,ocean_waves,wamv,0.0,0.0,0.0,0.0,0.0,0.0,1.0,0.0180210016001,2.06909532837,1.52335287476,-0.00488051031874,-0.0635886756216,0.684556542855,0.7261645823,0.0,0.0,0.0,0.0,0.0,0.0,0.10434341053,1.81945279735,-0.659246461462,0.689017555865,-0.330701989394,0.00263871825651
10060000000,ocean_waves,wamv,0.0,0.0,0.0,0.0,0.0,0.0,1.0,0.0181242008543,2.07091465782,1.52269054277,-0.0047428495701,-0.0639424288784,0.684534855169,0.726154875509,0.0,0.0,0.0,0.0,0.0,0.0,0.103195005408,1.81932112605,-0.662258806944,0.686920416993,-0.326739240958,0.00275235650105
10061000000,ocean_waves,wamv,0.0,0.0,0.0,0.0,0.0,0.0,1.0,0.018226244701,2.07273385064,1.52202525465,-0.00460458873093,-0.0642939982316,0.684513189211,0.7261451462,0.0,0.0,0.0,0.0,0.0,0.0,0.102039637977,1.81918453824,-0.66521564065,0.684799025174,-0.322748643992,0.0028707697411
10062000000,ocean_waves,wamv,0.0,0.0,0.0,0.0,0.0,0.0,1.0,0.0183271263257,2.07455290194,1.52135706583,-0.00446572712432,-0.0646433654941,0.684491548602,0.726135395412,0.0,0.0,0.0,0.0,0.0,0.0,0.100877456489,1.81904304481,-0.668117046793,0.682653335658,-0.318730630596,0.00299396128122
10063000000,ocean_waves,wamv,0.0,0.0,0.0,0.0,0.0,0.0,1.0,0.0184268390602,2.07637180681,1.52068603164,-0.00432626423931,-0.0649905126259,0.684469936965,0.726125624185,0.0,0.0,0.0,0.0,0.0,0.0,0.0997086074722,1.81889665681,-0.670963118718,0.680483304505,-0.314685642911,0.00312192503777
10064000000,ocean_waves,wamv,0.0,0.0,0.0,0.0,0.0,0.0,1.0,0.0185253763769,2.07819056038,1.52001220732,-0.00418619972904,-0.0653354217314,0.684448357918,0.726115833557,0.0,0.0,0.0,0.0,0.0,0.0,0.0985332311969,1.81874538521,-0.673753954655,0.678288887424,-0.310614116655,0.0032546464649
10066000000,ocean_waves,wamv,0.0,0.0,0.0,0.0,0.0,0.0,1.0,0.0186227318872,2.08000915777,1.519335648,-0.00404553341622,-0.0656780750645,0.684426815074,0.726106024574,0.0,0.0,0.0,0.0,0.0,0.0,0.0973514668695,1.81858924089,-0.676489658666,0.67607003973,-0.306516502081,0.00339210200265
10066000000,ocean_waves,wamv,0.0,0.0,0.0,0.0,0.0,0.0,1.0,0.0187188993357,2.08182759412,1.5186564087,-0.00390426529003,-0.066018455028,0.684405312038,0.726096198284,0.0,0.0,0.0,0.0,0.0,0.0,0.0961634474598,1.81842823564,-0.679170345619,0.673826720459,-0.302393243773,0.00353426071923
10067000000,ocean_waves,wamv,0.0,0.0,0.0,0.0,0.0,0.0,1.0,0.0188138725962,2.08364586457,1.51797454431,-0.00376239550763,-0.0663565441752,0.684383852404,0.726086355742,0.0,0.0,0.0,0.0,0.0,0.0,0.0949693024025,1.81826238141,-0.681796135169,0.671558889198,-0.298244790611,0.00368108462309
10068000000,ocean_waves,wamv,0.0,0.0,0.0,0.0,0.0,0.0,1.0,0.0189076456662,2.08546396429,1.51729010962,-0.00361992439289,-0.0666923252066,0.684362439748,0.726076498014,0.0,0.0,0.0,0.0,0.0,0.0,0.0937691551394,1.81809168975,-0.684367145323,0.669266503654,-0.294071585033,0.00383253009589
10069000000,ocean_waves,wamv,0.0,0.0,0.0,0.0,0.0,0.0,1.0,0.0190002126669,2.08728188845,1.51660315928,-0.00347685243966,-0.0670257809794,0.684341077635,0.726066626174,0.0,0.0,0.0,0.0,0.0,0.0,0.0925631295908,1.81791617408,-0.686883511791,0.666949529491,-0.289874087144,0.00398854786729
10070000000,ocean_waves,wamv,0.0,0.0,0.0,0.0,0.0,0.0,1.0,0.0190915678372,2.08909963224,1.51591374778,-0.00333318030781,-0.0673568945031,0.684319769607,0.726056741307,0.0,0.0,0.0,0.0,0.0,0.0,0.0913513430981,1.81773584795,-0.689345370335,0.664607932733,-0.285652745254,0.00414908540429
10071000000,ocean_waves,wamv,0.0,0.0,0.0,0.0,0.0,0.0,1.0,0.0191817055316,2.09091719086,1.51522192949,-0.00318890882482,-0.0676856489428,0.684298519191,0.726046844509,0.0,0.0,0.0,0.0,0.0,0.0,0.0901339117195,1.81755072551,-0.691752861509,0.662241681933,-0.281408014806,0.00431408706159
10072000000,ocean_waves,wamv,0.0,0.0,0.0,0.0,0.0,0.0,1.0,0.0192706202199,2.09273455954,1.51452775865,-0.00304403898694,-0.0680120276224,0.68427732989,0.726036936886,0.0,0.0,0.0,0.0,0.0,0.0,0.0889109502796,1.81736082138,-0.694106129092,0.659850747877,-0.277140356647,0.00448349515881
10073000000,ocean_waves,wamv,0.0,0.0,0.0,0.0,0.0,0.0,1.0,0.0193583064864,2.0945517335,1.51383128931,-0.00289857195951,-0.0683360140288,0.68425620519,0.726027019557,0.0,0.0,0.0,0.0,0.0,0.0,0.0876825734525,1.81716615169,-0.696405327345,0.657435107825,-0.272850239403,0.00465725084735
10074000000,ocean_waves,wamv,0.0,0.0,0.0,0.0,0.0,0.0,1.0,0.0194447590289,2.09636870799,1.51313257539,-0.00275250907713,-0.0686575918137,0.68423514855,0.726017093648,0.0,0.0,0.0,0.0,0.0,0.0,0.0864488947697,1.81696673288,-0.698650610627,0.6549947406,-0.268538133601,0.00483529519852
10075000000,ocean_waves,wamv,0.0,0.0,0.0,0.0,0.0,0.0,1.0,0.0195299726556,2.09818547828,1.51243167065,-0.00260585183893,-0.0689767447926,0.684214163413,0.726007160295,0.0,0.0,0.0,0.0,0.0,0.0,0.0852100246338,1.81676258267,-0.700842139361,0.652529630619,-0.264204502074,0.00501757052951
10076000000,ocean_waves,wamv,0.0,0.0,0.0,0.0,0.0,0.0,1.0,0.0196139422905,2.10000203965,1.51172862866,-0.00245860191469,-0.0692934569546,0.684193253197,0.725997220642,0.0,0.0,0.0,0.0,0.0,0.0,0.0839660786348,1.8165537198,-0.702980080937,0.650039767288,-0.259849830843,0.00520401948573
10077000000,ocean_waves,wamv,0.0,0.0,0.0,0.0,0.0,0.0,1.0,0.0196966629713,2.10181838742,1.51102350286,-0.00231076114174,-0.0696077124614,0.684172421299,0.725987275841,0.0,0.0,0.0,0.0,0.0,0.0,0.0827171705015,1.81634016355,-0.705064602239,0.64752514266,-0.255474599713,0.00539458711562
10078000000,ocean_waves,wamv,0.0,0.0,0.0,0.0,0.0,0.0,1.0,0.0197781298527,2.10363451691,1.51031634648,-0.00216233152626,-0.069919495655,0.684151671096,0.725977327047,0.0,0.0,0.0,0.0,0.0,0.0,0.0814634175344,1.81612193512,-0.707095882436,0.64498575768,-0.25107930209,0.00558922043624
10079000000,ocean_waves,wamv,0.0,0.0,0.0,0.0,0.0,0.0,1.0,0.0198583382072,2.10545042346,1.50960721259,-0.00201331524321,-0.0702287910561,0.684131005945,0.725967375419,0.0,0.0,0.0,0.0,0.0,0.0,0.0802049369699,1.81589905504,-0.709074090579,0.642421611127,-0.246664428944,0.0057878695651
10080000000,ocean_waves,wamv,0.0,0.0,0.0,0.0,0.0,0.0,1.0,0.0199372834277,2.10726610245,1.50889615407,-0.00186371463466,-0.0705355833729,0.684110429184,0.725957422118,0.0,0.0,0.0,0.0,0.0,0.0,0.0789418497026,1.81567154708,-0.710999417311,0.63983271626,-0.242230482177,0.00599048760698
10081000000,ocean_waves,wamv,0.0,0.0,0.0,0.0,0.0,0.0,1.0,0.0200149610303,2.10908154927,1.50818322362,-0.00171353221182,-0.0708398575008,0.684089944129,0.725947468304,0.0,0.0,0.0,0.0,0.0,0.0,0.0776742785343,1.81543943388,-0.712872040164,0.637219082734,-0.237777965953,0.00619703117822
10082000000,ocean_waves,wamv,0.0,0.0,0.0,0.0,0.0,0.0,1.0,0.0200913666582,2.11089675934,1.50746847375,-0.00156277065469,-0.07114159853,0.684069554083,0.725937515136,0.0,0.0,0.0,0.0,0.0,0.0,0.0764023507239,1.81520274045,-0.714692151129,0.634580731145,-0.233307395478,0.00640746037292
10083000000,ocean_waves,wamv,0.0,0.0,0.0,0.0,0.0,0.0,1.0,0.0201664960837,2.1127117281,1.50675195678,-0.00141143280978,-0.0714407917473,0.68404926233,0.725927563768,0.0,0.0,0.0,0.0,0.0,0.0,0.0751261954116,1.81496149275,-0.716459945074,0.631917687415,-0.228819285336,0.00662173950494
10084000000,ocean_waves,wamv,0.0,0.0,0.0,0.0,0.0,0.0,1.0,0.0202403452132,2.11452645103,1.50603372483,-0.00125952169275,-0.0717374226391,0.684029072137,0.725917615346,0.0,0.0,0.0,0.0,0.0,0.0,0.073845946465,1.81471571665,-0.718175612513,0.629229978468,-0.2243141592,0.00683983664134
10085000000,ocean_waves,wamv,0.0,0.0,0.0,0.0,0.0,0.0,1.0,0.0203129100936,2.11634092362,1.50531382983,-0.00110704049034,-0.072031476901,0.684008986758,0.72590767101,0.0,0.0,0.0,0.0,0.0,0.0,0.072561744486,1.8144654398,-0.719839355483,0.62651764039,-0.21979255655,0.00706172337862
10086000000,ocean_waves,wamv,0.0,0.0,0.0,0.0,0.0,0.0,1.0,0.0203841869127,2.1181551414,1.50459232349,-0.000953992554623,-0.072322940435,0.683989009435,0.725897731886,0.0,0.0,0.0,0.0,0.0,0.0,0.0712737303772,1.81421069077,-0.721451378179,0.623780714502,-0.215255006048,0.00728737623476
10086000000,ocean_waves,wamv,0.0,0.0,0.0,0.0,0.0,0.0,1.0,0.0204541720067,2.11996909993,1.50386925732,-0.000800381407554,-0.0726117993564,0.683969143393,0.725887799091,0.0,0.0,0.0,0.0,0.0,0.0,0.0699820524419,1.81395149815,-0.723011884015,0.621019244308,-0.210702052386,0.00751677499079
10088000000,ocean_waves,wamv,0.0,0.0,0.0,0.0,0.0,0.0,1.0,0.020522861866,2.12178279478,1.50314468263,-0.000646210741406,-0.0728980399992,0.68394939185,0.725877873725,0.0,0.0,0.0,0.0,0.0,0.0,0.0686868648195,1.81368789179,-0.724521084769,0.61823328043,-0.206134249384,0.00774990289676
10088000000,ocean_waves,wamv,0.0,0.0,0.0,0.0,0.0,0.0,1.0,0.0205902531386,2.12359622159,1.50241865052,-0.000491484418451,-0.0731816489164,0.683929758011,0.725867956871,0.0,0.0,0.0,0.0,0.0,0.0,0.0673883253142,1.81341990115,-0.725979188044,0.615422873896,-0.201552150786,0.00798674674835
10090000000,ocean_waves,wamv,0.0,0.0,0.0,0.0,0.0,0.0,1.0,0.0206563426382,2.12540937598,1.50169121185,-0.00033620647326,-0.0734626128882,0.683910245069,0.725858049595,0.0,0.0,0.0,0.0,0.0,0.0,0.0660865993456,1.81314755707,-0.727386413602,0.612588083733,-0.196956325778,0.00822729561978
10091000000,ocean_waves,wamv,0.0,0.0,0.0,0.0,0.0,0.0,1.0,0.0207211273447,2.12722225365,1.50096241729,-0.000180381107538,-0.0737409189191,0.683890856212,0.725848152942,0.0,0.0,0.0,0.0,0.0,0.0,0.0647818531955,1.81287089072,-0.728742983796,0.6097289725,-0.192347332549,0.00847154170349
10092000000,ocean_waves,wamv,0.0,0.0,0.0,0.0,0.0,0.0,1.0,0.0207846044124,2.12903485029,1.50023231725,-2.40126971545e-05,-0.0740165542438,0.683871594613,0.725838267937,0.0,0.0,0.0,0.0,0.0,0.0,0.0634742612873,1.81258993221,-0.730049116628,0.606845600585,-0.187725747611,0.00871947778529
