%time,field.name0,field.name1,field.pose0.position.x,field.pose0.position.y,field.pose0.position.z,field.pose0.orientation.x,field.pose0.orientation.y,field.pose0.orientation.z,field.pose0.orientation.w,field.pose1.position.x,field.pose1.position.y,field.pose1.position.z,field.pose1.orientation.x,field.pose1.orientation.y,field.pose1.orientation.z,field.pose1.orientation.w,field.twist0.linear.x,field.twist0.linear.y,field.twist0.linear.z,field.twist0.angular.x,field.twist0.angular.y,field.twist0.angular.z,field.twist1.linear.x,field.twist1.linear.y,field.twist1.linear.z,field.twist1.angular.x,field.twist1.angular.y,field.twist1.angular.z
13452000000,ocean_waves,wamv,0.0,0.0,0.0,0.0,0.0,0.0,1.0,1.05294417483,9.60078125467,-0.622682269535,0.0334786258577,-0.00239446971161,0.652648074035,0.75691739284,0.0,0.0,0.0,0.0,0.0,0.0,0.253517394646,2.10495992199,0.568453613044,-0.537247993403,0.134991764133,-0.00267716500647
13452000000,ocean_waves,wamv,0.0,0.0,0.0,0.0,0.0,0.0,1.0,1.05320065861,9.60288609141,-0.622109810144,0.0333152114397,-0.00217209433334,0.652645507574,0.75692748671,0.0,0.0,0.0,0.0,0.0,0.0,0.256483077539,2.10483464249,0.572498185254,-0.538311742757,0.12355555961,-0.0029536247779
13452000000,ocean_waves,wamv,0.0,0.0,0.0,0.0,0.0,0.0,1.0,1.05346012127,9.60499080532,-0.621533347277,0.0331476477627,-0.00195372635998,0.652642981493,0.756937616392,0.0,0.0,0.0,0.0,0.0,0.0,0.259461990016,2.10471178756,0.576501460597,-0.539364851218,0.112070403706,-0.00322428157963
13452000000,ocean_waves,wamv,0.0,0.0,0.0,0.0,0.0,0.0,1.0,1.05372257582,9.60709539883,-0.620952921513,0.0329759232374,-0.00173938743613,0.652640497944,0.756947781199,0.0,0.0,0.0,0.0,0.0,0.0,0.262453904392,2.10459136319,0.580464190226,-0.540407289257,0.10053714576,-0.00348910559159
13452000000,ocean_waves,wamv,0.0,0.0,0.0,0.0,0.0,0.0,1.0,1.05398803504,9.60919987438,-0.620368572668,0.0328000265633,-0.00152909889275,0.65263805901,0.75695798037,0.0,0.0,0.0,0.0,0.0,0.0,0.26545859328,2.10447337605,0.584387134321,-0.541439023618,0.0889566429719,-0.0037480628694
13452000000,ocean_waves,wamv,0.0,0.0,0.0,0.0,0.0,0.0,1.0,1.05425651146,9.61130423441,-0.619780339797,0.0326199467302,-0.0013228817499,0.652635666706,0.756968213073,0.0,0.0,0.0,0.0,0.0,0.0,0.268475832957,2.10435783395,0.588271055991,-0.542460015333,0.0773297502596,-0.00400111497996
13453000000,ocean_waves,wamv,0.0,0.0,0.0,0.0,0.0,0.0,1.0,1.05452801743,9.61340848137,-0.619188261183,0.0324356730214,-0.00112075671546,0.652633322978,0.756978478399,0.0,0.0,0.0,0.0,0.0,0.0,0.271505401622,2.10424474519,0.592116727066,-0.543470221562,0.065657329231,-0.00424821844684
13453000000,ocean_waves,wamv,0.0,0.0,0.0,0.0,0.0,0.0,1.0,1.05480256505,9.61551261774,-0.618592374334,0.0322471950152,-0.000922744187903,0.652631029709,0.756988775358,0.0,0.0,0.0,0.0,0.0,0.0,0.274547082269,2.10413411896,0.595924922247,-0.544469594004,0.0539402388451,-0.0044893248476
13455000000,ocean_waves,wamv,0.0,0.0,0.0,0.0,0.0,0.0,1.0,1.05508016622,9.61761664598,-0.617992715979,0.0320545025877,-0.000728864257145,0.652628788715,0.75699910288,0.0,0.0,0.0,0.0,0.0,0.0,0.27760066166,2.10402596527,0.599696422553,-0.545458079031,0.0421793403829,-0.00472438084849
13456000000,ocean_waves,wamv,0.0,0.0,0.0,0.0,0.0,0.0,1.0,1.05536083262,9.61972056858,-0.617389322061,0.0318575859141,-0.000539136704319,0.65262660175,0.757009459809,0.0,0.0,0.0,0.0,0.0,0.0,0.280665930486,2.10392029398,0.603432013745,-0.546435621282,0.030375497208,-0.00495332857855
13458000000,ocean_waves,wamv,0.0,0.0,0.0,0.0,0.0,0.0,1.0,1.05564457574,9.62182438803,-0.616782227729,0.0316564354731,-0.000353581001722,0.652624470503,0.757019844902,0.0,0.0,0.0,0.0,0.0,0.0,0.283742682378,2.10381711607,0.607132490393,-0.547402159029,0.0185295783284,-0.00517610613942
13459000000,ocean_waves,wamv,0.0,0.0,0.0,0.0,0.0,0.0,1.0,1.05593140687,9.62392810684,-0.616171467336,0.031451042046,-0.000172216315515,0.652622396602,0.757030256826,0.0,0.0,0.0,0.0,0.0,0.0,0.286830716472,2.1037164426,0.610798646715,-0.548357628165,0.00664244775449,-0.0053926485436
13459000000,ocean_waves,wamv,0.0,0.0,0.0,0.0,0.0,0.0,1.0,1.05622133707,9.62603172752,-0.615557074436,0.03124139672,4.9384956161e-06,0.652620381614,0.757040694157,0.0,0.0,0.0,0.0,0.0,0.0,0.289929834124,2.10361828501,0.61443128463,-0.549301961325,-0.00528502409334,-0.00560288833252
13459000000,ocean_waves,wamv,0.0,0.0,0.0,0.0,0.0,0.0,1.0,1.05651437724,9.62813525261,-0.614939081779,0.0310274908891,0.000177864879367,0.652618427042,0.757051155378,0.0,0.0,0.0,0.0,0.0,0.0,0.293039840399,2.10352265496,0.618031207924,-0.550235089,-0.0172519676871,-0.00580675662883
13459000000,ocean_waves,wamv,0.0,0.0,0.0,0.0,0.0,0.0,1.0,1.05681053807,9.63023868463,-0.614317521306,0.0308093162558,0.000346544590631,0.652616534329,0.757061638877,0.0,0.0,0.0,0.0,0.0,0.0,0.296160542335,2.10342956428,0.621599225276,-0.551156939736,-0.029257509509,-0.00600418397519
13463000000,ocean_waves,wamv,0.0,0.0,0.0,0.0,0.0,0.0,1.0,1.05710983007,9.63234202615,-0.613692424143,0.0305868648349,0.000510959692639,0.652614704853,0.757072142949,0.0,0.0,0.0,0.0,0.0,0.0,0.299291747814,2.1033390256,0.625136152265,-0.552067438386,-0.0413007696418,-0.00619510121509
13463000000,ocean_waves,wamv,0.0,0.0,0.0,0.0,0.0,0.0,1.0,1.05741226355,9.63444527973,-0.613063820603,0.0303601289523,0.000671092556377,0.65261293993,0.757082665791,0.0,0.0,0.0,0.0,0.0,0.0,0.302433267237,2.1032510512,0.628642803468,-0.552966510622,-0.0533808701758,-0.00637944051557
13464000000,ocean_waves,wamv,0.0,0.0,0.0,0.0,0.0,0.0,1.0,1.05771784862,9.63654844794,-0.612431740176,0.0301291012493,0.000826925862742,0.65261124081,0.757093205504,0.0,0.0,0.0,0.0,0.0,0.0,0.305584910297,2.10316565409,0.632120000838,-0.553854079243,-0.065496924779,-0.00655713599547
13465000000,ocean_waves,wamv,0.0,0.0,0.0,0.0,0.0,0.0,1.0,1.05802659523,9.63865153338,-0.611796211529,0.0298937746817,0.000978442602454,0.652609608675,0.757103760095,0.0,0.0,0.0,0.0,0.0,0.0,0.308746487752,2.10308284725,0.635568566077,-0.554730067463,-0.0776480474049,-0.00672812461017
13466000000,ocean_waves,wamv,0.0,0.0,0.0,0.0,0.0,0.0,1.0,1.05833851312,9.64075453865,-0.611157262505,0.0296541425247,0.00112562607839,0.652608044641,0.757114327474,0.0,0.0,0.0,0.0,0.0,0.0,0.311917808612,2.10300264449,0.638989327753,-0.555594395905,-0.0898333433299,-0.00689234665349
13467000000,ocean_waves,wamv,0.0,0.0,0.0,0.0,0.0,0.0,1.0,1.05865361183,9.64285746637,-0.610514920113,0.0294101983726,0.0012684599074,0.652606549752,0.757124905456,0.0,0.0,0.0,0.0,0.0,0.0,0.315098680917,2.10292505948,0.642383116231,-0.556446986613,-0.102051913895,-0.00704974640641
13469000000,ocean_waves,wamv,0.0,0.0,0.0,0.0,0.0,0.0,1.0,1.05897190072,9.64496031918,-0.609869210531,0.0291619361414,0.00140692802039,0.65260512498,0.75713549176,0.0,0.0,0.0,0.0,0.0,0.0,0.3182889117,2.10285010676,0.645750763754,-0.557287759322,-0.114302858014,-0.00720027266206
13469000000,ocean_waves,wamv,0.0,0.0,0.0,0.0,0.0,0.0,1.0,1.05929338895,9.64706309971,-0.609220159106,0.0289093500692,0.00154101466461,0.652603771224,0.757146084014,0.0,0.0,0.0,0.0,0.0,0.0,0.321488305895,2.10277780081,0.64909310448,-0.558116635614,-0.126585269601,-0.00734387909927
13470000000,ocean_waves,wamv,0.0,0.0,0.0,0.0,0.0,0.0,1.0,1.0596180855,9.64916581063,-0.608567790341,0.02865243472,0.00167070440612,0.652602489302,0.757156679749,0.0,0.0,0.0,0.0,0.0,0.0,0.324696665231,2.10270815687,0.652410977332,-0.558933535741,-0.138898234877,-0.00748052460944
13471000000,ocean_waves,wamv,0.0,0.0,0.0,0.0,0.0,0.0,1.0,1.05994599911,9.65126845462,-0.607912127904,0.0283911849843,0.00179598213057,0.652601279957,0.757167276407,0.0,0.0,0.0,0.0,0.0,0.0,0.327913788949,2.10264119088,0.655705222582,-0.559738379167,-0.151240836661,-0.00761017367149
13472000000,ocean_waves,wamv,0.0,0.0,0.0,0.0,0.0,0.0,1.0,1.06027713835,9.65337103437,-0.607253194616,0.0281255960822,0.00191683304671,0.652600143847,0.75717787134,0.0,0.0,0.0,0.0,0.0,0.0,0.331139472135,2.10257691904,0.658976684357,-0.560531086578,-0.163612149447,-0.00773279652799
13473000000,ocean_waves,wamv,0.0,0.0,0.0,0.0,0.0,0.0,1.0,1.06061151158,9.65547355259,-0.606591012457,0.0278556635631,0.00203324268595,0.652599081548,0.757188461808,0.0,0.0,0.0,0.0,0.0,0.0,0.33437350763,2.10251535828,0.662226204881,-0.561311578265,-0.17601124821,-0.00784836952568
13474000000,ocean_waves,wamv,0.0,0.0,0.0,0.0,0.0,0.0,1.0,1.06094912692,9.65757601202,-0.605925602558,0.0275813833099,0.00214519690725,0.652598093546,0.757199044984,0.0,0.0,0.0,0.0,0.0,0.0,0.33761568219,2.102456526,0.665454633205,-0.562079775215,-0.18843719511,-0.00795687507078
13475000000,ocean_waves,wamv,0.0,0.0,0.0,0.0,0.0,0.0,1.0,1.06128999231,9.65967841539,-0.605256985203,0.0273027515402,0.00225268189711,0.65259718024,0.757209617956,0.0,0.0,0.0,0.0,0.0,0.0,0.340865779085,2.10240044079,0.668662817974,-0.562835596772,-0.20088905081,-0.00805830189697
13476000000,ocean_waves,wamv,0.0,0.0,0.0,0.0,0.0,0.0,1.0,1.06163411543,9.66178076548,-0.604585179821,0.027019764809,0.00235568417216,0.652596341936,0.757220177725,0.0,0.0,0.0,0.0,0.0,0.0,0.344123576142,2.10234712216,0.671851611274,-0.563578961633,-0.213365868231,-0.00815264500313
13478000000,ocean_waves,wamv,0.0,0.0,0.0,0.0,0.0,0.0,1.0,1.06198150376,9.66388306506,-0.603910204991,0.02673242001,0.00245419058178,0.652595578845,0.757230721208,0.0,0.0,0.0,0.0,0.0,0.0,0.347388846093,2.10229658984,0.675021865711,-0.564309790798,-0.225866694987,-0.00823990563197
13478000000,ocean_waves,wamv,0.0,0.0,0.0,0.0,0.0,0.0,1.0,1.06233216455,9.66598531696,-0.603232078437,0.0264407143784,0.00254818830784,0.652594891082,0.757241245241,0.0,0.0,0.0,0.0,0.0,0.0,0.350661356845,2.1022488656,0.67817443554,-0.565028000679,-0.238390575258,-0.00832009116392
13483000000,ocean_waves,wamv,0.0,0.0,0.0,0.0,0.0,0.0,1.0,1.06268610478,9.66808752399,-0.602550817027,0.0261446454935,0.00263766486719,0.65259427866,0.757251746579,0.0,0.0,0.0,0.0,0.0,0.0,0.35394087031,2.10220397223,0.681310177839,-0.56573350706,-0.250936545927,-0.0083932148054
13483000000,ocean_waves,wamv,0.0,0.0,0.0,0.0,0.0,0.0,1.0,1.06304333123,9.67018968901,-0.601866436769,0.0258442112813,0.00272260811382,0.652593741493,0.757262221897,0.0,0.0,0.0,0.0,0.0,0.0,0.357227142681,2.10216193338,0.684429951391,-0.566426225728,-0.26350363782,-0.00845929522877
13483000000,ocean_waves,wamv,0.0,0.0,0.0,0.0,0.0,0.0,1.0,1.0634038504,9.6722918149,-0.601178952812,0.0255394100165,0.00280300623888,0.652593279391,0.757272667793,0.0,0.0,0.0,0.0,0.0,0.0,0.36051992522,2.10212277447,0.68753461611,-0.567106068784,-0.276090878508,-0.00851835610519
13483000000,ocean_waves,wamv,0.0,0.0,0.0,0.0,0.0,0.0,1.0,1.06376766854,9.67439390457,-0.600488379442,0.0252302403264,0.00287884777158,0.652592892059,0.757283080785,0.0,0.0,0.0,0.0,0.0,0.0,0.363818963803,2.10208652271,0.690625034828,-0.567772944711,-0.288697289852,-0.0085704254262
13483000000,ocean_waves,wamv,0.0,0.0,0.0,0.0,0.0,0.0,1.0,1.06413479166,9.67649596095,-0.599794730081,0.0249167011928,0.00295012158016,0.652592579094,0.757293457317,0.0,0.0,0.0,0.0,0.0,0.0,0.367123999615,2.10205320651,0.693702071853,-0.568426759978,-0.301321889422,-0.00861553473475
13484000000,ocean_waves,wamv,0.0,0.0,0.0,0.0,0.0,0.0,1.0,1.06450522548,9.67859798701,-0.599098017285,0.0245987919557,0.0030168168702,0.652592339989,0.757303793757,0.0,0.0,0.0,0.0,0.0,0.0,0.370434770283,2.1020228568,0.696766593206,-0.569067414074,-0.313963693075,-0.00865371825867
13485000000,ocean_waves,wamv,0.0,0.0,0.0,0.0,0.0,0.0,1.0,1.06487897548,9.68069998574,-0.598398252743,0.0242765123145,0.00307892318478,0.652592174126,0.757314086394,0.0,0.0,0.0,0.0,0.0,0.0,0.373751010367,2.10199550555,0.699819465328,-0.569694804465,-0.326621714571,-0.00868501188881
13486000000,ocean_waves,wamv,0.0,0.0,0.0,0.0,0.0,0.0,1.0,1.06525604686,9.68280196017,-0.597695447276,0.0239498623325,0.00313643040288,0.652592080783,0.757324331445,0.0,0.0,0.0,0.0,0.0,0.0,0.377072451972,2.10197118723,0.702861557755,-0.570308820799,-0.339294965241,-0.00870945211758
13487000000,ocean_waves,wamv,0.0,0.0,0.0,0.0,0.0,0.0,1.0,1.06563644454,9.68490391338,-0.596989610831,0.0236188424397,0.00318932873909,0.652592059126,0.757334525048,0.0,0.0,0.0,0.0,0.0,0.0,0.380398825172,2.10194993797,0.705893743483,-0.570909347443,-0.351982452601,-0.00872707492973
13488000000,ocean_waves,wamv,0.0,0.0,0.0,0.0,0.0,0.0,1.0,1.0660201732,9.68700584846,-0.596280752484,0.0232834534334,0.00323760874053,0.652592108218,0.757344663266,0.0,0.0,0.0,0.0,0.0,0.0,0.383729861028,2.10193179521,0.708916893191,-0.571496264291,-0.364683188697,-0.00873791482296
13490000000,ocean_waves,wamv,0.0,0.0,0.0,0.0,0.0,0.0,1.0,1.06640723722,9.68910776857,-0.595568880435,0.0229436964837,0.00328126128545,0.652592227017,0.757354742081,0.0,0.0,0.0,0.0,0.0,0.0,0.387065290079,2.10191679897,0.711931883776,-0.572069441584,-0.377396181111,-0.00874200375082
13490000000,ocean_waves,wamv,0.0,0.0,0.0,0.0,0.0,0.0,1.0,1.06679764073,9.69120967689,-0.594854002008,0.0225995731332,0.00332027757946,0.652592414376,0.757364757399,0.0,0.0,0.0,0.0,0.0,0.0,0.390404845861,2.10190499036,0.714939589635,-0.572628744769,-0.390120443329,-0.00873937036942
13491000000,ocean_waves,wamv,0.0,0.0,0.0,0.0,0.0,0.0,1.0,1.0671913876,9.69331157665,-0.594136123651,0.0222510853011,0.00335464915438,0.652592669046,0.757374705043,0.0,0.0,0.0,0.0,0.0,0.0,0.393748263313,2.10189641225,0.717940890085,-0.573174031906,-0.40285498587,-0.00873003929787
13493000000,ocean_waves,wamv,0.0,0.0,0.0,0.0,0.0,0.0,1.0,1.06758848142,9.69541347112,-0.593415250931,0.0218982352834,0.00338436786339,0.652592989681,0.757384580755,0.0,0.0,0.0,0.0,0.0,0.0,0.397095282153,2.10189110878,0.72093666179,-0.573705154794,-0.41559882682,-0.00871403076399
13493000000,ocean_waves,wamv,0.0,0.0,0.0,0.0,0.0,0.0,1.0,1.06798892554,9.69751536362,-0.592691388539,0.0215410257556,0.00340942587867,0.652593374835,0.757394380192,0.0,0.0,0.0,0.0,0.0,0.0,0.400445645359,2.10188912568,0.723927784665,-0.574221957735,-0.428350984234,-0.00869136032952
13493000000,ocean_waves,wamv,0.0,0.0,0.0,0.0,0.0,0.0,1.0,1.06839272305,9.69961725751,-0.591964540283,0.0211794597739,0.00342981568872,0.652593822968,0.757404098928,0.0,0.0,0.0,0.0,0.0,0.0,0.403799100341,2.10189050951,0.726915138655,-0.574724280168,-0.441110479416,-0.00866203894487
13497000000,ocean_waves,wamv,0.0,0.0,0.0,0.0,0.0,0.0,1.0,1.06879987679,9.70171915621,-0.591234709091,0.0208135407769,0.00344553009596,0.652594332447,0.757413732448,0.0,0.0,0.0,0.0,0.0,0.0,0.407155398662,2.10189530783,0.72989960514,-0.57521195589,-0.453876335286,-0.00862607319894
13497000000,ocean_waves,wamv,0.0,0.0,0.0,0.0,0.0,0.0,1.0,1.06921038938,9.70382106319,-0.590501897009,0.0204432725872,0.00345656221288,0.65259490155,0.757423276151,0.0,0.0,0.0,0.0,0.0,0.0,0.410514296682,2.10190356966,0.732882065688,-0.575684811429,-0.466647578848,-0.00858346580812
13497000000,ocean_waves,wamv,0.0,0.0,0.0,0.0,0.0,0.0,1.0,1.06962426316,9.70592298194,-0.589766105204,0.020068659411,0.00346290545971,0.652595528463,0.757432725346,0.0,0.0,0.0,0.0,0.0,0.0,0.413875555473,2.10191534423,0.735863399926,-0.576142670896,-0.479423241456,-0.0085342162401
13498000000,ocean_waves,wamv,0.0,0.0,0.0,0.0,0.0,0.0,1.0,1.07004150026,9.70802491603,-0.589027333959,0.019689705841,0.00346455356301,0.652596211286,0.757442075255,0.0,0.0,0.0,0.0,0.0,0.0,0.417238939169,2.10193068185,0.738844490118,-0.576585352881,-0.492202353548,-0.00847832144318
13500000000,ocean_waves,wamv,0.0,0.0,0.0,0.0,0.0,0.0,1.0,1.07046210258,9.71012686907,-0.588285582677,0.019306416857,0.00346150055352,0.652596948034,0.757451321009,0.0,0.0,0.0,0.0,0.0,0.0,0.420604215472,2.10194963357,0.741826218047,-0.577012671908,-0.504983947965,-0.00841577670796
13500000000,ocean_waves,wamv,0.0,0.0,0.0,0.0,0.0,0.0,1.0,1.07088607179,9.71222884473,-0.587540849882,0.018918797825,0.00345374076366,0.652597736634,0.75746045765,0.0,0.0,0.0,0.0,0.0,0.0,0.423971155957,2.10197225062,0.744809461898,-0.577424440851,-0.517767062729,-0.00834657655394
13501000000,ocean_waves,wamv,0.0,0.0,0.0,0.0,0.0,0.0,1.0,1.07131340932,9.71433084673,-0.586793133217,0.0185268545,0.00344126882726,0.652598574931,0.757469480131,0.0,0.0,0.0,0.0,0.0,0.0,0.427339533601,2.10199858514,0.747795102113,-0.577820468642,-0.530550733418,-0.00827071556177
13502000000,ocean_waves,wamv,0.0,0.0,0.0,0.0,0.0,0.0,1.0,1.07174411638,9.71643287882,-0.586042429446,0.0181305930263,0.00342407967732,0.652599460683,0.757478383316,0.0,0.0,0.0,0.0,0.0,0.0,0.430709123752,2.10202869004,0.750784017038,-0.578200560773,-0.543333998692,-0.0081881892474
13503000000,ocean_waves,wamv,0.0,0.0,0.0,0.0,0.0,0.0,1.0,1.07217819397,9.71853494483,-0.585288734458,0.0177300199371,0.00340216854549,0.652600391566,0.757487161983,0.0,0.0,0.0,0.0,0.0,0.0,0.434079703244,2.1020626182,0.753777082334,-0.57856452298,-0.55611589878,-0.0080989948287
13504000000,ocean_waves,wamv,0.0,0.0,0.0,0.0,0.0,0.0,1.0,1.07261564286,9.72063704863,-0.584532043266,0.0173251421563,0.00337553096235,0.652601365172,0.757495810824,0.0,0.0,0.0,0.0,0.0,0.0,0.437451048937,2.10210042304,0.756775174126,-0.578912159088,-0.568895471687,-0.00800313192412
13505000000,ocean_waves,wamv,0.0,0.0,0.0,0.0,0.0,0.0,1.0,1.07305646359,9.72273919416,-0.583772350008,0.0169159669992,0.00334416275528,0.652602379005,0.757504324445,0.0,0.0,0.0,0.0,0.0,0.0,0.440822938457,2.10214215915,0.75977916628,-0.579243269028,-0.581671757736,-0.00790060321434
13506000000,ocean_waves,wamv,0.0,0.0,0.0,0.0,0.0,0.0,1.0,1.07350065648,9.72484138539,-0.58300964795,0.0165025021725,0.00330806005048,0.652603430487,0.75751269737,0.0,0.0,0.0,0.0,0.0,0.0,0.444195148502,2.10218788052,0.762789930971,-0.5795576558,-0.594443794749,-0.00779141496103
13507000000,ocean_waves,wamv,0.0,0.0,0.0,0.0,0.0,0.0,1.0,1.07394822164,9.72694362637,-0.582243929489,0.0160847557761,0.00326721927061,0.652604516953,0.757520924043,0.0,0.0,0.0,0.0,0.0,0.0,0.447567455596,2.1022376427,0.765808338339,-0.579855117399,-0.607210622427,-0.00767557751986
13508000000,ocean_waves,wamv,0.0,0.0,0.0,0.0,0.0,0.0,1.0,1.07439915893,9.72904592118,-0.581475186151,0.0156627363022,0.00322163713714,0.652605635649,0.757528998828,0.0,0.0,0.0,0.0,0.0,0.0,0.450939634435,2.10229150063,0.76883525647,-0.580135455415,-0.619971277546,-0.00755310571277
13510000000,ocean_waves,wamv,0.0,0.0,0.0,0.0,0.0,0.0,1.0,1.07485346801,9.73114827398,-0.580703408597,0.0152364526381,0.00317131066933,0.652606783736,0.757536916012,0.0,0.0,0.0,0.0,0.0,0.0,0.454311458052,2.10234951072,0.771871552679,-0.580398467123,-0.632724795957,-0.00742401919707
13510000000,ocean_waves,wamv,0.0,0.0,0.0,0.0,0.0,0.0,1.0,1.07531114829,9.73325068897,-0.579928586624,0.0148059140642,0.00311623718413,0.652607958284,0.757544669811,0.0,0.0,0.0,0.0,0.0,0.0,0.457682698438,2.10241172908,0.774918088116,-0.580643952614,-0.645470216308,-0.00728834275161
13511000000,ocean_waves,wamv,0.0,0.0,0.0,0.0,0.0,0.0,1.0,1.07577219896,9.73535317041,-0.57915070917,0.014371130256,0.00305641429787,0.652609156274,0.757552254366,0.0,0.0,0.0,0.0,0.0,0.0,0.461053124261,2.10247821236,0.777975723853,-0.580871711649,-0.658206572669,-0.00714610649768
13512000000,ocean_waves,wamv,0.0,0.0,0.0,0.0,0.0,0.0,1.0,1.07623661899,9.73745572262,-0.578369764315,0.0139321112835,0.00299183992593,0.652610374595,0.757559663749,0.0,0.0,0.0,0.0,0.0,0.0,0.464422501998,2.10254901767,0.781045316647,-0.581081544076,-0.670932900138,-0.00699734610518
13513000000,ocean_waves,wamv,0.0,0.0,0.0,0.0,0.0,0.0,1.0,1.07670440708,9.73955834998,-0.577585739282,0.0134888676137,0.00292251228458,0.652611610044,0.757566891969,0.0,0.0,0.0,0.0,0.0,0.0,0.467790594087,2.10262420272,0.784127722882,-0.581273249575,-0.683648229042,-0.00684210292197
13513000000,ocean_waves,wamv,0.0,0.0,0.0,0.0,0.0,0.0,1.0,1.07717556171,9.74166105692,-0.576798620442,0.0130414101104,0.00284842989095,0.652612859325,0.757573932969,0.0,0.0,0.0,0.0,0.0,0.0,0.471157159958,2.1027038258,0.787223794782,-0.581446627835,-0.696351590039,-0.00668042407602
13519000000,ocean_waves,wamv,0.0,0.0,0.0,0.0,0.0,0.0,1.0,1.07765008112,9.74376384794,-0.576008393317,0.0125897500342,0.00276959156373,0.652614119045,0.757580780629,0.0,0.0,0.0,0.0,0.0,0.0,0.474521955309,2.10278794561,0.790334381178,-0.58160147918,-0.709042012469,-0.00651236250121
13519000000,ocean_waves,wamv,0.0,0.0,0.0,0.0,0.0,0.0,1.0,1.07812796329,9.74586672759,-0.575215042584,0.012133899043,0.00268599642392,0.652615385719,0.757587428777,0.0,0.0,0.0,0.0,0.0,0.0,0.477884732191,2.10287662107,0.79346032609,-0.581737605632,-0.721718525636,-0.00633797689735
13519000000,ocean_waves,wamv,0.0,0.0,0.0,0.0,0.0,0.0,1.0,1.07860920595,9.74796970048,-0.574418552077,0.0116738691937,0.00259764389516,0.652616655761,0.757593871179,0.0,0.0,0.0,0.0,0.0,0.0,0.481245237955,2.10296991249,0.796602472509,-0.581854806344,-0.734380155591,-0.00615733161238
13519000000,ocean_waves,wamv,0.0,0.0,0.0,0.0,0.0,0.0,1.0,1.07909380659,9.75007277129,-0.57361890479,0.0112096729425,0.00250453370526,0.652617925489,0.757600101554,0.0,0.0,0.0,0.0,0.0,0.0,0.484603215375,2.10306788041,0.799761659975,-0.581952882102,-0.747025926139,-0.00597049642096
13519000000,ocean_waves,wamv,0.0,0.0,0.0,0.0,0.0,0.0,1.0,1.07958176241,9.75217594474,-0.572816082883,0.0107413231453,0.0024066658849,0.652619191122,0.757606113568,0.0,0.0,0.0,0.0,0.0,0.0,0.487958403858,2.10317058633,0.802938722195,-0.582031632535,-0.759654863666,-0.00577754620319
13521000000,ocean_waves,wamv,0.0,0.0,0.0,0.0,0.0,0.0,1.0,1.08007307037,9.75427922564,-0.572010067683,0.0102688330587,0.00230404076913,0.65262044878,0.757611900842,0.0,0.0,0.0,0.0,0.0,0.0,0.491310537773,2.10327809249,0.806134491326,-0.582090856783,-0.772265990639,-0.00557856049416
13521000000,ocean_waves,wamv,0.0,0.0,0.0,0.0,0.0,0.0,1.0,1.08056772714,9.75638261884,-0.57120083969,0.00979221634112,0.00219665899672,0.652621694484,0.757617456951,0.0,0.0,0.0,0.0,0.0,0.0,0.494659347807,2.10339046217,0.809349795226,-0.582130352429,-0.784858330196,-0.00537362291445
13522000000,ocean_waves,wamv,0.0,0.0,0.0,0.0,0.0,0.0,1.0,1.08106572914,9.75848612928,-0.570388378579,0.00931148705263,0.00208452150988,0.652622924155,0.757622775428,0.0,0.0,0.0,0.0,0.0,0.0,0.49800456126,2.10350775924,0.812585457103,-0.582149916649,-0.797430906232,-0.00516282046937
13522000000,ocean_waves,wamv,0.0,0.0,0.0,0.0,0.0,0.0,1.0,1.0815670725,9.76058976193,-0.569572663202,0.00882665965795,0.00196762955356,0.652624133612,0.757627849765,0.0,0.0,0.0,0.0,0.0,0.0,0.501345901635,2.10363004945,0.815842299525,-0.582149341421,-0.809982740367,-0.00494624274475
13524000000,ocean_waves,wamv,0.0,0.0,0.0,0.0,0.0,0.0,1.0,1.08207175307,9.76269352186,-0.568753671596,0.00833774902551,0.00184598467449,0.65262531858,0.757632673417,0.0,0.0,0.0,0.0,0.0,0.0,0.504683090621,2.10375739884,0.819121138838,-0.582128418945,-0.822512857493,-0.00472398098505
13524000000,ocean_waves,wamv,0.0,0.0,0.0,0.0,0.0,0.0,1.0,1.08257976642,9.76479741418,-0.567931380982,0.00784477042825,0.00171958871933,0.652626474683,0.757637239802,0.0,0.0,0.0,0.0,0.0,0.0,0.508015848425,2.10388987461,0.822422787538,-0.582086937964,-0.835020284692,-0.00449612711862
13525000000,ocean_waves,wamv,0.0,0.0,0.0,0.0,0.0,0.0,1.0,1.08309110786,9.76690144409,-0.567105767775,0.00734773954474,0.00158844383337,0.65262759745,0.757641542298,0.0,0.0,0.0,0.0,0.0,0.0,0.511343894195,2.104027545,0.825748055267,-0.582024683876,-0.847504050195,-0.0042627727511
13526000000,ocean_waves,wamv,0.0,0.0,0.0,0.0,0.0,0.0,1.0,1.08360577239,9.76900561685,-0.566276807577,0.00684667246095,0.00145255245849,0.652628682316,0.757645574254,0.0,0.0,0.0,0.0,0.0,0.0,0.514666946782,2.10417047967,0.829097749862,-0.581941436762,-0.85996318339,-0.00402400817679
13528000000,ocean_waves,wamv,0.0,0.0,0.0,0.0,0.0,0.0,1.0,1.08412375474,9.77110993779,-0.565444475194,0.00634158566787,0.00131191733054,0.652629724622,0.75764932898,0.0,0.0,0.0,0.0,0.0,0.0,0.51798472726,2.10431874809,0.832472671068,-0.581836977016,-0.872396721446,-0.00377992142944
13529000000,ocean_waves,wamv,0.0,0.0,0.0,0.0,0.0,0.0,1.0,1.08464504894,9.77321441254,-0.564608745772,0.00583249693876,0.00116654182367,0.652630719617,0.757652799752,0.0,0.0,0.0,0.0,0.0,0.0,0.521296517108,2.10447265244,0.835872475254,-0.581710205218,-0.884802035075,-0.0035306032572
13530000000,ocean_waves,wamv,0.0,0.0,0.0,0.0,0.0,0.0,1.0,1.08516960164,9.7753190557,-0.563769724089,0.00531949528117,0.00101648607326,0.652631661763,0.757655979842,0.0,0.0,0.0,0.0,0.0,0.0,0.524554955502,2.10464115978,0.839167484703,-0.58152728024,-0.897000138421,-0.00327673273274
13531000000,ocean_waves,wamv,0.0,0.0,0.0,0.0,0.0,0.0,1.0,1.08569735746,9.77742388148,-0.562927519393,0.00480267160465,0.000861813549159,0.652632545517,0.757658862652,0.0,0.0,0.0,0.0,0.0,0.0,0.527758019633,2.10482388991,0.842353226555,-0.581289683337,-0.908983510498,-0.00301853440029
13532000000,ocean_waves,wamv,0.0,0.0,0.0,0.0,0.0,0.0,1.0,1.08622826036,9.77952890419,-0.56208224137,0.00428211774284,0.000702588597963,0.652633365355,0.757661441716,0.0,0.0,0.0,0.0,0.0,0.0,0.530905011218,2.10502092021,0.845429259412,-0.58099716914,-0.920749631268,-0.0027562178204
13533000000,ocean_waves,wamv,0.0,0.0,0.0,0.0,0.0,0.0,1.0,1.08676225357,9.78163413819,-0.561234000119,0.00375792642883,0.000538876423969,0.65263411578,0.757663710706,0.0,0.0,0.0,0.0,0.0,0.0,0.533995249854,2.1052323241,0.848395168583,-0.580649504545,-0.932296041996,-0.00248999026663
13534000000,ocean_waves,wamv,0.0,0.0,0.0,0.0,0.0,0.0,1.0,1.0872992797,9.78373959793,-0.560382906129,0.003230191271,0.000370743067449,0.652634791332,0.757665663441,0.0,0.0,0.0,0.0,0.0,0.0,0.537028074139,2.1054581722,0.85125056009,-0.580246464361,-0.94362034844,-0.002220056591
13535000000,ocean_waves,wamv,0.0,0.0,0.0,0.0,0.0,0.0,1.0,1.0878392807,9.78584529791,-0.559529070251,0.00269900672317,0.000198255378544,0.652635386595,0.757667293884,0.0,0.0,0.0,0.0,0.0,0.0,0.540002845543,2.10569853143,0.853995071272,-0.579787834295,-0.954720235026,-0.00194661922965
13536000000,ocean_waves,wamv,0.0,0.0,0.0,0.0,0.0,0.0,1.0,1.08838219791,9.78795125269,-0.55867260367,0.00216446805468,2.14809949235e-05,0.652635896201,0.75766859616,0.0,0.0,0.0,0.0,0.0,0.0,0.54291894688,2.10595346372,0.856628364818,-0.579273415925,-0.965593459121,-0.00166987845623
13537000000,ocean_waves,wamv,0.0,0.0,0.0,0.0,0.0,0.0,1.0,1.08892797206,9.79005747692,-0.557813617876,0.00162667132441,-0.000159511680097,0.652636314842,0.757669564551,0.0,0.0,0.0,0.0,0.0,0.0,0.545775780616,2.10622302749,0.859150132414,-0.578703021234,-0.976237845103,-0.0013900327821
13538000000,ocean_waves,wamv,0.0,0.0,0.0,0.0,0.0,0.0,1.0,1.08947654333,9.79216398527,-0.556952224639,0.00108571334915,-0.000344653504244,0.652636637272,0.757670193509,0.0,0.0,0.0,0.0,0.0,0.0,0.548572772559,2.106507277,0.861560092734,-0.578076475013,-0.986651299078,-0.00110727934008
13539000000,ocean_waves,wamv,0.0,0.0,0.0,0.0,0.0,0.0,1.0,1.09002785131,9.79427079247,-0.556088535977,0.000541691673542,-0.000533874617355,0.652636858316,0.757670477659,0.0,0.0,0.0,0.0,0.0,0.0,0.551309368765,2.1068062611,0.863857995418,-0.577393619695,-0.996831798186,-0.000821814437903
13540000000,ocean_waves,wamv,0.0,0.0,0.0,0.0,0.0,0.0,1.0,1.09058183511,9.7963779133,-0.555222664125,-5.2954612917e-06,-0.000727104468007,0.652636972876,0.757670411806,0.0,0.0,0.0,0.0,0.0,0.0,0.553985037915,2.1071200247,0.866043620021,-0.576654310129,-1.00677740075,-0.000533834019035
13541000000,ocean_waves,wamv,0.0,0.0,0.0,0.0,0.0,0.0,1.0,1.09113843328,9.79848536257,-0.55435472151,-0.00055514914806,-0.000924271833972,0.652636975935,0.757669990941,0.0,0.0,0.0,0.0,0.0,0.0,0.556599268133,2.10744860704,0.868116773761,-0.575858419979,-1.01648623546,-0.000243534218523
13542000000,ocean_waves,wamv,0.0,0.0,0.0,0.0,0.0,0.0,1.0,1.0916975839,9.80059315513,-0.553484820717,-0.0011077698476,-0.0011253048504,0.652636862565,0.757669210247,0.0,0.0,0.0,0.0,0.0,0.0,0.559151571139,2.10779204286,0.870077296083,-0.575005837666,-1.02595651826,4.88882832186e-05
13543000000,ocean_waves,wamv,0.0,0.0,0.0,0.0,0.0,0.0,1.0,1.09225922458,9.80270130588,-0.552613074449,-0.00166305742034,-0.00133013103363,0.652636627928,0.757668065104,0.0,0.0,0.0,0.0,0.0,0.0,0.561641479198,2.10815036205,0.871925065265,-0.574096467794,-1.03518654199,0.000343235800491
13544000000,ocean_waves,wamv,0.0,0.0,0.0,0.0,0.0,0.0,1.0,1.0928232925,9.8048098297,-0.551739595511,-0.00222091115843,-0.00153867730297,0.652636267284,0.757666551097,0.0,0.0,0.0,0.0,0.0,0.0,0.564068544218,2.10852358868,0.873659979038,-0.573130234731,-1.04417467414,0.000639309287261
13545000000,ocean_waves,wamv,0.0,0.0,0.0,0.0,0.0,0.0,1.0,1.09338972438,9.80691874153,-0.550864496766,-0.00278122982205,-0.00175087000891,0.652635775997,0.75766466402,0.0,0.0,0.0,0.0,0.0,0.0,0.566432341515,2.10891174165,0.875281977708,-0.572107080546,-1.052919372,0.000936908170561
13546000000,ocean_waves,wamv,0.0,0.0,0.0,0.0,0.0,0.0,1.0,1.09395845657,9.8090280563,-0.549987891101,-0.00334391167248,-0.00196663495731,0.652635149532,0.757662399884,0.0,0.0,0.0,0.0,0.0,0.0,0.568732466798,2.10931483459,0.876791031537,-0.571026965389,-1.0614191723,0.00123583007117
13547000000,ocean_waves,wamv,0.0,0.0,0.0,0.0,0.0,0.0,1.0,1.09452942501,9.81113778896,-0.549109891399,-0.00390885450535,-0.00218589743497,0.652634383466,0.757659754921,0.0,0.0,0.0,0.0,0.0,0.0,0.570968536566,2.1097328763,0.878187148,-0.569889865854,-1.06967269354,0.00153587066729
13548000000,ocean_waves,wamv,0.0,0.0,0.0,0.0,0.0,0.0,1.0,1.09510256529,9.81324795445,-0.548230610501,-0.00447595568672,-0.00240858223388,0.652633473491,0.757656725589,0.0,0.0,0.0,0.0,0.0,0.0,0.573140188314,2.11016586917,0.879470363647,-0.568695781049,-1.07767863763,0.00183682360288
13549000000,ocean_waves,wamv,0.0,0.0,0.0,0.0,0.0,0.0,1.0,1.09567781267,9.81535856773,-0.547350161171,-0.00504511218983,-0.00263461367788,0.652632415413,0.757653308582,0.0,0.0,0.0,0.0,0.0,0.0,0.575247081504,2.11061380981,0.880640753448,-0.567444730376,-1.0854357943,0.00213848046911
13550000000,ocean_waves,wamv,0.0,0.0,0.0,0.0,0.0,0.0,1.0,1.09625510206,9.81746964373,-0.546468656061,-0.00561622063061,-0.00286391564843,0.65263120516,0.757649500828,0.0,0.0,0.0,0.0,0.0,0.0,0.57728889661,2.11107668921,0.881698429829,-0.566136752845,-1.09294303826,0.00244063076617
13551000000,ocean_waves,wamv,0.0,0.0,0.0,0.0,0.0,0.0,1.0,1.0968343681,9.81958119738,-0.545586207675,-0.00618917730222,-0.00309641161117,0.65262983878,0.757645299499,0.0,0.0,0.0,0.0,0.0,0.0,0.579265334879,2.1115544935,0.882643538897,-0.564771904524,-1.10019932903,0.00274306192141
13552000000,ocean_waves,wamv,0.0,0.0,0.0,0.0,0.0,0.0,1.0,1.09741554514,9.82169324357,-0.54470292833,-0.00676387821467,-0.00333202464278,0.652628312451,0.757640702015,0.0,0.0,0.0,0.0,0.0,0.0,0.581176119998,2.11204720195,0.883476263003,-0.563350265872,-1.10720371793,0.00304555940212
13554000000,ocean_waves,wamv,0.0,0.0,0.0,0.0,0.0,0.0,1.0,1.09799856727,9.82380579719,-0.543818930122,-0.00734021912891,-0.00357067745603,0.652626622478,0.757635706048,0.0,0.0,0.0,0.0,0.0,0.0,0.583020995277,2.11255478867,0.884196824947,-0.561871935681,-1.11395533812,0.00334790672532
13554000000,ocean_waves,wamv,0.0,0.0,0.0,0.0,0.0,0.0,1.0,1.09858336836,9.82591887308,-0.542934324886,-0.00791809559539,-0.00381229242753,0.652624765295,0.757630309526,0.0,0.0,0.0,0.0,0.0,0.0,0.584799726152,2.11307722172,0.884805484231,-0.560337034235,-1.12045341465,0.00364988568261
13555000000,ocean_waves,wamv,0.0,0.0,0.0,0.0,0.0,0.0,1.0,1.09916988205,9.82803248604,-0.542049224155,-0.00849740299249,-0.00405679162488,0.652622737473,0.757624510637,0.0,0.0,0.0,0.0,0.0,0.0,0.586512099691,2.11361446298,0.88530253828,-0.558745704044,-1.12669726313,0.00395127651898
13556000000,ocean_waves,wamv,0.0,0.0,0.0,0.0,0.0,0.0,1.0,1.0997580418,9.83014665085,-0.541163739124,-0.00907803656396,-0.00430409683464,0.652620535716,0.757618307833,0.0,0.0,0.0,0.0,0.0,0.0,0.588157924506,2.11416646883,0.885688326424,-0.557098107203,-1.13268628979,0.00425185818697
13557000000,ocean_waves,wamv,0.0,0.0,0.0,0.0,0.0,0.0,1.0,1.10034778089,9.83226138221,-0.540277980613,-0.00965989145836,-0.00455412959056,0.652618156869,0.757611699835,0.0,0.0,0.0,0.0,0.0,0.0,0.589737031487,2.11473318951,0.885963223078,-0.555394427874,-1.13841999446,0.00455140869806
13558000000,ocean_waves,wamv,0.0,0.0,0.0,0.0,0.0,0.0,1.0,1.10093903247,9.8343766948,-0.539392059024,-0.0102428627642,-0.00480681120028,0.652615597913,0.75760468563,0.0,0.0,0.0,0.0,0.0,0.0,0.591249271646,2.11531457026,0.886127643421,-0.553634868096,-1.14389796248,0.00484970544809
13559000000,ocean_waves,wamv,0.0,0.0,0.0,0.0,0.0,0.0,1.0,1.10153172954,9.83649260319,-0.5385060843,-0.010826845551,-0.00506206277356,0.652612855974,0.757597264484,0.0,0.0,0.0,0.0,0.0,0.0,0.592694518967,2.11591054942,0.886182045533,-0.551819654696,-1.14911987516,0.00514652581358
13560000000,ocean_waves,wamv,0.0,0.0,0.0,0.0,0.0,0.0,1.0,1.10212580501,9.83860912193,-0.537620165883,-0.0114117349049,-0.00531980525155,0.652609928321,0.757589435932,0.0,0.0,0.0,0.0,0.0,0.0,0.594072668887,2.11652106108,0.886126929186,-0.549949029316,-1.15408550347,0.0054416476908
13561000000,ocean_waves,wamv,0.0,0.0,0.0,0.0,0.0,0.0,1.0,1.10272119171,9.84072626548,-0.536734412676,-0.011997425973,-0.00557995943645,0.652606812369,0.757581199788,0.0,0.0,0.0,0.0,0.0,0.0,0.595383641867,2.11714603165,0.88596283374,-0.548023261315,-1.15879472056,0.0057348503066
13562000000,ocean_waves,wamv,0.0,0.0,0.0,0.0,0.0,0.0,1.0,1.10331782239,9.84284404822,-0.535848933003,-0.0125838139983,-0.00584244602056,0.65260350568,0.757572556145,0.0,0.0,0.0,0.0,0.0,0.0,0.596627380212,2.11778538323,0.885690337514,-0.546042634791,-1.16324748856,0.00602591487232
13563000000,ocean_waves,wamv,0.0,0.0,0.0,0.0,0.0,0.0,1.0,1.10391562981,9.84496248445,-0.53496383456,-0.0131707943582,-0.00610718561523,0.652600005967,0.757563505372,0.0,0.0,0.0,0.0,0.0,0.0,0.597803849695,2.11843903222,0.885310066118,-0.544007453664,-1.16744386302,0.00631462547863
13564000000,ocean_waves,wamv,0.0,0.0,0.0,0.0,0.0,0.0,1.0,1.10451454667,9.84708158837,-0.534079224374,-0.0137582626087,-0.00637409878392,0.652596311094,0.757554048118,0.0,0.0,0.0,0.0,0.0,0.0,0.598913043599,2.11910688843,0.884822688135,-0.541918044846,-1.17138400621,0.00660077015921
13565000000,ocean_waves,wamv,0.0,0.0,0.0,0.0,0.0,0.0,1.0,1.10511450574,9.8492013741,-0.533195208763,-0.0143461145199,-0.00664310607132,0.652592419082,0.757544185309,0.0,0.0,0.0,0.0,0.0,0.0,0.599954978685,2.11978885714,0.884228914045,-0.539774750074,-1.17506816977,0.00688414163381
13566000000,ocean_waves,wamv,0.0,0.0,0.0,0.0,0.0,0.0,1.0,1.10571543978,9.85132185566,-0.532311893286,-0.0149342461162,-0.0069141280334,0.652588328107,0.757533918148,0.0,0.0,0.0,0.0,0.0,0.0,0.600929698112,2.12048483713,0.88352950064,-0.537577933225,-1.17849670337,0.00716453831772
13568000000,ocean_waves,wamv,0.0,0.0,0.0,0.0,0.0,0.0,1.0,1.10631728167,9.85344304694,-0.531429382705,-0.0155225537208,-0.00718708527153,0.652584036504,0.757523248113,0.0,0.0,0.0,0.0,0.0,0.0,0.601837274727,2.12119472086,0.88272524356,-0.535327979264,-1.18167006464,0.00744176532372
13568000000,ocean_waves,wamv,0.0,0.0,0.0,0.0,0.0,0.0,1.0,1.10691996434,9.85556496174,-0.530547780937,-0.0161109339886,-0.00746189845951,0.65257954277,0.757512176955,0.0,0.0,0.0,0.0,0.0,0.0,0.602677805227,2.12191839598,0.881816990441,-0.53302528826,-1.18458879493,0.00771563494649
13569000000,ocean_waves,wamv,0.0,0.0,0.0,0.0,0.0,0.0,1.0,1.1075234209,9.85768761374,-0.52966719101,-0.0166992839545,-0.00773848838072,0.652574845568,0.757500706696,0.0,0.0,0.0,0.0,0.0,0.0,0.603451419845,2.12265574315,0.880805627538,-0.530670283531,-1.18725355354,0.0079859677424
13570000000,ocean_waves,wamv,0.0,0.0,0.0,0.0,0.0,0.0,1.0,1.10812758458,9.85981101648,-0.528787715014,-0.0172875010695,-0.00801677595801,0.652569943726,0.757488839624,0.0,0.0,0.0,0.0,0.0,0.0,0.604158275955,2.12340663785,0.879692094343,-0.528263404469,-1.18966509178,0.00825259271236
13571000000,ocean_waves,wamv,0.0,0.0,0.0,0.0,0.0,0.0,1.0,1.10873238881,9.86193518338,-0.527909454058,-0.0178754832449,-0.00829668228469,0.652564836241,0.757476578293,0.0,0.0,0.0,0.0,0.0,0.0,0.604798561469,2.12417094788,0.878477369418,-0.525805115812,-1.19182426422,0.00851534775514
13572000000,ocean_waves,wamv,0.0,0.0,0.0,0.0,0.0,0.0,1.0,1.10933776723,9.86406012772,-0.527032508227,-0.0184631288916,-0.0085781286573,0.652559522283,0.757463925516,0.0,0.0,0.0,0.0,0.0,0.0,0.605372494365,2.12494853569,0.877162480771,-0.523295898959,-1.19373202579,0.00877407979851
13573000000,ocean_waves,wamv,0.0,0.0,0.0,0.0,0.0,0.0,1.0,1.10994365375,9.86618586264,-0.526156976531,-0.0190503369635,-0.00886103660852,0.652554001192,0.757450884362,0.0,0.0,0.0,0.0,0.0,0.0,0.605880324248,2.12573925678,0.875748499742,-0.520736257894,-1.195389437,0.0090286448279
13573000000,ocean_waves,wamv,0.0,0.0,0.0,0.0,0.0,0.0,1.0,1.11054998253,9.86831240113,-0.525282956859,-0.0196370069984,-0.00914532793804,0.652548272483,0.757437458152,0.0,0.0,0.0,0.0,0.0,0.0,0.606322330721,2.12654296013,0.87423654864,-0.518126717543,-1.19679765758,0.00927890761308
13574000000,ocean_waves,wamv,0.0,0.0,0.0,0.0,0.0,0.0,1.0,1.11115668806,9.87043975601,-0.524410545933,-0.0202230391586,-0.00943092474313,0.652542335849,0.757423650456,0.0,0.0,0.0,0.0,0.0,0.0,0.606698823127,2.1273594881,0.872627796565,-0.515467824391,-1.19795794568,0.00952474136597
13576000000,ocean_waves,wamv,0.0,0.0,0.0,0.0,0.0,0.0,1.0,1.11176370517,9.87256793994,-0.523539839262,-0.0208083342772,-0.00971774945361,0.652536191157,0.757409465085,0.0,0.0,0.0,0.0,0.0,0.0,0.607010144185,2.12818867579,0.870923455599,-0.512760148923,-1.1988716721,0.00976602751055
13577000000,ocean_waves,wamv,0.0,0.0,0.0,0.0,0.0,0.0,1.0,1.11237096906,9.87469696541,-0.522670931089,-0.0213927938974,-0.01000572486,0.65252983845,0.757394906091,0.0,0.0,0.0,0.0,0.0,0.0,0.607256664556,2.12903035154,0.869124790962,-0.510004284009,-1.1995403006,0.0100026548959
13578000000,ocean_waves,wamv,0.0,0.0,0.0,0.0,0.0,0.0,1.0,1.11297841532,9.87682684474,-0.521803914349,-0.0219763203173,-0.0102947741478,0.652523277947,0.757379977757,0.0,0.0,0.0,0.0,0.0,0.0,0.607438786948,2.12988433674,0.867233111799,-0.507200845868,-1.19996540441,0.0102345194942
13580000000,ocean_waves,wamv,0.0,0.0,0.0,0.0,0.0,0.0,1.0,1.11358597998,9.87895759006,-0.52093888062,-0.0225588166304,-0.0105848209246,0.652516510044,0.757364684599,0.0,0.0,0.0,0.0,0.0,0.0,0.607556941694,2.13075044542,0.865249778546,-0.504350475686,-1.20014865069,0.010461523608
13580000000,ocean_waves,wamv,0.0,0.0,0.0,0.0,0.0,0.0,1.0,1.11419359954,9.8810892133,-0.520075920069,-0.0231401867698,-0.0108757892542,0.652509535311,0.757349031354,0.0,0.0,0.0,0.0,0.0,0.0,0.607611590024,2.13162848496,0.863176199076,-0.50145383742,-1.20009181408,0.0106835755474
13581000000,ocean_waves,wamv,0.0,0.0,0.0,0.0,0.0,0.0,1.0,1.11480121097,9.88322172619,-0.519215121409,-0.0237203355534,-0.0111676036847,0.652502354489,0.757333022979,0.0,0.0,0.0,0.0,0.0,0.0,0.607603222165,2.13251825383,0.861013829794,-0.498511626267,-1.19979677069,0.0109005890106
13582000000,ocean_waves,wamv,0.0,0.0,0.0,0.0,0.0,0.0,1.0,1.11540875178,9.88535514025,-0.518356571846,-0.0242991687249,-0.0114601892813,0.652494968493,0.757316664647,0.0,0.0,0.0,0.0,0.0,0.0,0.60753235722,2.13341954492,0.858764179638,-0.495524556568,-1.1992654989,0.011112482685
13583000000,ocean_waves,wamv,0.0,0.0,0.0,0.0,0.0,0.0,1.0,1.11601616,9.88748946681,-0.517500357031,-0.0248765930009,-0.0117534716567,0.652487378403,0.757299961739,0.0,0.0,0.0,0.0,0.0,0.0,0.607399544223,2.13433214232,0.856428801709,-0.492493374204,-1.19850008441,0.0113191798895
13584000000,ocean_waves,wamv,0.0,0.0,0.0,0.0,0.0,0.0,1.0,1.11662337427,9.88962471694,-0.516646561007,-0.0254525161111,-0.0120473769985,0.652479585468,0.757282919838,0.0,0.0,0.0,0.0,0.0,0.0,0.607205358026,2.13525582309,0.854009309334,-0.489418849894,-1.19750270581,0.0115206080278
13585000000,ocean_waves,wamv,0.0,0.0,0.0,0.0,0.0,0.0,1.0,1.1172303338,9.8917609015,-0.515795266155,-0.0260268468479,-0.0123418321028,0.652471591097,0.757265544729,0.0,0.0,0.0,0.0,0.0,0.0,0.606950404889,2.13619035576,0.851507360748,-0.486301785223,-1.19627565659,0.0117166986455
13586000000,ocean_waves,wamv,0.0,0.0,0.0,0.0,0.0,0.0,1.0,1.11783697847,9.89389803111,-0.514946553145,-0.0265994951089,-0.0126367644038,0.652463396862,0.757247842388,0.0,0.0,0.0,0.0,0.0,0.0,0.60663531825,2.1371355016,0.848924670695,-0.483143008125,-1.19482133011,0.011907386975
13588000000,ocean_waves,wamv,0.0,0.0,0.0,0.0,0.0,0.0,1.0,1.1184432488,9.89603611614,-0.514100500882,-0.0271703719446,-0.012932102003,0.652455004488,0.757229818975,0.0,0.0,0.0,0.0,0.0,0.0,0.606260760211,2.13809101285,0.846263006074,-0.479943379497,-1.19314222607,0.0120926118372
13589000000,ocean_waves,wamv,0.0,0.0,0.0,0.0,0.0,0.0,1.0,1.11904908599,9.8981751667,-0.513257186448,-0.0277393896039,-0.0132277737003,0.652446415853,0.757211480835,0.0,0.0,0.0,0.0,0.0,0.0,0.605827421185,2.13905663389,0.843524190621,-0.476703789211,-1.19124094995,0.0122723155123
13589000000,ocean_waves,wamv,0.0,0.0,0.0,0.0,0.0,0.0,1.0,1.11965443199,9.90031519265,-0.512416685044,-0.0283064615842,-0.0135237090251,0.652437632983,0.757192834484,0.0,0.0,0.0,0.0,0.0,0.0,0.60533602129,2.14003209967,0.840710105216,-0.473425162066,-1.18912021899,0.0124464437206
13590000000,ocean_waves,wamv,0.0,0.0,0.0,0.0,0.0,0.0,1.0,1.12025922947,9.90245620355,-0.511579069934,-0.0288715026799,-0.013819838267,0.652428658049,0.757173886607,0.0,0.0,0.0,0.0,0.0,0.0,0.604787309666,2.14101713621,0.837822690393,-0.470108456026,-1.18678286037,0.0126149455349
13591000000,ocean_waves,wamv,0.0,0.0,0.0,0.0,0.0,0.0,1.0,1.12086342189,9.9045982087,-0.510744412381,-0.0294344290328,-0.0141160925079,0.652419493358,0.75715464405,0.0,0.0,0.0,0.0,0.0,0.0,0.604182065188,2.14201146026,0.834863947246,-0.466754663896,-1.18423181458,0.012777773397
13592000000,ocean_waves,wamv,0.0,0.0,0.0,0.0,0.0,0.0,1.0,1.12146695353,9.90674121709,-0.509912781585,-0.0299951581862,-0.014412403653,0.652410141354,0.75713511381,0.0,0.0,0.0,0.0,0.0,0.0,0.603521097749,2.14301477762,0.831835940985,-0.463364819458,-1.18147014059,0.0129348833276
13594000000,ocean_waves,wamv,0.0,0.0,0.0,0.0,0.0,0.0,1.0,1.1220697695,9.90888523743,-0.509084244615,-0.0305536091395,-0.0147087044653,0.652400604609,0.757115303034,0.0,0.0,0.0,0.0,0.0,0.0,0.602805248684,2.14402678411,0.828740804463,-0.459939994363,-1.17850101922,0.0130862344408
13594000000,ocean_waves,wamv,0.0,0.0,0.0,0.0,0.0,0.0,1.0,1.12267181578,9.91103027808,-0.508258866336,-0.031109702405,-0.0150049285973,0.652390885818,0.757095219002,0.0,0.0,0.0,0.0,0.0,0.0,0.602035391488,2.14504716358,0.825580742692,-0.456481305283,-1.17532775431,0.0132317901124
13594000000,ocean_waves,wamv,0.0,0.0,0.0,0.0,0.0,0.0,1.0,1.12327303927,9.91317634711,-0.507436709335,-0.0316633600721,-0.0153010106283,0.652380987796,0.757074869128,0.0,0.0,0.0,0.0,0.0,0.0,0.601212435571,2.14607558734,0.822358035649,-0.452989916623,-1.1719537891,0.0133715173846
13596000000,ocean_waves,wamv,0.0,0.0,0.0,0.0,0.0,0.0,1.0,1.12387338781,9.9153234522,-0.506617833837,-0.0322145058701,-0.0155968861,0.65237091347,0.757054260944,0.0,0.0,0.0,0.0,0.0,0.0,0.600337325594,2.1471117135,0.819075047262,-0.449467042845,-1.16838270327,0.0135053875514
13597000000,ocean_waves,wamv,0.0,0.0,0.0,0.0,0.0,0.0,1.0,1.12447281021,9.91747160072,-0.505802297612,-0.0327630652392,-0.0158924915547,0.652360665875,0.757033402095,0.0,0.0,0.0,0.0,0.0,0.0,0.599411045048,2.14815518524,0.815734234747,-0.445913955108,-1.16461822661,0.0136333765579
13598000000,ocean_waves,wamv,0.0,0.0,0.0,0.0,0.0,0.0,1.0,1.12507125633,9.91962079964,-0.504990155878,-0.0333089654094,-0.0161877645763,0.652350248147,0.757012300325,0.0,0.0,0.0,0.0,0.0,0.0,0.59843462022,2.14920562812,0.812338151913,-0.442331991417,-1.16066425386,0.0137554655533
13600000000,ocean_waves,wamv,0.0,0.0,0.0,0.0,0.0,0.0,1.0,1.12566867708,9.92177105554,-0.504181461189,-0.0338521354897,-0.0164826438387,0.652339663516,0.756990963472,0.0,0.0,0.0,0.0,0.0,0.0,0.597409127022,2.15026264867,0.808889464932,-0.438722561897,-1.15652487011,0.0138716417582
13600000000,ocean_waves,wamv,0.0,0.0,0.0,0.0,0.0,0.0,1.0,1.12626502453,9.92392237459,-0.503376263297,-0.0343925065623,-0.0167770691507,0.652328915303,0.75696939945,0.0,0.0,0.0,0.0,0.0,0.0,0.596335691253,2.15132583124,0.805390976932,-0.435087160682,-1.15220435118,0.0139818988944
13601000000,ocean_waves,wamv,0.0,0.0,0.0,0.0,0.0,0.0,1.0,1.12686025192,9.92607476251,-0.502574609006,-0.034930011803,-0.0170709815166,0.652318006908,0.756947616239,0.0,0.0,0.0,0.0,0.0,0.0,0.595215504415,2.15239473239,0.801845638911,-0.431427386648,-1.1477072222,0.0140862387855
13603000000,ocean_waves,wamv,0.0,0.0,0.0,0.0,0.0,0.0,1.0,1.12745431374,9.92822822454,-0.501776541983,-0.0354645866195,-0.017364323199,0.65230694181,0.75692562187,0.0,0.0,0.0,0.0,0.0,0.0,0.594049831025,2.15346887496,0.798256590639,-0.427744965589,-1.14303828392,0.0141846724057
13603000000,ocean_waves,wamv,0.0,0.0,0.0,0.0,0.0,0.0,1.0,1.12804716586,9.93038276542,-0.500982102519,-0.0359961688273,-0.0176570378015,0.652295723553,0.756903424408,0.0,0.0,0.0,0.0,0.0,0.0,0.5928400304,2.1545477393,0.794627209723,-0.424041782852,-1.13820269307,0.0142772220233
13603000000,ocean_waves,wamv,0.0,0.0,0.0,0.0,0.0,0.0,1.0,1.12863876563,9.93253838929,-0.500191327216,-0.0365246988855,-0.0179490703713,0.652284355743,0.756881031931,0.0,0.0,0.0,0.0,0.0,0.0,0.591587585676,2.15563074561,0.790961188686,-0.420319948915,-1.13320606955,0.0143639237902
13605000000,ocean_waves,wamv,0.0,0.0,0.0,0.0,0.0,0.0,1.0,1.12922907207,9.93469509963,-0.49940424852,-0.0370501202356,-0.0182403675439,0.652272842033,0.756858452505,0.0,0.0,0.0,0.0,0.0,0.0,0.590294157467,2.15671722739,0.78726268354,-0.416581898108,-1.1280546957,0.0144448321225
13606000000,ocean_waves,wamv,0.0,0.0,0.0,0.0,0.0,0.0,1.0,1.12981804613,9.9368528991,-0.498620893945,-0.0375723798757,-0.0185308777817,0.652261186115,0.756835694142,0.0,0.0,0.0,0.0,0.0,0.0,0.588961704548,2.15780636736,0.78353663315,-0.41283062675,-1.12275596645,0.0145200286231
13607000000,ocean_waves,wamv,0.0,0.0,0.0,0.0,0.0,0.0,1.0,1.1304056515,9.93901178915,-0.497841284077,-0.0380914298236,-0.018820551963,0.652249391687,0.756812764719,0.0,0.0,0.0,0.0,0.0,0.0,0.587592936308,2.15889695847,0.779789967667,-0.409070581281,-1.11732008152,0.0145896535907
13608000000,ocean_waves,wamv,0.0,0.0,0.0,0.0,0.0,0.0,1.0,1.13099185546,9.94117176957,-0.497065430179,-0.0386072288674,-0.0191093440863,0.652237462425,0.756789671876,0.0,0.0,0.0,0.0,0.0,0.0,0.586191460373,2.15998732652,0.77603201441,-0.405307946528,-1.11176059559,0.0146539181122
13609000000,ocean_waves,wamv,0.0,0.0,0.0,0.0,0.0,0.0,1.0,1.13157662572,9.94333284015,-0.496293342713,-0.0391197363188,-0.0193972088011,0.65222540206,0.756766423296,0.0,0.0,0.0,0.0,0.0,0.0,0.584757708283,2.16107748149,0.772263576822,-0.401542654511,-1.10607916147,0.0147128289557
13610000000,ocean_waves,wamv,0.0,0.0,0.0,0.0,0.0,0.0,1.0,1.13215993039,9.94549500073,-0.495525031512,-0.0396289118892,-0.0196841013712,0.652213214382,0.756743026714,0.0,0.0,0.0,0.0,0.0,0.0,0.583292054967,2.1621674713,0.768485283441,-0.397774497019,-1.1002772131,0.0147663946665
13611000000,ocean_waves,wamv,0.0,0.0,0.0,0.0,0.0,0.0,1.0,1.13274173793,9.94765825119,-0.494760505777,-0.0401347156993,-0.0199699776877,0.652200903234,0.756719489909,0.0,0.0,0.0,0.0,0.0,0.0,0.581794886363,2.16325734417,0.764697769419,-0.394003264586,-1.09435621732,0.0148146299515
13612000000,ocean_waves,wamv,0.0,0.0,0.0,0.0,0.0,0.0,1.0,1.13332201723,9.94982259146,-0.49399977406,-0.0406371082881,-0.0202547942827,0.652188472512,0.756695820697,0.0,0.0,0.0,0.0,0.0,0.0,0.580266599374,2.16434714959,0.760901681888,-0.39022874298,-1.08831767342,0.0148575555385
13613000000,ocean_waves,wamv,0.0,0.0,0.0,0.0,0.0,0.0,1.0,1.13390073756,9.95198802155,-0.493242844265,-0.041136050624,-0.0205385083445,0.652175926168,0.756672026932,0.0,0.0,0.0,0.0,0.0,0.0,0.578707603175,2.16543693773,0.757097672563,-0.38645071562,-1.08216311806,0.0148951980021
13614000000,ocean_waves,wamv,0.0,0.0,0.0,0.0,0.0,0.0,1.0,1.13447786863,9.95415454147,-0.492489723627,-0.041631504111,-0.0208210777301,0.652163268201,0.756648116496,0.0,0.0,0.0,0.0,0.0,0.0,0.577118316524,2.16652676043,0.75328640959,-0.382668959529,-1.07589411546,0.0149275892193
13615000000,ocean_waves,wamv,0.0,0.0,0.0,0.0,0.0,0.0,1.0,1.13505338057,9.95632215133,-0.491740418711,-0.0421234306023,-0.0211024609804,0.652150502659,0.756624097301,0.0,0.0,0.0,0.0,0.0,0.0,0.575499170946,2.16761666933,0.749468564596,-0.378883252708,-1.06951226983,0.0149547661587
13616000000,ocean_waves,wamv,0.0,0.0,0.0,0.0,0.0,0.0,1.0,1.13562724396,9.95849085126,-0.490994935398,-0.0426117924065,-0.0213826173328,0.652137633637,0.756599977279,0.0,0.0,0.0,0.0,0.0,0.0,0.573850607477,2.16870671795,0.745644821963,-0.375093366261,-1.06301921402,0.0149767702023
13617000000,ocean_waves,wamv,0.0,0.0,0.0,0.0,0.0,0.0,1.0,1.13619942982,9.96066064147,-0.490253278877,-0.0430965522993,-0.0216615067359,0.652124665275,0.756575764379,0.0,0.0,0.0,0.0,0.0,0.0,0.57217307848,2.16979696019,0.741815874834,-0.371299070174,-1.05641661709,0.0149936467666
13618000000,ocean_waves,wamv,0.0,0.0,0.0,0.0,0.0,0.0,1.0,1.13676990965,9.96283152219,-0.489515453631,-0.0435776735305,-0.0219390898616,0.652111601751,0.756551466569,0.0,0.0,0.0,0.0,0.0,0.0,0.570467045439,2.17088745124,0.737982431692,-0.367500130016,-1.04970617706,0.0150054446528
13619000000,ocean_waves,wamv,0.0,0.0,0.0,0.0,0.0,0.0,1.0,1.1373386554,9.96500349376,-0.48878146343,-0.0440551198366,-0.0222153281204,0.652098447285,0.756527091823,0.0,0.0,0.0,0.0,0.0,0.0,0.568732981367,2.17197824673,0.734145205177,-0.363696310182,-1.04288963097,0.0150122157542
13620000000,ocean_waves,wamv,0.0,0.0,0.0,0.0,0.0,0.0,1.0,1.13790563953,9.96717655651,-0.488051311316,-0.0445288554478,-0.0224901836739,0.652085206128,0.756502648125,0.0,0.0,0.0,0.0,0.0,0.0,0.566971367917,2.17306940377,0.730304924514,-0.359887370098,-1.03596874505,0.0150140143999
13621000000,ocean_waves,wamv,0.0,0.0,0.0,0.0,0.0,0.0,1.0,1.13847083496,9.96935071089,-0.487324999592,-0.0449988450983,-0.0227636194505,0.652071882567,0.756478143462,0.0,0.0,0.0,0.0,0.0,0.0,0.56518269692,2.17416098106,0.726462329543,-0.356073064102,-1.0289453215,0.0150108970855
13622000000,ocean_waves,wamv,0.0,0.0,0.0,0.0,0.0,0.0,1.0,1.13903421513,9.97152595737,-0.486602529811,-0.0454650540367,-0.0230355991579,0.652058480914,0.756453585821,0.0,0.0,0.0,0.0,0.0,0.0,0.563367469775,2.17525303732,0.722618171895,-0.352253147053,-1.02182119709,0.015002922028
13623000000,ocean_waves,wamv,0.0,0.0,0.0,0.0,0.0,0.0,1.0,1.139595754,9.97370229649,-0.48588390276,-0.045927448035,-0.0233060872988,0.652045005509,0.756428983185,0.0,0.0,0.0,0.0,0.0,0.0,0.561526197255,2.17634563369,0.718773218068,-0.348427365874,-1.01459824334,0.0149901489077
13624000000,ocean_waves,wamv,0.0,0.0,0.0,0.0,0.0,0.0,1.0,1.14015542602,9.97587972887,-0.485169118445,-0.0463859933974,-0.0235750491851,0.65203146071,0.756404343534,0.0,0.0,0.0,0.0,0.0,0.0,0.55965939906,2.17743883241,0.714928249815,-0.344595464227,-1.00727836566,0.0149726385369
13625000000,ocean_waves,wamv,0.0,0.0,0.0,0.0,0.0,0.0,1.0,1.1407132062,9.97805825516,-0.484458176073,-0.0468406569697,-0.0238424509532,0.652017850894,0.756379674834,0.0,0.0,0.0,0.0,0.0,0.0,0.557767604016,2.17853269797,0.711084068873,-0.340757178452,-0.999863504782,0.014950452697
13626000000,ocean_waves,wamv,0.0,0.0,0.0,0.0,0.0,0.0,1.0,1.14126907008,9.98023787611,-0.483751074039,-0.0472914061527,-0.0241082595818,0.652004180452,0.756354985042,0.0,0.0,0.0,0.0,0.0,0.0,0.555851352622,2.17962729532,0.707241485369,-0.336912244319,-0.992355647032,0.0149236541404
13627000000,ocean_waves,wamv,0.0,0.0,0.0,0.0,0.0,0.0,1.0,1.14182299373,9.98241859251,-0.483047809906,-0.0477382089102,-0.0243724429068,0.651990453781,0.756330282096,0.0,0.0,0.0,0.0,0.0,0.0,0.553911193419,2.18072269226,0.703401334661,-0.333060388117,-0.984756811315,0.0148923062072
13628000000,ocean_waves,wamv,0.0,0.0,0.0,0.0,0.0,0.0,1.0,1.14237495382,9.98460040524,-0.482348380383,-0.0481810337799,-0.0246349696411,0.651976675286,0.756305573917,0.0,0.0,0.0,0.0,0.0,0.0,0.551947686234,2.18181895888,0.69956447209,-0.329201328877,-0.977069061937,0.0148564729696
13629000000,ocean_waves,wamv,0.0,0.0,0.0,0.0,0.0,0.0,1.0,1.14292492754,9.98678331524,-0.481652781297,-0.0486198498835,-0.0248958093928,0.65196284937,0.756280868404,0.0,0.0,0.0,0.0,0.0,0.0,0.549961401054,2.18291616796,0.695731779001,-0.325334776949,-0.969294504557,0.0148162192514
13630000000,ocean_waves,wamv,0.0,0.0,0.0,0.0,0.0,0.0,1.0,1.14347289271,9.98896732354,-0.480961007574,-0.0490546269409,-0.0251549326859,0.651948980434,0.756256173429,0.0,0.0,0.0,0.0,0.0,0.0,0.547952919804,2.18401439433,0.691904158279,-0.321460436329,-0.961435294189,0.0147716103019
13631000000,ocean_waves,wamv,0.0,0.0,0.0,0.0,0.0,0.0,1.0,1.14401882771,9.99115243123,-0.480273053205,-0.0494853352807,-0.0254123109848,0.651935072869,0.756231496835,0.0,0.0,0.0,0.0,0.0,0.0,0.545922837266,2.1851137169,0.688082545408,-0.317577997367,-0.953493638173,0.0147227124308
13632000000,ocean_waves,wamv,0.0,0.0,0.0,0.0,0.0,0.0,1.0,1.14456271154,9.99333863948,-0.479588911214,-0.0499119458545,-0.025667916717,0.651921131055,0.756206846436,0.0,0.0,0.0,0.0,0.0,0.0,0.543871761087,2.18621421769,0.684267909743,-0.313687140246,-0.945471797195,0.0146695926956
13633000000,ocean_waves,wamv,0.0,0.0,0.0,0.0,0.0,0.0,1.0,1.14510452384,9.99552594958,-0.478908573616,-0.05033443025,-0.0259217233028,0.651907159351,0.756182230007,0.0,0.0,0.0,0.0,0.0,0.0,0.541800314183,2.18731598368,0.680461260316,-0.309787528319,-0.937372094573,0.0146123193015
13634000000,ocean_waves,wamv,0.0,0.0,0.0,0.0,0.0,0.0,1.0,1.14564424486,9.99771436287,-0.478232031371,-0.0507527607071,-0.0261737051863,0.651893162097,0.756157655286,0.0,0.0,0.0,0.0,0.0,0.0,0.539709136197,2.18841910686,0.676663652944,-0.305878807982,-0.929196922048,0.0145509618147
13635000000,ocean_waves,wamv,0.0,0.0,0.0,0.0,0.0,0.0,1.0,1.14618185552,9.99990388082,-0.477559274331,-0.0511669101351,-0.0264238378737,0.651879143603,0.756133129968,0.0,0.0,0.0,0.0,0.0,0.0,0.537598886926,2.1895236859,0.672876197812,-0.301960602576,-0.920948752936,0.0144855916483
13636000000,ocean_waves,wamv,0.0,0.0,0.0,0.0,0.0,0.0,1.0,1.14671733744,10.002094505,-0.476890291169,-0.0515768521328,-0.0266720979755,0.651865108145,0.756108661699,0.0,0.0,0.0,0.0,0.0,0.0,0.53547024856,2.19062982657,0.669100073026,-0.298032510822,-0.91263015066,0.014416282443
13637000000,ocean_waves,wamv,0.0,0.0,0.0,0.0,0.0,0.0,1.0,1.14725067293,10.0042862371,-0.476225069305,-0.0519825610128,-0.0269184632603,0.651851059961,0.756084258078,0.0,0.0,0.0,0.0,0.0,0.0,0.533323932221,2.19173764396,0.665336535048,-0.294094098805,-0.904243793416,0.0143431109503
13638000000,ocean_waves,wamv,0.0,0.0,0.0,0.0,0.0,0.0,1.0,1.14778184505,10.0064790788,-0.475563594791,-0.0523840118272,-0.0271629127181,0.651837003244,0.756059926645,0.0,0.0,0.0,0.0,0.0,0.0,0.53116068186,2.19284726578,0.661586951145,-0.290144888026,-0.895792488786,0.0142661577556
13639000000,ocean_waves,wamv,0.0,0.0,0.0,0.0,0.0,0.0,1.0,1.14831083765,10.0086730323,-0.474905852187,-0.0527811804076,-0.0274054266474,0.651822942135,0.75603567488,0.0,0.0,0.0,0.0,0.0,0.0,0.528981289242,2.1939588341,0.657852815791,-0.286184349018,-0.887279229857,0.0141855090448
13640000000,ocean_waves,wamv,0.0,0.0,0.0,0.0,0.0,0.0,1.0,1.14883763545,10.0108680994,-0.474251824362,-0.0531740434083,-0.0276459867676,0.651808880713,0.756011510195,0.0,0.0,0.0,0.0,0.0,0.0,0.526786605163,2.19507251401,0.654135819853,-0.282211869832,-0.87870723725,0.014101258306
13641000000,ocean_waves,wamv,0.0,0.0,0.0,0.0,0.0,0.0,1.0,1.14936222408,10.0130642827,-0.473601492216,-0.0535625783764,-0.0278845763874,0.651794822986,0.755987439926,0.0,0.0,0.0,0.0,0.0,0.0,0.524577571286,2.19618850178,0.650437933221,-0.278226726631,-0.870080078565,0.0140135100284
13642000000,ocean_waves,wamv,0.0,0.0,0.0,0.0,0.0,0.0,1.0,1.14988459029,10.0152615846,-0.472954834204,-0.053946763867,-0.0281211806915,0.651780772877,0.755963471322,0.0,0.0,0.0,0.0,0.0,0.0,0.522355284054,2.19730704912,0.646761603651,-0.274227995766,-0.861401908876,0.0139223870952
13643000000,ocean_waves,wamv,0.0,0.0,0.0,0.0,0.0,0.0,1.0,1.15040472229,10.0174600081,-0.472311825175,-0.0543265797121,-0.0283557874186,0.651766734186,0.75593961152,0.0,0.0,0.0,0.0,0.0,0.0,0.520121204702,2.19842853968,0.643110438344,-0.270214277625,-0.852678262507,0.0138280541421
13644000000,ocean_waves,wamv,0.0,0.0,0.0,0.0,0.0,0.0,1.0,1.15092261042,10.0196595567,-0.47167243419,-0.0547020075243,-0.0285883881384,0.651752710536,0.755915867505,0.0,0.0,0.0,0.0,0.0,0.0,0.517877482104,2.19955360683,0.639490226322,-0.266183270957,-0.843917270825,0.0137307535544
13645000000,ocean_waves,wamv,0.0,0.0,0.0,0.0,0.0,0.0,1.0,1.15143824534,10.021860234,-0.471036630409,-0.0550730293477,-0.0288189748195,0.651738705509,0.755892246204,0.0,0.0,0.0,0.0,0.0,0.0,0.515624418124,2.20068220918,0.635900868976,-0.262135106156,-0.835120096318,0.0136305283354
13646000000,ocean_waves,wamv,0.0,0.0,0.0,0.0,0.0,0.0,1.0,1.15195161789,10.0240620435,-0.470404383546,-0.0554396275601,-0.0290475395732,0.651724722662,0.755868754488,0.0,0.0,0.0,0.0,0.0,0.0,0.513362178256,2.20181425375,0.63234181327,-0.258070100573,-0.826287385937,0.0135274091713
13647000000,ocean_waves,wamv,0.0,0.0,0.0,0.0,0.0,0.0,1.0,1.15246271903,10.0262649884,-0.469775663872,-0.0558017848761,-0.0292740746547,0.651710765527,0.755845399175,0.0,0.0,0.0,0.0,0.0,0.0,0.511090930415,2.20294964698,0.628812504147,-0.253988574444,-0.817419793018,0.0134214297388
13648000000,ocean_waves,wamv,0.0,0.0,0.0,0.0,0.0,0.0,1.0,1.15297153994,10.0284690721,-0.469150442209,-0.0561594843476,-0.0294985724648,0.651696837606,0.755822187022,0.0,0.0,0.0,0.0,0.0,0.0,0.508810844044,2.20408829546,0.625312388107,-0.249890847999,-0.808517973164,0.0133126267596
13649000000,ocean_waves,wamv,0.0,0.0,0.0,0.0,0.0,0.0,1.0,1.15347807194,10.0306742977,-0.468528689945,-0.0565127093704,-0.029721025554,0.651682942377,0.755799124725,0.0,0.0,0.0,0.0,0.0,0.0,0.506522094189,2.20523010504,0.621840902345,-0.24577724485,-0.799582598951,0.0132010404124
13650000000,ocean_waves,wamv,0.0,0.0,0.0,0.0,0.0,0.0,1.0,1.15398230655,10.0328806683,-0.467910379027,-0.0568614436847,-0.0299414266236,0.651669083287,0.755776218918,0.0,0.0,0.0,0.0,0.0,0.0,0.504224857435,2.20637498121,0.618397485789,-0.241648090385,-0.790614344269,0.0130867139192
13651000000,ocean_waves,wamv,0.0,0.0,0.0,0.0,0.0,0.0,1.0,1.15448423546,10.0350881868,-0.467295481965,-0.0572056713766,-0.0301597685269,0.651655263761,0.755753476166,0.0,0.0,0.0,0.0,0.0,0.0,0.501919312793,2.20752282973,0.614981577811,-0.237503709422,-0.781613887485,0.012969693543
13652000000,ocean_waves,wamv,0.0,0.0,0.0,0.0,0.0,0.0,1.0,1.15498385055,10.0372968561,-0.466683971835,-0.0575453768826,-0.0303760442739,0.651641487193,0.755730902969,0.0,0.0,0.0,0.0,0.0,0.0,0.499605644195,2.20867355597,0.611592611081,-0.23334442875,-0.772581920843,0.0128500286267
13653000000,ocean_waves,wamv,0.0,0.0,0.0,0.0,0.0,0.0,1.0,1.15548114386,10.0395066791,-0.466075822284,-0.0578805449925,-0.030590247031,0.651627756952,0.755708505753,0.0,0.0,0.0,0.0,0.0,0.0,0.497284037487,2.20982706405,0.608230017844,-0.229170580267,-0.763519139309,0.0127277710217
13654000000,ocean_waves,wamv,0.0,0.0,0.0,0.0,0.0,0.0,1.0,1.15597610766,10.0417176583,-0.465471007528,-0.0582111608522,-0.0308023701244,0.651614076379,0.755686290872,0.0,0.0,0.0,0.0,0.0,0.0,0.494954682281,2.21098325832,0.604893226789,-0.224982495481,-0.754426248015,0.0126029750386
13655000000,ocean_waves,wamv,0.0,0.0,0.0,0.0,0.0,0.0,1.0,1.15646873437,10.0439297964,-0.464869502354,-0.0585372099643,-0.0310124070413,0.651600448786,0.755664264605,0.0,0.0,0.0,0.0,0.0,0.0,0.492617769674,2.21214204306,0.601581667923,-0.22078050666,-0.745303954149,0.012475696889
13656000000,ocean_waves,wamv,0.0,0.0,0.0,0.0,0.0,0.0,1.0,1.15695901665,10.0461430959,-0.464271282126,-0.0588586781933,-0.0312203514317,0.651586877458,0.755642433153,0.0,0.0,0.0,0.0,0.0,0.0,0.490273494348,2.21330332144,0.598294765385,-0.216564950885,-0.736152975464,0.0123459945218
13657000000,ocean_waves,wamv,0.0,0.0,0.0,0.0,0.0,0.0,1.0,1.15744694732,10.0483575592,-0.463676322782,-0.0591755517662,-0.0314261971091,0.651573365651,0.755620802641,0.0,0.0,0.0,0.0,0.0,0.0,0.48792205212,2.21446699652,0.595031944313,-0.212336166115,-0.72697403178,0.0122139270869
