%time,field.name0,field.name1,field.pose0.position.x,field.pose0.position.y,field.pose0.position.z,field.pose0.orientation.x,field.pose0.orientation.y,field.pose0.orientation.z,field.pose0.orientation.w,field.pose1.position.x,field.pose1.position.y,field.pose1.position.z,field.pose1.orientation.x,field.pose1.orientation.y,field.pose1.orientation.z,field.pose1.orientation.w,field.twist0.linear.x,field.twist0.linear.y,field.twist0.linear.z,field.twist0.angular.x,field.twist0.angular.y,field.twist0.angular.z,field.twist1.linear.x,field.twist1.linear.y,field.twist1.linear.z,field.twist1.angular.x,field.twist1.angular.y,field.twist1.angular.z
29524000000,ocean_waves,wamv,0.0,0.0,0.0,0.0,0.0,0.0,1.0,-0.116370427719,8.24287471925,2.45668647153,0.238764089151,-0.187064798874,0.610729116852,0.731442695352,0.0,0.0,0.0,0.0,0.0,0.0,0.254186392121,1.8795654496,-0.846749902578,0.424683366017,-1.00119045228,-0.355630441992
29524000000,ocean_waves,wamv,0.0,0.0,0.0,0.0,0.0,0.0,1.0,-0.116115333184,8.24475316948,2.45584012545,0.238578330388,-0.187603441785,0.610678741983,0.731407412452,0.0,0.0,0.0,0.0,0.0,0.0,0.255080909201,1.87839126939,-0.846196509706,0.421881415204,-1.00401453771,-0.357311150012
29524000000,ocean_waves,wamv,0.0,0.0,0.0,0.0,0.0,0.0,1.0,-0.115859353649,8.24663044639,2.45499435775,0.238390458091,-0.188142387751,0.610628151373,0.731372471572,0.0,0.0,0.0,0.0,0.0,0.0,0.255965846426,1.87721770224,-0.845617622686,0.419077596398,-1.00680796423,-0.358982085523
29524000000,ocean_waves,wamv,0.0,0.0,0.0,0.0,0.0,0.0,1.0,-0.115602498731,8.24850655062,2.45414919393,0.238200481329,-0.18868162328,0.610577344995,0.731337870967,0.0,0.0,0.0,0.0,0.0,0.0,0.256841163851,1.87604477402,-0.84501325029,0.416271884203,-1.00957069583,-0.360643196325
29524000000,ocean_waves,wamv,0.0,0.0,0.0,0.0,0.0,0.0,1.0,-0.115344778086,8.25038148284,2.45330465947,0.238008409186,-0.189221134853,0.610526322851,0.731303608898,0.0,0.0,0.0,0.0,0.0,0.0,0.257706825551,1.87487251057,-0.844383401451,0.413464256761,-1.01230270357,-0.362294427387
29524000000,ocean_waves,wamv,0.0,0.0,0.0,0.0,0.0,0.0,1.0,-0.115086201398,8.25225524373,2.45246077984,0.237814250754,-0.189760908941,0.610475084971,0.731269683636,0.0,0.0,0.0,0.0,0.0,0.0,0.258562801668,1.87370093763,-0.84372809148,0.410654696919,-1.01500397387,-0.363935723594
29525000000,ocean_waves,wamv,0.0,0.0,0.0,0.0,0.0,0.0,1.0,-0.114826778377,8.25412783402,2.45161758048,0.237618015135,-0.190300932,0.610423631418,0.731236093454,0.0,0.0,0.0,0.0,0.0,0.0,0.259409066503,1.87253008076,-0.843047332981,0.407843190331,-1.01767449687,-0.365567025814
29528000000,ocean_waves,wamv,0.0,0.0,0.0,0.0,0.0,0.0,1.0,-0.114566518752,8.25599925443,2.45077508683,0.237419711439,-0.190841190483,0.610371962287,0.731202836626,0.0,0.0,0.0,0.0,0.0,0.0,0.260245601175,1.87135996523,-0.84234114485,0.405029727033,-1.02031427814,-0.367188274943
29528000000,ocean_waves,wamv,0.0,0.0,0.0,0.0,0.0,0.0,1.0,-0.114305432266,8.25786950574,2.44993332432,0.237219348781,-0.191381670836,0.610320077707,0.731169911429,0.0,0.0,0.0,0.0,0.0,0.0,0.261072391664,1.87019061599,-0.841609543406,0.402214299446,-1.0229233271,-0.368799408129
29529000000,ocean_waves,wamv,0.0,0.0,0.0,0.0,0.0,0.0,1.0,-0.114043528669,8.25973858873,2.44909231833,0.237016936283,-0.191922359511,0.610267977844,0.73113731614,0.0,0.0,0.0,0.0,0.0,0.0,0.2618894314,1.86902205756,-0.840852551609,0.399396903844,-1.02550166877,-0.370400362996
29529000000,ocean_waves,wamv,0.0,0.0,0.0,0.0,0.0,0.0,1.0,-0.113780817711,8.26160650423,2.44825209423,0.236812483067,-0.192463242967,0.610215662902,0.731105049031,0.0,0.0,0.0,0.0,0.0,0.0,0.262696719908,1.86785431395,-0.84007019315,0.39657753878,-1.0280493358,-0.37199107523
29531000000,ocean_waves,wamv,0.0,0.0,0.0,0.0,0.0,0.0,1.0,-0.113517309135,8.26347325306,2.44741267737,0.236605998258,-0.193004307673,0.610163133123,0.731073108372,0.0,0.0,0.0,0.0,0.0,0.0,0.263494263638,1.86668740863,-0.839262495505,0.393756205177,-1.03056637189,-0.373571480171
29533000000,ocean_waves,wamv,0.0,0.0,0.0,0.0,0.0,0.0,1.0,-0.113253012672,8.26533883609,2.44657409307,0.236397490976,-0.193545540111,0.610110388792,0.731041492428,0.0,0.0,0.0,0.0,0.0,0.0,0.264282075146,1.86552136442,-0.838429486991,0.390932905178,-1.03305282737,-0.375141511791
29533000000,ocean_waves,wamv,0.0,0.0,0.0,0.0,0.0,0.0,1.0,-0.112987938036,8.2672032542,2.44573636661,0.236186970342,-0.194086926784,0.610057430232,0.731010199458,0.0,0.0,0.0,0.0,0.0,0.0,0.265060172917,1.86435620355,-0.837571196934,0.38810764153,-1.03550875852,-0.376701103095
29535000000,ocean_waves,wamv,0.0,0.0,0.0,0.0,0.0,0.0,1.0,-0.112722094912,8.26906650828,2.44489952324,0.235974445468,-0.194628454215,0.61000425781,0.730979227714,0.0,0.0,0.0,0.0,0.0,0.0,0.265828583526,1.86319194749,-0.836687665678,0.385280418838,-1.03793423961,-0.378250190951
29535000000,ocean_waves,wamv,0.0,0.0,0.0,0.0,0.0,0.0,1.0,-0.112455492956,8.27092859928,2.44406358817,0.235759925459,-0.19517010895,0.609950871937,0.730948575444,0.0,0.0,0.0,0.0,0.0,0.0,0.266587336957,1.86202861714,-0.835778928366,0.38245123967,-1.04032934059,-0.379788709345
29535000000,ocean_waves,wamv,0.0,0.0,0.0,0.0,0.0,0.0,1.0,-0.112188141789,8.27278952812,2.44322858656,0.235543419412,-0.195711877561,0.609897273066,0.730918240886,0.0,0.0,0.0,0.0,0.0,0.0,0.267336468364,1.86086623272,-0.834845024778,0.379620105722,-1.04269413853,-0.38131659424
29538000000,ocean_waves,wamv,0.0,0.0,0.0,0.0,0.0,0.0,1.0,-0.111920050992,8.27464929578,2.44239454355,0.23532493641,-0.196253746646,0.609843461695,0.730888222275,0.0,0.0,0.0,0.0,0.0,0.0,0.268076018097,1.8597048139,-0.833886003115,0.376787017849,-1.045028721,-0.382833785807
29538000000,ocean_waves,wamv,0.0,0.0,0.0,0.0,0.0,0.0,1.0,-0.111651230104,8.27650790324,2.44156148421,0.235104485521,-0.196795702831,0.609789438362,0.730858517839,0.0,0.0,0.0,0.0,0.0,0.0,0.268806028122,1.85854437989,-0.832901910132,0.373951973469,-1.04733317169,-0.384340224622
29538000000,ocean_waves,wamv,0.0,0.0,0.0,0.0,0.0,0.0,1.0,-0.111381688617,8.2783653515,2.44072943356,0.234882075801,-0.197337732771,0.609735203651,0.730829125802,0.0,0.0,0.0,0.0,0.0,0.0,0.26952654332,1.85738494955,-0.83189280106,0.37111496792,-1.04960758166,-0.38583585669
29540000000,ocean_waves,wamv,0.0,0.0,0.0,0.0,0.0,0.0,1.0,-0.111111435983,8.28022164158,2.43989841657,0.234657716285,-0.197879823146,0.609680758185,0.730800044389,0.0,0.0,0.0,0.0,0.0,0.0,0.270237607719,1.85622654153,-0.830858729855,0.368275992102,-1.05185203504,-0.387320629693
29541000000,ocean_waves,wamv,0.0,0.0,0.0,0.0,0.0,0.0,1.0,-0.110840481605,8.28207677452,2.43906845814,0.234431415992,-0.198421960663,0.609626102628,0.73077127182,0.0,0.0,0.0,0.0,0.0,0.0,0.270939265605,1.85506917449,-0.829799758863,0.365435034044,-1.0540666201,-0.388794497858
29542000000,ocean_waves,wamv,0.0,0.0,0.0,0.0,0.0,0.0,1.0,-0.110568834849,8.28393075138,2.43823958311,0.23420318392,-0.198964132052,0.609571237683,0.73074280632,0.0,0.0,0.0,0.0,0.0,0.0,0.271631558709,1.85391286718,-0.82871595279,0.362592077582,-1.05625142013,-0.390257419776
29542000000,ocean_waves,wamv,0.0,0.0,0.0,0.0,0.0,0.0,1.0,-0.110296505038,8.28578357323,2.43741181625,0.233973029047,-0.199506324068,0.609516164088,0.730714646118,0.0,0.0,0.0,0.0,0.0,0.0,0.272314525684,1.85275763872,-0.827607381366,0.3597471029,-1.05840651578,-0.391709359998
29544000000,ocean_waves,wamv,0.0,0.0,0.0,0.0,0.0,0.0,1.0,-0.110023501466,8.28763524118,2.43658518227,0.233740960331,-0.200048523486,0.609460882615,0.73068678945,0.0,0.0,0.0,0.0,0.0,0.0,0.272988200269,1.85160350872,-0.826474116151,0.356900086099,-1.06053198022,-0.39315028789
29545000000,ocean_waves,wamv,0.0,0.0,0.0,0.0,0.0,0.0,1.0,-0.109749833394,8.28948575634,2.43575970578,0.23350698671,-0.200590717095,0.609405394069,0.730659234564,0.0,0.0,0.0,0.0,0.0,0.0,0.273652610497,1.85045049745,-0.825316230583,0.354050999557,-1.06262787876,-0.394580177803
29546000000,ocean_waves,wamv,0.0,0.0,0.0,0.0,0.0,0.0,1.0,-0.109475510063,8.29133511984,2.43493541134,0.2332711171,-0.201132891702,0.609349699284,0.730631979717,0.0,0.0,0.0,0.0,0.0,0.0,0.274307779658,1.84929862593,-0.82413380598,0.351199813584,-1.0646942767,-0.395999011743
29547000000,ocean_waves,wamv,0.0,0.0,0.0,0.0,0.0,0.0,1.0,-0.109200540697,8.29318333285,2.4341123234,0.2330333604,-0.201675034127,0.609293799123,0.730605023184,0.0,0.0,0.0,0.0,0.0,0.0,0.274953723608,1.84814791609,-0.822926921909,0.348346495144,-1.06673122714,-0.39740677491
29547000000,ocean_waves,wamv,0.0,0.0,0.0,0.0,0.0,0.0,1.0,-0.108924934509,8.29503039655,2.43329046635,0.232793725487,-0.202217131201,0.60923769447,0.730578363257,0.0,0.0,0.0,0.0,0.0,0.0,0.27559045317,1.84699839074,-0.821695665625,0.345491010354,-1.06873878399,-0.398803459605
29549000000,ocean_waves,wamv,0.0,0.0,0.0,0.0,0.0,0.0,1.0,-0.10864870071,8.29687631214,2.43246986447,0.232552221222,-0.202759169764,0.609181386238,0.730551998247,0.0,0.0,0.0,0.0,0.0,0.0,0.276217972726,1.84585007366,-0.820440125329,0.34263332388,-1.07071699425,-0.40018906178
29550000000,ocean_waves,wamv,0.0,0.0,0.0,0.0,0.0,0.0,1.0,-0.108371848508,8.29872108087,2.43165054196,0.232308856444,-0.203301136667,0.609124875356,0.730525926488,0.0,0.0,0.0,0.0,0.0,0.0,0.276836280703,1.84470298958,-0.819160389991,0.339773399607,-1.07266589904,-0.401563580419
29551000000,ocean_waves,wamv,0.0,0.0,0.0,0.0,0.0,0.0,1.0,-0.108094387121,8.30056470397,2.43083252294,0.232063639976,-0.203843018769,0.609068162777,0.730500146333,0.0,0.0,0.0,0.0,0.0,0.0,0.277445371943,1.84355716406,-0.817856555891,0.336911202593,-1.07458554353,-0.402927019856
29552000000,ocean_waves,wamv,0.0,0.0,0.0,0.0,0.0,0.0,1.0,-0.107816325775,8.30240718274,2.4300158314,0.231816580624,-0.20438480294,0.609011249471,0.73047465616,0.0,0.0,0.0,0.0,0.0,0.0,0.27804523601,1.84241262351,-0.816528716481,0.334046697738,-1.0764759653,-0.404279384587
29553000000,ocean_waves,wamv,0.0,0.0,0.0,0.0,0.0,0.0,1.0,-0.107537673708,8.30424851849,2.42920049126,0.231567687177,-0.204926476056,0.60895413643,0.730449454372,0.0,0.0,0.0,0.0,0.0,0.0,0.278635859712,1.84126939507,-0.815176968603,0.331179851558,-1.07833720403,-0.405620681408
29554000000,ocean_waves,wamv,0.0,0.0,0.0,0.0,0.0,0.0,1.0,-0.107258440175,8.30608871255,2.42838652634,0.231316968405,-0.205468025007,0.608896824661,0.730424539392,0.0,0.0,0.0,0.0,0.0,0.0,0.279217228186,1.84012750644,-0.813801412918,0.328310632769,-1.08016930344,-0.406950918982
29555000000,ocean_waves,wamv,0.0,0.0,0.0,0.0,0.0,0.0,1.0,-0.106978634448,8.3079277663,2.42757396035,0.231064433062,-0.206009436696,0.608839315191,0.730399909668,0.0,0.0,0.0,0.0,0.0,0.0,0.279789324903,1.83898698587,-0.812402149992,0.325439011959,-1.08197230775,-0.408270105511
29555000000,ocean_waves,wamv,0.0,0.0,0.0,0.0,0.0,0.0,1.0,-0.106698265813,8.30976568111,2.4267628169,0.230810089884,-0.20655069804,0.608781609068,0.730375563671,0.0,0.0,0.0,0.0,0.0,0.0,0.280352133454,1.83784786193,-0.81097928366,0.32256496258,-1.08374626726,-0.409578249742
29557000000,ocean_waves,wamv,0.0,0.0,0.0,0.0,0.0,0.0,1.0,-0.106417343574,8.31160245843,2.42595311949,0.230553947588,-0.207091795978,0.608723707355,0.730351499891,0.0,0.0,0.0,0.0,0.0,0.0,0.280905638451,1.83671016348,-0.809532921137,0.319688461264,-1.08549123968,-0.410875360596
29558000000,ocean_waves,wamv,0.0,0.0,0.0,0.0,0.0,0.0,1.0,-0.106135877048,8.31343809969,2.42514489152,0.230296014873,-0.207632717467,0.608665611141,0.730327716841,0.0,0.0,0.0,0.0,0.0,0.0,0.281449824591,1.83557391957,-0.808063166078,0.316809486685,-1.08720728208,-0.412161443693
29559000000,ocean_waves,wamv,0.0,0.0,0.0,0.0,0.0,0.0,1.0,-0.105853875566,8.31527260639,2.42433815627,0.230036300418,-0.208173449491,0.608607321531,0.730304213048,0.0,0.0,0.0,0.0,0.0,0.0,0.281984679955,1.83443915925,-0.806570128862,0.31392802172,-1.08889446506,-0.413436505725
29561000000,ocean_waves,wamv,0.0,0.0,0.0,0.0,0.0,0.0,1.0,-0.105571348467,8.31710598003,2.42353293692,0.229774812881,-0.208713979061,0.608548839658,0.73028098706,0.0,0.0,0.0,0.0,0.0,0.0,0.282510194855,1.83330591155,-0.805053919484,0.311044052179,-1.09055286421,-0.414700551074
29561000000,ocean_waves,wamv,0.0,0.0,0.0,0.0,0.0,0.0,1.0,-0.105288305097,8.31893822215,2.42272925655,0.229511560897,-0.209254293225,0.608490166674,0.730258037438,0.0,0.0,0.0,0.0,0.0,0.0,0.283026363262,1.83217420534,-0.803514650975,0.308157567531,-1.09218256506,-0.415953583239
29563000000,ocean_waves,wamv,0.0,0.0,0.0,0.0,0.0,0.0,1.0,-0.105004754805,8.32076933432,2.4219271381,0.229246553081,-0.209794379061,0.608431303759,0.730235362757,0.0,0.0,0.0,0.0,0.0,0.0,0.283533181658,1.83104406934,-0.801952432868,0.305268559653,-1.09378365504,-0.417195601834
29563000000,ocean_waves,wamv,0.0,0.0,0.0,0.0,0.0,0.0,1.0,-0.10472070694,8.32259931813,2.42112660441,0.228979798023,-0.21033422369,0.608372252119,0.730212961604,0.0,0.0,0.0,0.0,0.0,0.0,0.284030651918,1.82991553191,-0.800367380977,0.302377024691,-1.09535623644,-0.418426607
29565000000,ocean_waves,wamv,0.0,0.0,0.0,0.0,0.0,0.0,1.0,-0.10443617084,8.32442817521,2.4203276782,0.228711304286,-0.210873814281,0.608313012986,0.730190832573,0.0,0.0,0.0,0.0,0.0,0.0,0.28451878096,1.828788621,-0.798759614489,0.299482962425,-1.09690042277,-0.419646598148
29565000000,ocean_waves,wamv,0.0,0.0,0.0,0.0,0.0,0.0,1.0,-0.104151155837,8.32625590722,2.41953038208,0.228441080407,-0.211413138047,0.608253587624,0.73016897427,0.0,0.0,0.0,0.0,0.0,0.0,0.28499757928,1.82766336417,-0.797129248762,0.29658637474,-1.09841632961,-0.420855570778
29565000000,ocean_waves,wamv,0.0,0.0,0.0,0.0,0.0,0.0,1.0,-0.103865671244,8.32808251582,2.41873473854,0.228169134895,-0.211952182257,0.608193977324,0.730147385303,0.0,0.0,0.0,0.0,0.0,0.0,0.285467062963,1.82653978843,-0.795476402239,0.293687266775,-1.09990408347,-0.422053519723
29568000000,ocean_waves,wamv,0.0,0.0,0.0,0.0,0.0,0.0,1.0,-0.103579726353,8.32990800273,2.41794076993,0.227895476228,-0.212490934235,0.608134183409,0.730126064287,0.0,0.0,0.0,0.0,0.0,0.0,0.285927254865,1.82541792012,-0.793801200294,0.29078564743,-1.10136382669,-0.423240441034
29568000000,ocean_waves,wamv,0.0,0.0,0.0,0.0,0.0,0.0,1.0,-0.103293330429,8.33173236968,2.4171484985,0.227620112853,-0.213029381368,0.608074207236,0.730105009839,0.0,0.0,0.0,0.0,0.0,0.0,0.286378181199,1.82429778503,-0.79210376085,0.287881526263,-1.10279569857,-0.424416325646
29570000000,ocean_waves,wamv,0.0,0.0,0.0,0.0,0.0,0.0,1.0,-0.103006492702,8.33355561841,2.41635794637,0.227343053185,-0.213567511103,0.608014050195,0.730084220577,0.0,0.0,0.0,0.0,0.0,0.0,0.286819875301,1.82317940813,-0.79038420912,0.284974915974,-1.10419985411,-0.425581166252
29570000000,ocean_waves,wamv,0.0,0.0,0.0,0.0,0.0,0.0,1.0,-0.102719222367,8.33537775072,2.41556913552,0.227064305601,-0.214105310958,0.607953713709,0.730063695118,0.0,0.0,0.0,0.0,0.0,0.0,0.287252376575,1.82206281362,-0.788642673373,0.282065831147,-1.10557645801,-0.426734955632
29570000000,ocean_waves,wamv,0.0,0.0,0.0,0.0,0.0,0.0,1.0,-0.10243152857,8.3371987684,2.41478208782,0.226783878442,-0.214642768523,0.607893199236,0.730043432079,0.0,0.0,0.0,0.0,0.0,0.0,0.28767572899,1.8209480249,-0.7868792793,0.279154286655,-1.10692567676,-0.42787768437
29572000000,ocean_waves,wamv,0.0,0.0,0.0,0.0,0.0,0.0,1.0,-0.10214342041,8.33901867329,2.41399682501,0.226501780011,-0.215179871459,0.607832508272,0.730023430075,0.0,0.0,0.0,0.0,0.0,0.0,0.288089983131,1.81983506449,-0.78509415919,0.276240298891,-1.10824768974,-0.429009345327
29573000000,ocean_waves,wamv,0.0,0.0,0.0,0.0,0.0,0.0,1.0,-0.101854906928,8.34083746722,2.41321336868,0.226218018568,-0.215716607505,0.607771642347,0.730003687717,0.0,0.0,0.0,0.0,0.0,0.0,0.288495194345,1.81872395406,-0.78328744595,0.273323884019,-1.10954268048,-0.430129931294
29574000000,ocean_waves,wamv,0.0,0.0,0.0,0.0,0.0,0.0,1.0,-0.101565997109,8.34265515206,2.41243174029,0.225932602331,-0.216252964479,0.607710603027,0.729984203615,0.0,0.0,0.0,0.0,0.0,0.0,0.28889142226,1.81761471448,-0.781459273286,0.270405057394,-1.11081083582,-0.431239435459
29575000000,ocean_waves,wamv,0.0,0.0,0.0,0.0,0.0,0.0,1.0,-0.101276699871,8.34447172971,2.41165196118,0.225645539475,-0.216788930274,0.607649391916,0.729964976372,0.0,0.0,0.0,0.0,0.0,0.0,0.289278730154,1.81650736584,-0.779609775877,0.267483832987,-1.11205234485,-0.432337851933
29576000000,ocean_waves,wamv,0.0,0.0,0.0,0.0,0.0,0.0,1.0,-0.100987024065,8.34628720208,2.41087405253,0.225356838125,-0.21732449287,0.607588010653,0.729946004592,0.0,0.0,0.0,0.0,0.0,0.0,0.289657186581,1.81540192743,-0.777739099275,0.264560224714,-1.11326741031,-0.433425180719
29577000000,ocean_waves,wamv,0.0,0.0,0.0,0.0,0.0,0.0,1.0,-0.100696978474,8.34810157108,2.41009803538,0.22506650636,-0.217859640324,0.607526460911,0.729927286876,0.0,0.0,0.0,0.0,0.0,0.0,0.290026860408,1.814298418,-0.775847383821,0.261634242796,-1.11445622641,-0.4345014209
29577000000,ocean_waves,wamv,0.0,0.0,0.0,0.0,0.0,0.0,1.0,-0.100406571809,8.34991483867,2.40932393064,0.224774552208,-0.218394360775,0.607464744399,0.729908821822,0.0,0.0,0.0,0.0,0.0,0.0,0.290387822104,1.81319685581,-0.773934774164,0.25870589514,-1.11561898958,-0.435566575459
29580000000,ocean_waves,wamv,0.0,0.0,0.0,0.0,0.0,0.0,1.0,-0.100115812711,8.3517270068,2.40855175905,0.224480983649,-0.218928642439,0.607402862859,0.72989060803,0.0,0.0,0.0,0.0,0.0,0.0,0.290740142793,1.81209725878,-0.772001420077,0.255775187157,-1.1167558981,-0.436620652147
29580000000,ocean_waves,wamv,0.0,0.0,0.0,0.0,0.0,0.0,1.0,-0.0998247097502,8.35353807745,2.40778154121,0.224185808606,-0.219462473616,0.607340818064,0.729872644101,0.0,0.0,0.0,0.0,0.0,0.0,0.291083892919,1.81099964461,-0.770047475796,0.252842121408,-1.11786714986,-0.437663663636
29581000000,ocean_waves,wamv,0.0,0.0,0.0,0.0,0.0,0.0,1.0,-0.0995332714292,8.35534805264,2.40701329756,0.223889034954,-0.219995842678,0.607278611816,0.729854928641,0.0,0.0,0.0,0.0,0.0,0.0,0.291419139599,1.80990403107,-0.768073093917,0.249906696351,-1.11895293331,-0.43869562513
29582000000,ocean_waves,wamv,0.0,0.0,0.0,0.0,0.0,0.0,1.0,-0.0992415061862,8.35715693436,2.40624704839,0.223590670513,-0.220528738078,0.607216245946,0.729837460262,0.0,0.0,0.0,0.0,0.0,0.0,0.291745947983,1.80881043606,-0.766078435114,0.24696890828,-1.12001343906,-0.439716559101
29583000000,ocean_waves,wamv,0.0,0.0,0.0,0.0,0.0,0.0,1.0,-0.0989494223994,8.35896472465,2.40548281382,0.223290723048,-0.221061148335,0.607153722308,0.729820237582,0.0,0.0,0.0,0.0,0.0,0.0,0.292064377853,1.80771887786,-0.764063657989,0.244028749572,-1.1210488461,-0.440726490861
29584000000,ocean_waves,wamv,0.0,0.0,0.0,0.0,0.0,0.0,1.0,-0.0986570283916,8.36077142558,2.4047206138,0.222989200277,-0.221593062043,0.607091042784,0.729803259232,0.0,0.0,0.0,0.0,0.0,0.0,0.292374484587,1.80662937525,-0.762028925823,0.241086210335,-1.12205933017,-0.441725451718
29585000000,ocean_waves,wamv,0.0,0.0,0.0,0.0,0.0,0.0,1.0,-0.0983643324351,8.3625770392,2.40396046814,0.222686109859,-0.222124467862,0.607028209271,0.729786523856,0.0,0.0,0.0,0.0,0.0,0.0,0.292676318667,1.80554194755,-0.759974406442,0.238141278827,-1.12304506366,-0.44271347887
29586000000,ocean_waves,wamv,0.0,0.0,0.0,0.0,0.0,0.0,1.0,-0.0980713427568,8.36438156762,2.40320239644,0.222381459403,-0.222655354523,0.60696522369,0.72977003011,0.0,0.0,0.0,0.0,0.0,0.0,0.292969925513,1.80445661476,-0.757900272414,0.235193942032,-1.12400621619,-0.443690615309
29587000000,ocean_waves,wamv,0.0,0.0,0.0,0.0,0.0,0.0,1.0,-0.0977780675462,8.36618501294,2.40244641817,0.222075256468,-0.223185710816,0.606902087974,0.729753776671,0.0,0.0,0.0,0.0,0.0,0.0,0.293255342737,1.8033733977,-0.755806689729,0.232244184061,-1.12494294074,-0.444656904335
29588000000,ocean_waves,wamv,0.0,0.0,0.0,0.0,0.0,0.0,1.0,-0.0974845149582,8.36798737729,2.40169255261,0.221767508561,-0.223715525599,0.606838804074,0.729737762229,0.0,0.0,0.0,0.0,0.0,0.0,0.293532604738,1.80229231785,-0.753693835252,0.229291990123,-1.12585539712,-0.445612397123
29588000000,ocean_waves,wamv,0.0,0.0,0.0,0.0,0.0,0.0,1.0,-0.0971906931196,8.36978866285,2.40094081884,0.221458223138,-0.224244787787,0.606775373952,0.729721985499,0.0,0.0,0.0,0.0,0.0,0.0,0.293801739785,1.80121339745,-0.751561882859,0.226337344462,-1.12674373536,-0.446557145879
29590000000,ocean_waves,wamv,0.0,0.0,0.0,0.0,0.0,0.0,1.0,-0.0968966101324,8.37158887178,2.40019123581,0.221147407608,-0.224773486363,0.606711799583,0.729706445211,0.0,0.0,0.0,0.0,0.0,0.0,0.294062772428,1.80013665937,-0.749411010462,0.22338023228,-1.12760810603,-0.447491206509
29591000000,ocean_waves,wamv,0.0,0.0,0.0,0.0,0.0,0.0,1.0,-0.0966022740776,8.37338800629,2.39944382225,0.220835069326,-0.225301610369,0.606648082953,0.729691140121,0.0,0.0,0.0,0.0,0.0,0.0,0.294315724068,1.79906212703,-0.747241399111,0.220420640089,-1.12844866065,-0.448414637624
29591000000,ocean_waves,wamv,0.0,0.0,0.0,0.0,0.0,0.0,1.0,-0.0963076930186,8.37518606861,2.39869859672,0.220521215602,-0.225829148909,0.606584226056,0.729676069001,0.0,0.0,0.0,0.0,0.0,0.0,0.294560612129,1.79798982439,-0.745053226023,0.217458554833,-1.12926554406,-0.449327496768
29591000000,ocean_waves,wamv,0.0,0.0,0.0,0.0,0.0,0.0,1.0,-0.0960128750024,8.37698306098,2.39795557763,0.220205853697,-0.226356091154,0.606520230897,0.729661230646,0.0,0.0,0.0,0.0,0.0,0.0,0.29479745287,1.79691977575,-0.742846672352,0.214493965778,-1.13005890593,-0.450229843432
29593000000,ocean_waves,wamv,0.0,0.0,0.0,0.0,0.0,0.0,1.0,-0.0957178280609,8.37877898569,2.39721478316,0.219888990822,-0.226882426335,0.606456099491,0.729646623871,0.0,0.0,0.0,0.0,0.0,0.0,0.295026261814,1.79585200561,-0.740621921274,0.211526864467,-1.13082889957,-0.451121737677
29594000000,ocean_waves,wamv,0.0,0.0,0.0,0.0,0.0,0.0,1.0,-0.0954225602104,8.38057384503,2.39647623134,0.219570634139,-0.227408143754,0.606391833862,0.729632247508,0.0,0.0,0.0,0.0,0.0,0.0,0.295247054137,1.79478653861,-0.738379156085,0.208557244617,-1.13157568067,-0.452003238829
29595000000,ocean_waves,wamv,0.0,0.0,0.0,0.0,0.0,0.0,1.0,-0.0951270794512,8.38236764134,2.39573993999,0.21925079076,-0.227933232784,0.606327436043,0.729618100409,0.0,0.0,0.0,0.0,0.0,0.0,0.295459846139,1.79372339936,-0.736118562988,0.205585102855,-1.13229941198,-0.452874406397
29597000000,ocean_waves,wamv,0.0,0.0,0.0,0.0,0.0,0.0,1.0,-0.0948313937672,8.38416037695,2.39500592678,0.218929467748,-0.228457682866,0.606262908081,0.729604181441,0.0,0.0,0.0,0.0,0.0,0.0,0.295664654186,1.79266261243,-0.73384032385,0.202610437465,-1.13300025484,-0.453735296462
29598000000,ocean_waves,wamv,0.0,0.0,0.0,0.0,0.0,0.0,1.0,-0.0945355111226,8.38595205424,2.39427420916,0.218606672114,-0.228981483517,0.606198252032,0.729590489485,0.0,0.0,0.0,0.0,0.0,0.0,0.29586149788,1.7916042021,-0.731544626549,0.199633250474,-1.13367838323,-0.454585966221
29598000000,ocean_waves,wamv,0.0,0.0,0.0,0.0,0.0,0.0,1.0,-0.0942394394609,8.38774267561,2.39354480441,0.21828241082,-0.229504624333,0.606133469963,0.729577023437,0.0,0.0,0.0,0.0,0.0,0.0,0.296050398133,1.79054819242,-0.729231654885,0.196653545765,-1.13433397137,-0.455426469212
29600000000,ocean_waves,wamv,0.0,0.0,0.0,0.0,0.0,0.0,1.0,-0.0939431867002,8.38953224349,2.39281772963,0.217956690772,-0.23002709499,0.606068563958,0.729563782202,0.0,0.0,0.0,0.0,0.0,0.0,0.296231380185,1.78949460694,-0.726901598951,0.193671331083,-1.13496720749,-0.456256860013
29601000000,ocean_waves,wamv,0.0,0.0,0.0,0.0,0.0,0.0,1.0,-0.0936467607315,8.39132076032,2.3920930017,0.217629518826,-0.230548885249,0.606003536111,0.729550764695,0.0,0.0,0.0,0.0,0.0,0.0,0.296404471283,1.78844346883,-0.724554643987,0.190686615868,-1.13557827987,-0.457077189093
29602000000,ocean_waves,wamv,0.0,0.0,0.0,0.0,0.0,0.0,1.0,-0.0933501694142,8.39310822856,2.39137063736,0.217300901782,-0.231069984956,0.605938388534,0.72953796984,0.0,0.0,0.0,0.0,0.0,0.0,0.296569702958,1.78739480065,-0.72219097827,0.18769941271,-1.1361673871,-0.457887506474
29602000000,ocean_waves,wamv,0.0,0.0,0.0,0.0,0.0,0.0,1.0,-0.0930534205719,8.3948946507,2.39065065312,0.216970846382,-0.23159038405,0.605873123353,0.729525396566,0.0,0.0,0.0,0.0,0.0,0.0,0.296727111053,1.78634862435,-0.719810792036,0.184709737043,-1.13673473688,-0.458687861307
29603000000,ocean_waves,wamv,0.0,0.0,0.0,0.0,0.0,0.0,1.0,-0.092756521989,8.39668002926,2.38993306533,0.216639359316,-0.232110072563,0.605807742712,0.729513043804,0.0,0.0,0.0,0.0,0.0,0.0,0.296876734658,1.78530496121,-0.717414272122,0.181717605976,-1.13728053909,-0.459478299501
29605000000,ocean_waves,wamv,0.0,0.0,0.0,0.0,0.0,0.0,1.0,-0.0924594814064,8.39846436676,2.38921789012,0.216306447212,-0.232629040621,0.605742248771,0.729500910491,0.0,0.0,0.0,0.0,0.0,0.0,0.297018617549,1.78426383179,-0.715001607023,0.178723039078,-1.13780501222,-0.46025886619
29606000000,ocean_waves,wamv,0.0,0.0,0.0,0.0,0.0,0.0,1.0,-0.0921623065158,8.40024766576,2.38850514347,0.215972116642,-0.233147278453,0.605676643711,0.729488995562,0.0,0.0,0.0,0.0,0.0,0.0,0.297152808691,1.78322525577,-0.712572988372,0.175726058434,-1.13830838511,-0.461029606566
29607000000,ocean_waves,wamv,0.0,0.0,0.0,0.0,0.0,0.0,1.0,-0.0918650049567,8.40202992883,2.38779484114,0.215636374115,-0.233664776387,0.60561092973,0.729477297951,0.0,0.0,0.0,0.0,0.0,0.0,0.29727936051,1.78218925206,-0.710128603483,0.172726686936,-1.13879088707,-0.461790562627
29608000000,ocean_waves,wamv,0.0,0.0,0.0,0.0,0.0,0.0,1.0,-0.0915675843098,8.40381115855,2.3870869987,0.215299226078,-0.23418152486,0.605545109047,0.72946581659,0.0,0.0,0.0,0.0,0.0,0.0,0.29739833157,1.78115583859,-0.707668646186,0.169724950035,-1.13925276142,-0.462541778385
29609000000,ocean_waves,wamv,0.0,0.0,0.0,0.0,0.0,0.0,1.0,-0.0912700520933,8.40559135753,2.38638163155,0.214960678917,-0.234697514414,0.605479183898,0.72945455041,0.0,0.0,0.0,0.0,0.0,0.0,0.297509784618,1.78012503237,-0.705193309046,0.166720873873,-1.13969425503,-0.463283296506
29610000000,ocean_waves,wamv,0.0,0.0,0.0,0.0,0.0,0.0,1.0,-0.0909724157589,8.4073705284,2.38567875487,0.214620738949,-0.235212735702,0.605413156545,0.729443498332,0.0,0.0,0.0,0.0,0.0,0.0,0.297613785956,1.7790968495,-0.702702781351,0.163714484478,-1.14011561505,-0.464015157635
29611000000,ocean_waves,wamv,0.0,0.0,0.0,0.0,0.0,0.0,1.0,-0.0906746826866,8.40914867377,2.38497838367,0.214279412427,-0.235727179489,0.605347029265,0.729432659277,0.0,0.0,0.0,0.0,0.0,0.0,0.2977104075,1.77807130506,-0.700197258559,0.160705809118,-1.14051710036,-0.464737405057
29612000000,ocean_waves,wamv,0.0,0.0,0.0,0.0,0.0,0.0,1.0,-0.0903768601815,8.41092579632,2.38428053275,0.213936705538,-0.23624083665,0.605280804361,0.729422032156,0.0,0.0,0.0,0.0,0.0,0.0,0.297799724098,1.77704841323,-0.697676932788,0.157694874002,-1.1408989684,-0.465450080612
29613000000,ocean_waves,wamv,0.0,0.0,0.0,0.0,0.0,0.0,1.0,-0.0900789554695,8.41270189869,2.38358521672,0.213592624396,-0.236753698177,0.605214484153,0.729411615876,0.0,0.0,0.0,0.0,0.0,0.0,0.297881814746,1.77602818724,-0.695141999785,0.154681705128,-1.14126148314,-0.466153228275
29614000000,ocean_waves,wamv,0.0,0.0,0.0,0.0,0.0,0.0,1.0,-0.0897809756945,8.41447698357,2.38289244999,0.213247175045,-0.237265755176,0.605148070982,0.729401409337,0.0,0.0,0.0,0.0,0.0,0.0,0.297956761747,1.77501063941,-0.692592658017,0.151666327623,-1.14160491273,-0.466846894105
29615000000,ocean_waves,wamv,0.0,0.0,0.0,0.0,0.0,0.0,1.0,-0.0894829279166,8.41625105364,2.38220224679,0.21290036346,-0.237776998868,0.605081567211,0.729391411431,0.0,0.0,0.0,0.0,0.0,0.0,0.2980246488,1.77399578138,-0.690029103841,0.148648764372,-1.14192952212,-0.467531124407
29616000000,ocean_waves,wamv,0.0,0.0,0.0,0.0,0.0,0.0,1.0,-0.0891848191095,8.4180241116,2.38151462112,0.212552195539,-0.238287420591,0.605014975219,0.729381621047,0.0,0.0,0.0,0.0,0.0,0.0,0.29808556228,1.77298362399,-0.687451540239,0.145629037286,-1.14223558295,-0.468205970182
29617000000,ocean_waves,wamv,0.0,0.0,0.0,0.0,0.0,0.0,1.0,-0.0888866561611,8.41979616017,2.3808295868,0.212202677106,-0.238797011795,0.604948297404,0.729372037067,0.0,0.0,0.0,0.0,0.0,0.0,0.298139588077,1.77197417764,-0.684860167674,0.142607165229,-1.14252336049,-0.46887148329
29618000000,ocean_waves,wamv,0.0,0.0,0.0,0.0,0.0,0.0,1.0,-0.0885884458739,8.42156720205,2.38014715744,0.211851813913,-0.239305764041,0.604881536181,0.729362658371,0.0,0.0,0.0,0.0,0.0,0.0,0.298186811343,1.77096745236,-0.682255187079,0.139583164344,-1.14279311622,-0.469527718212
29619000000,ocean_waves,wamv,0.0,0.0,0.0,0.0,0.0,0.0,1.0,-0.0882901949656,8.42333723998,2.37946734643,0.211499611635,-0.239813669006,0.604814693979,0.729353483836,0.0,0.0,0.0,0.0,0.0,0.0,0.298227317332,1.76996345785,-0.679636807443,0.136557049382,-1.14304511638,-0.470174735921
29620000000,ocean_waves,wamv,0.0,0.0,0.0,0.0,0.0,0.0,1.0,-0.0879919100727,8.42510627669,2.37879016699,0.211146075872,-0.240320718471,0.604747773241,0.729344512338,0.0,0.0,0.0,0.0,0.0,0.0,0.298261186903,1.76896220387,-0.677005231223,0.133528830898,-1.14327961223,-0.470812597389
29621000000,ocean_waves,wamv,0.0,0.0,0.0,0.0,0.0,0.0,1.0,-0.0876935977518,8.42687431494,2.37811563209,0.210791212148,-0.240826904328,0.60468077642,0.729335742756,0.0,0.0,0.0,0.0,0.0,0.0,0.298288500069,1.76796370016,-0.674360672576,0.130498518845,-1.14349686266,-0.471441372269
29622000000,ocean_waves,wamv,0.0,0.0,0.0,0.0,0.0,0.0,1.0,-0.0873952644854,8.42864135748,2.37744375452,0.210435025911,-0.241332218572,0.60461370598,0.729327173969,0.0,0.0,0.0,0.0,0.0,0.0,0.298309330828,1.76696795682,-0.67170333912,0.12746611931,-1.14369711023,-0.472061130537
29623000000,ocean_waves,wamv,0.0,0.0,0.0,0.0,0.0,0.0,1.0,-0.0870969166854,8.43040740708,2.37677454684,0.210077522536,-0.241836653302,0.60454656439,0.729318804865,0.0,0.0,0.0,0.0,0.0,0.0,0.298323750137,1.76597498426,-0.669033446513,0.124431637624,-1.14388059965,-0.472671949274
29624000000,ocean_waves,wamv,0.0,0.0,0.0,0.0,0.0,0.0,1.0,-0.0867985606984,8.43217246652,2.37610802139,0.209718707321,-0.242340200716,0.604479354125,0.729310634334,0.0,0.0,0.0,0.0,0.0,0.0,0.298331822842,1.76498479345,-0.66635120728,0.12139507664,-1.14404756355,-0.473273907383
29625000000,ocean_waves,wamv,0.0,0.0,0.0,0.0,0.0,0.0,1.0,-0.0865002028119,8.43393653859,2.37544419031,0.209358585496,-0.242842853109,0.604412077662,0.729302661279,0.0,0.0,0.0,0.0,0.0,0.0,0.298333608469,1.76399739594,-0.663656834624,0.118356437918,-1.14419822774,-0.473867087137
29626000000,ocean_waves,wamv,0.0,0.0,0.0,0.0,0.0,0.0,1.0,-0.0862018492572,8.43569962609,2.37478306552,0.208997162214,-0.243344602874,0.604344737481,0.729294884609,0.0,0.0,0.0,0.0,0.0,0.0,0.298329162907,1.76301280378,-0.660950549033,0.115315723505,-1.14433282037,-0.474451576958
29627000000,ocean_waves,wamv,0.0,0.0,0.0,0.0,0.0,0.0,1.0,-0.0859035062149,8.43746173184,2.37412465871,0.208634442556,-0.2438454425,0.604277336059,0.729287303247,0.0,0.0,0.0,0.0,0.0,0.0,0.298318536938,1.76203102962,-0.658232570971,0.112272935042,-1.14445156357,-0.475027467621
29628000000,ocean_waves,wamv,0.0,0.0,0.0,0.0,0.0,0.0,1.0,-0.0856051798212,8.43922285868,2.37346898137,0.208270431535,-0.244345364566,0.604209875871,0.729279916125,0.0,0.0,0.0,0.0,0.0,0.0,0.298301775134,1.76105208683,-0.6555031143,0.109228073009,-1.1445546661,-0.475594848732
29629000000,ocean_waves,wamv,0.0,0.0,0.0,0.0,0.0,0.0,1.0,-0.0853068761693,8.44098300943,2.37281604475,0.207905134093,-0.244844361746,0.604142359389,0.72927272219,0.0,0.0,0.0,0.0,0.0,0.0,0.298278920408,1.76007598907,-0.652762402491,0.106181140272,-1.14464234542,-0.476153815776
29630000000,ocean_waves,wamv,0.0,0.0,0.0,0.0,0.0,0.0,1.0,-0.0850086013135,8.44274218697,2.37216585989,0.207538555102,-0.245342426808,0.604074789082,0.729265720399,0.0,0.0,0.0,0.0,0.0,0.0,0.298250011611,1.7591027505,-0.650010655615,0.103132140025,-1.14471481237,-0.476704463555
29631000000,ocean_waves,wamv,0.0,0.0,0.0,0.0,0.0,0.0,1.0,-0.0847103612718,8.44450039415,2.37151843761,0.207170699366,-0.245839552611,0.604007167413,0.729258909723,0.0,0.0,0.0,0.0,0.0,0.0,0.29821508498,1.7581323856,-0.647248093044,0.100081076648,-1.14477227598,-0.477246886939
29632000000,ocean_waves,wamv,0.0,0.0,0.0,0.0,0.0,0.0,1.0,-0.0844121620272,8.44625763387,2.3708737885,0.20680157162,-0.246335732108,0.603939496839,0.729252289143,0.0,0.0,0.0,0.0,0.0,0.0,0.298174175791,1.75716490896,-0.64447493686,0.0970279566514,-1.14481494915,-0.477781181986
29633000000,ocean_waves,wamv,0.0,0.0,0.0,0.0,0.0,0.0,1.0,-0.0841140095283,8.44801390903,2.37023192295,0.206431176531,-0.246830958349,0.603871779813,0.729245857652,0.0,0.0,0.0,0.0,0.0,0.0,0.298127318264,1.75620033524,-0.641691408165,0.0939727882029,-1.14484304507,-0.478307443805
29633000000,ocean_waves,wamv,0.0,0.0,0.0,0.0,0.0,0.0,1.0,-0.0838159096897,8.44976922255,2.36959285109,0.206059518696,-0.247325224476,0.603804018781,0.729239614253,0.0,0.0,0.0,0.0,0.0,0.0,0.298074546389,1.75523867905,-0.63889772733,0.0909155813443,-1.14485677869,-0.47882576631
29635000000,ocean_waves,wamv,0.0,0.0,0.0,0.0,0.0,0.0,1.0,-0.0835178683916,8.45152357735,2.36895658288,0.205686602646,-0.247818523731,0.603736216187,0.729233557958,0.0,0.0,0.0,0.0,0.0,0.0,0.298015894515,1.75427995484,-0.636094113546,0.0878563480236,-1.14485636697,-0.479336241721
29636000000,ocean_waves,wamv,0.0,0.0,0.0,0.0,0.0,0.0,1.0,-0.0832198914783,8.45327697637,2.36832312801,0.205312432843,-0.248310849455,0.603668374469,0.729227687783,0.0,0.0,0.0,0.0,0.0,0.0,0.297951398887,1.75332417671,-0.633280788664,0.0847951029005,-1.14484203467,-0.47983896213
29637000000,ocean_waves,wamv,0.0,0.0,0.0,0.0,0.0,0.0,1.0,-0.0829219847561,8.45502942259,2.367692496,0.204937013676,-0.248802195091,0.60360049606,0.729222002753,0.0,0.0,0.0,0.0,0.0,0.0,0.297881097062,1.75237135838,-0.630457972505,0.0817318624872,-1.14481400885,-0.480334017167
29637000000,ocean_waves,wamv,0.0,0.0,0.0,0.0,0.0,0.0,1.0,-0.0826241539918,8.45678091896,2.3670646961,0.204560349468,-0.249292554186,0.603532583393,0.729216501895,0.0,0.0,0.0,0.0,0.0,0.0,0.297805028782,1.75142151311,-0.627625884598,0.0786666454779,-1.14477252164,-0.480821494719
29640000000,ocean_waves,wamv,0.0,0.0,0.0,0.0,0.0,0.0,1.0,-0.0823264049095,8.45853146847,2.36643973737,0.20418244447,-0.249781920393,0.603464638895,0.729211184238,0.0,0.0,0.0,0.0,0.0,0.0,0.297723236777,1.75047465356,-0.624784745926,0.0755994730494,-1.14471781279,-0.481301481717
29640000000,ocean_waves,wamv,0.0,0.0,0.0,0.0,0.0,0.0,1.0,-0.0820287431886,8.46028107412,2.36581762865,0.203803302861,-0.250270287473,0.603396664995,0.729206048812,0.0,0.0,0.0,0.0,0.0,0.0,0.297635765628,1.74953079182,-0.621934772867,0.0725303676472,-1.1446501221,-0.481774061318
29641000000,ocean_waves,wamv,0.0,0.0,0.0,0.0,0.0,0.0,1.0,-0.0817311744611,8.46202973891,2.36519837857,0.203422928749,-0.250757649295,0.603328664118,0.729201094646,0.0,0.0,0.0,0.0,0.0,0.0,0.297542662879,1.74858993933,-0.619076180752,0.0694593535712,-1.14456969409,-0.482239314625
29642000000,ocean_waves,wamv,0.0,0.0,0.0,0.0,0.0,0.0,1.0,-0.0814337043065,8.46377746587,2.36458199551,0.203041326171,-0.251243999844,0.60326063869,0.729196320764,0.0,0.0,0.0,0.0,0.0,0.0,0.297443980781,1.74765210665,-0.616209190262,0.0663864580796,-1.14447678622,-0.482697323775
29643000000,ocean_waves,wamv,0.0,0.0,0.0,0.0,0.0,0.0,1.0,-0.08113633825,8.46552425801,2.36396848766,0.202658499087,-0.251729333219,0.603192591139,0.729191726187,0.0,0.0,0.0,0.0,0.0,0.0,0.297339773977,1.74671730363,-0.613334017145,0.0633117092864,-1.1443716556,-0.483148167251
29644000000,ocean_waves,wamv,0.0,0.0,0.0,0.0,0.0,0.0,1.0,-0.0808390817585,8.46727011839,2.36335786299,0.202274451385,-0.252213643634,0.603124523891,0.72918730993,0.0,0.0,0.0,0.0,0.0,0.0,0.29723010057,1.74578553928,-0.610450876171,0.060235136731,-1.14425456395,-0.483591921882
29646000000,ocean_waves,wamv,0.0,0.0,0.0,0.0,0.0,0.0,1.0,-0.0805419402373,8.46901505004,2.36275012927,0.201889186878,-0.252696925423,0.603056439376,0.729183070999,0.0,0.0,0.0,0.0,0.0,0.0,0.297115022113,1.74485682175,-0.607559980831,0.057156771107,-1.14412577694,-0.484028662859
29646000000,ocean_waves,wamv,0.0,0.0,0.0,0.0,0.0,0.0,1.0,-0.0802449190251,8.47075905601,2.36214529402,0.201502709301,-0.253179173039,0.602988340025,0.729179008391,0.0,0.0,0.0,0.0,0.0,0.0,0.296994605261,1.74393115815,-0.604661550138,0.0540766453114,-1.14398557255,-0.484458467116
29647000000,ocean_waves,wamv,0.0,0.0,0.0,0.0,0.0,0.0,1.0,-0.0799480233922,8.47250213937,2.36154336457,0.201115022313,-0.253660381061,0.602920228271,0.729175121093,0.0,0.0,0.0,0.0,0.0,0.0,0.296868918517,1.74300855479,-0.601755795237,0.0509947916128,-1.14383422354,-0.484881407263
29648000000,ocean_waves,wamv,0.0,0.0,0.0,0.0,0.0,0.0,1.0,-0.079651258535,8.47424430318,2.36094434803,0.200726129493,-0.254140544189,0.602852106552,0.729171408082,0.0,0.0,0.0,0.0,0.0,0.0,0.296738035554,1.74208901689,-0.598842933698,0.0479112440535,-1.14367201521,-0.485297558501
29649000000,ocean_waves,wamv,0.0,0.0,0.0,0.0,0.0,0.0,1.0,-0.0793546295751,8.4759855505,2.3603482513,0.200336034344,-0.254619657246,0.602783977305,0.729167868321,0.0,0.0,0.0,0.0,0.0,0.0,0.29660203141,1.7411725489,-0.595923174388,0.044826035228,-1.14349922544,-0.485706991787
29650000000,ocean_waves,wamv,0.0,0.0,0.0,0.0,0.0,0.0,1.0,-0.0790581415532,8.47772588442,2.35975508105,0.199944740285,-0.255097715186,0.602715842974,0.729164500759,0.0,0.0,0.0,0.0,0.0,0.0,0.296460986756,1.74025915408,-0.592996736401,0.0417391995161,-1.14331614816,-0.486109782958
29651000000,ocean_waves,wamv,0.0,0.0,0.0,0.0,0.0,0.0,1.0,-0.0787617994294,8.47946530799,2.35916484377,0.199552250657,-0.255574713084,0.602647706001,0.729161304336,0.0,0.0,0.0,0.0,0.0,0.0,0.296314982473,1.73934883502,-0.590063827938,0.0386507686925,-1.14312306551,-0.486506003122
29652000000,ocean_waves,wamv,0.0,0.0,0.0,0.0,0.0,0.0,1.0,-0.078465608078,8.48120382431,2.35857754569,0.199158568717,-0.256050646145,0.602579568835,0.729158277974,0.0,0.0,0.0,0.0,0.0,0.0,0.296164104073,1.73844159325,-0.587124666674,0.0355607754188,-1.14292027296,-0.486895728503
29653000000,ocean_waves,wamv,0.0,0.0,0.0,0.0,0.0,0.0,1.0,-0.0781695722876,8.48294143644,2.35799319287,0.19876369764,-0.256525509697,0.602511433924,0.729155420584,0.0,0.0,0.0,0.0,0.0,0.0,0.29600843727,1.73753742962,-0.584179463621,0.0324692498202,-1.14270805766,-0.487279033194
29654000000,ocean_waves,wamv,0.0,0.0,0.0,0.0,0.0,0.0,1.0,-0.0778736967587,8.48467814746,2.35741179113,0.198367640516,-0.256999299198,0.602443303716,0.729152731062,0.0,0.0,0.0,0.0,0.0,0.0,0.295848070504,1.73663634419,-0.581228436409,0.0293762216787,-1.14248671429,-0.487655995699
29655000000,ocean_waves,wamv,0.0,0.0,0.0,0.0,0.0,0.0,1.0,-0.0775779861042,8.48641396045,2.35683334609,0.197970400354,-0.257472010225,0.602375180664,0.729150208294,0.0,0.0,0.0,0.0,0.0,0.0,0.295683090941,1.73573833655,-0.578271795637,0.0262817175622,-1.14225652653,-0.488026692863
29655000000,ocean_waves,wamv,0.0,0.0,0.0,0.0,0.0,0.0,1.0,-0.0772824448488,8.48814887849,2.35625786313,0.197571980075,-0.257943638484,0.602307067215,0.729147851151,0.0,0.0,0.0,0.0,0.0,0.0,0.295513587006,1.73484340574,-0.575309758832,0.0231857632622,-1.14201778377,-0.488391206715
29657000000,ocean_waves,wamv,0.0,0.0,0.0,0.0,0.0,0.0,1.0,-0.0769870774296,8.48988290464,2.35568534745,0.197172382517,-0.2584141798,0.602238965817,0.729145658495,0.0,0.0,0.0,0.0,0.0,0.0,0.295339646147,1.73395155045,-0.572342544553,0.0200883825449,-1.14177077247,-0.488749622
29657000000,ocean_waves,wamv,0.0,0.0,0.0,0.0,0.0,0.0,1.0,-0.0766918881994,8.49161604199,2.35511580399,0.196771610433,-0.25888363012,0.602170878913,0.72914362918,0.0,0.0,0.0,0.0,0.0,0.0,0.295161352932,1.73306276935,-0.569370367898,0.0169895962536,-1.14151576949,-0.489102024303
29659000000,ocean_waves,wamv,0.0,0.0,0.0,0.0,0.0,0.0,1.0,-0.0763968814281,8.4933482936,2.35454923751,0.196369666491,-0.259351985506,0.60210280894,0.729141762048,0.0,0.0,0.0,0.0,0.0,0.0,0.294978789973,1.73217706102,-0.566393447653,0.0138894237178,-1.14125305038,-0.489448503597
29660000000,ocean_waves,wamv,0.0,0.0,0.0,0.0,0.0,0.0,1.0,-0.0761020613072,8.49507966254,2.35398565253,0.195966553277,-0.259819242138,0.602034758332,0.729140055937,0.0,0.0,0.0,0.0,0.0,0.0,0.294792035798,1.7312944243,-0.563412000311,0.0107878817665,-1.14098288114,-0.489789151541
29661000000,ocean_waves,wamv,0.0,0.0,0.0,0.0,0.0,0.0,1.0,-0.0758074319529,8.49681015189,2.35342505336,0.195562273291,-0.260285396306,0.601966729508,0.729138509681,0.0,0.0,0.0,0.0,0.0,0.0,0.294601165624,1.73041485827,-0.560426245721,0.00768498603776,-1.14070552506,-0.49012406418
29662000000,ocean_waves,wamv,0.0,0.0,0.0,0.0,0.0,0.0,1.0,-0.0755129974099,8.49853976471,2.35286744409,0.195156828953,-0.260750444413,0.601898724883,0.729137122108,0.0,0.0,0.0,0.0,0.0,0.0,0.294406251093,1.72953836231,-0.557436407737,0.00458075141869,-1.14042124344,-0.49045334219
29663000000,ocean_waves,wamv,0.0,0.0,0.0,0.0,0.0,0.0,1.0,-0.0752187616564,8.50026850407,2.35231282857,0.194750222598,-0.261214382971,0.601830746854,0.729135892045,0.0,0.0,0.0,0.0,0.0,0.0,0.294207358493,1.72866493639,-0.554442707774,0.00147519119579,-1.14013028754,-0.49077708771
29663000000,ocean_waves,wamv,0.0,0.0,0.0,0.0,0.0,0.0,1.0,-0.0749247286103,8.50199637305,2.35176121044,0.194342456485,-0.261677208594,0.601762797807,0.729134818319,0.0,0.0,0.0,0.0,0.0,0.0,0.294004548279,1.72779458115,-0.551445362925,-0.00163168289413,-1.1398328967,-0.491095403221
29665000000,ocean_waves,wamv,0.0,0.0,0.0,0.0,0.0,0.0,1.0,-0.0746309021317,8.5037233747,2.35121259314,0.193933532791,-0.262138918004,0.601694880112,0.729133899757,0.0,0.0,0.0,0.0,0.0,0.0,0.293797878131,1.72692729761,-0.548444598183,-0.0047398579198,-1.13952931459,-0.491408396975
29666000000,ocean_waves,wamv,0.0,0.0,0.0,0.0,0.0,0.0,1.0,-0.0743372860276,8.50544951211,2.35066697985,0.193523453615,-0.262599508024,0.60162699612,0.729133135185,0.0,0.0,0.0,0.0,0.0,0.0,0.293587401304,1.72606308733,-0.545440638137,-0.00784932090231,-1.1392197796,-0.491716178719
29667000000,ocean_waves,wamv,0.0,0.0,0.0,0.0,0.0,0.0,1.0,-0.0740438840564,8.50717478835,2.35012437355,0.193112220979,-0.263058975581,0.601559148168,0.729132523435,0.0,0.0,0.0,0.0,0.0,0.0,0.293373166325,1.72520195249,-0.542433703619,-0.0109600590554,-1.13890452164,-0.492018857705
29668000000,ocean_waves,wamv,0.0,0.0,0.0,0.0,0.0,0.0,1.0,-0.0737506999311,8.50889920649,2.349584777,0.192699836828,-0.263517317699,0.601491338569,0.729132063337,0.0,0.0,0.0,0.0,0.0,0.0,0.293155218402,1.72434389565,-0.539424015064,-0.014072058794,-1.13858376763,-0.492316543811
29669000000,ocean_waves,wamv,0.0,0.0,0.0,0.0,0.0,0.0,1.0,-0.0734577373216,8.51062276962,2.34904819271,0.192286303034,-0.263974531505,0.601423569619,0.729131753724,0.0,0.0,0.0,0.0,0.0,0.0,0.292933600829,1.72348891966,-0.536411795508,-0.0171853048575,-1.13825774659,-0.492609348513
29670000000,ocean_waves,wamv,0.0,0.0,0.0,0.0,0.0,0.0,1.0,-0.0731649998563,8.51234548082,2.34851462301,0.19187162139,-0.264430614226,0.601355843594,0.729131593432,0.0,0.0,0.0,0.0,0.0,0.0,0.292708355091,1.72263702752,-0.533397267938,-0.0202997805562,-1.1379266875,-0.492897383207
29671000000,ocean_waves,wamv,0.0,0.0,0.0,0.0,0.0,0.0,1.0,-0.0728724911236,8.51406734318,2.34798406997,0.191455793618,-0.264885563189,0.60128816275,0.729131581294,0.0,0.0,0.0,0.0,0.0,0.0,0.292479521156,1.72178822237,-0.530380653384,-0.0234154679397,-1.137590818,-0.493180757926
29672000000,ocean_waves,wamv,0.0,0.0,0.0,0.0,0.0,0.0,1.0,-0.072580214673,8.51578835978,2.34745653546,0.191038821366,-0.265339375825,0.601220529321,0.729131716147,0.0,0.0,0.0,0.0,0.0,0.0,0.29224713775,1.72094250735,-0.527362169027,-0.0265323480176,-1.13725036308,-0.493459580101
29673000000,ocean_waves,wamv,0.0,0.0,0.0,0.0,0.0,0.0,1.0,-0.0722881740148,8.51750853372,2.34693202115,0.190620706205,-0.265792049664,0.601152945523,0.729131996823,0.0,0.0,0.0,0.0,0.0,0.0,0.292011244415,1.7200998854,-0.524342034083,-0.0296503995552,-1.13690555352,-0.493733957048
29674000000,ocean_waves,wamv,0.0,0.0,0.0,0.0,0.0,0.0,1.0,-0.0719963726188,8.51922786809,2.34641052844,0.190201449636,-0.26624358234,0.601085413552,0.729132422153,0.0,0.0,0.0,0.0,0.0,0.0,0.291771881255,1.71926035917,-0.521320466175,-0.0327695997117,-1.13655662198,-0.494003994043
29675000000,ocean_waves,wamv,0.0,0.0,0.0,0.0,0.0,0.0,1.0,-0.0717048139137,8.52094636599,2.34589205857,0.189781053084,-0.266693971594,0.601017935585,0.729132990963,0.0,0.0,0.0,0.0,0.0,0.0,0.291529089691,1.71842393092,-0.518297682321,-0.0358899238432,-1.13620380497,-0.494269794637
29676000000,ocean_waves,wamv,0.0,0.0,0.0,0.0,0.0,0.0,1.0,-0.0714135012852,8.52266403052,2.34537661254,0.1893595179,-0.26714321527,0.600950513782,0.729133702075,0.0,0.0,0.0,0.0,0.0,0.0,0.291282912474,1.71759060249,-0.515273897121,-0.0390113458689,-1.13584734096,-0.494531459704
29677000000,ocean_waves,wamv,0.0,0.0,0.0,0.0,0.0,0.0,1.0,-0.0711224380741,8.52438086478,2.34486419112,0.188936845361,-0.267591311324,0.600883150283,0.729134554301,0.0,0.0,0.0,0.0,0.0,0.0,0.291033394545,1.71676037511,-0.512249324827,-0.0421338379248,-1.13548747338,-0.494789088386
29678000000,ocean_waves,wamv,0.0,0.0,0.0,0.0,0.0,0.0,1.0,-0.0708316275736,8.52609687187,2.34435479489,0.188513036668,-0.268038257819,0.600815847212,0.729135546445,0.0,0.0,0.0,0.0,0.0,0.0,0.290780583652,1.71593324937,-0.509224180733,-0.0452573701703,-1.13512445257,-0.495042778762
29678000000,ocean_waves,wamv,0.0,0.0,0.0,0.0,0.0,0.0,1.0,-0.0705410730281,8.52781205489,2.34384842421,0.188088092947,-0.268484052929,0.600748606679,0.729136677302,0.0,0.0,0.0,0.0,0.0,0.0,0.290524528418,1.71510922534,-0.506198672015,-0.048381912614,-1.13475852421,-0.495292623587
29680000000,ocean_waves,wamv,0.0,0.0,0.0,0.0,0.0,0.0,1.0,-0.0702507776299,8.52952641694,2.34334507924,0.187662015248,-0.26892869494,0.600681430776,0.729137945653,0.0,0.0,0.0,0.0,0.0,0.0,0.290265280923,1.71428830228,-0.503173007958,-0.0515074332925,-1.13438994237,-0.495538715204
29681000000,ocean_waves,wamv,0.0,0.0,0.0,0.0,0.0,0.0,1.0,-0.0699607445167,8.53123996113,2.34284475992,0.187234804548,-0.26937218225,0.600614321581,0.729139350267,0.0,0.0,0.0,0.0,0.0,0.0,0.290002895921,1.7134704787,-0.500147396097,-0.0546338991294,-1.13401896443,-0.495781143842
29682000000,ocean_waves,wamv,0.0,0.0,0.0,0.0,0.0,0.0,1.0,-0.0696709767674,8.53295269054,2.34234746599,0.186806461743,-0.269814513376,0.600547281157,0.729140889895,0.0,0.0,0.0,0.0,0.0,0.0,0.28973743191,1.71265575221,-0.497122046473,-0.057761275282,-1.13364585639,-0.496019999772
29683000000,ocean_waves,wamv,0.0,0.0,0.0,0.0,0.0,0.0,1.0,-0.0693814774016,8.53466460828,2.34185319699,0.186376987654,-0.270255686948,0.600480311554,0.729142563276,0.0,0.0,0.0,0.0,0.0,0.0,0.289468948525,1.71184411979,-0.494097160428,-0.0608895274387,-1.13327087829,-0.49625536819
29684000000,ocean_waves,wamv,0.0,0.0,0.0,0.0,0.0,0.0,1.0,-0.0690922493744,8.53637571742,2.34136195223,0.185946383023,-0.270695701715,0.600413414809,0.729144369128,0.0,0.0,0.0,0.0,0.0,0.0,0.289197509863,1.71103557738,-0.491072944741,-0.0640186193467,-1.13289430195,-0.496487336054
29685000000,ocean_waves,wamv,0.0,0.0,0.0,0.0,0.0,0.0,1.0,-0.0688032955752,8.53808602107,2.34087373085,0.185514648513,-0.271134556544,0.600346592943,0.729146306152,0.0,0.0,0.0,0.0,0.0,0.0,0.288923182118,1.71023012016,-0.48804960185,-0.0671485148821,-1.13251639808,-0.496715987676
29686000000,ocean_waves,wamv,0.0,0.0,0.0,0.0,0.0,0.0,1.0,-0.0685146188239,8.53979552229,2.34038853178,0.18508178471,-0.271572250422,0.600279847969,0.72914837303,0.0,0.0,0.0,0.0,0.0,0.0,0.288646034246,1.70942774243,-0.485027333122,-0.0702791776824,-1.13213743996,-0.496941406463
29687000000,ocean_waves,wamv,0.0,0.0,0.0,0.0,0.0,0.0,1.0,-0.0682262218692,8.54150422416,2.33990635373,0.184647792117,-0.272008782454,0.600213181883,0.729150568421,0.0,0.0,0.0,0.0,0.0,0.0,0.288366137662,1.70862843764,-0.482006338256,-0.0734105715264,-1.13175770218,-0.497163674863
29688000000,ocean_waves,wamv,0.0,0.0,0.0,0.0,0.0,0.0,1.0,-0.0679381073861,8.54321212974,2.33942719523,0.184212671161,-0.272444151865,0.60014659667,0.729152890966,0.0,0.0,0.0,0.0,0.0,0.0,0.288083566292,1.70783219841,-0.478986816464,-0.0765426603948,-1.13137746145,-0.497382875142
29689000000,ocean_waves,wamv,0.0,0.0,0.0,0.0,0.0,0.0,1.0,-0.0676502779722,8.54491924209,2.33895105461,0.183776422184,-0.272878358004,0.600080094302,0.729155339283,0.0,0.0,0.0,0.0,0.0,0.0,0.287798397047,1.70703901642,-0.475968969766,-0.0796754081372,-1.13099700013,-0.497599091193
29690000000,ocean_waves,wamv,0.0,0.0,0.0,0.0,0.0,0.0,1.0,-0.0673627361483,8.54662556427,2.33847792998,0.183339045449,-0.273311400335,0.600013676739,0.729157911969,0.0,0.0,0.0,0.0,0.0,0.0,0.287510707006,1.70624888279,-0.472952992611,-0.0828087807291,-1.13061659218,-0.497812403888
29691000000,ocean_waves,wamv,0.0,0.0,0.0,0.0,0.0,0.0,1.0,-0.067075484356,8.5483310993,2.33800781929,0.182900541137,-0.273743278443,0.599947345926,0.7291606076,0.0,0.0,0.0,0.0,0.0,0.0,0.287220575318,1.70546178787,-0.469939081873,-0.085942744666,-1.13023651504,-0.498022896056
29692000000,ocean_waves,wamv,0.0,0.0,0.0,0.0,0.0,0.0,1.0,-0.0667885249559,8.55003585022,2.33754072026,0.182460909346,-0.274173992033,0.599881103794,0.72916342473,0.0,0.0,0.0,0.0,0.0,0.0,0.286928082954,1.70467772127,-0.466927438063,-0.0890772669895,-1.12985705021,-0.498230653314
29693000000,ocean_waves,wamv,0.0,0.0,0.0,0.0,0.0,0.0,1.0,-0.0665018602289,8.55173982004,2.33707663044,0.182020150093,-0.274603540925,0.599814952261,0.729166361892,0.0,0.0,0.0,0.0,0.0,0.0,0.286633309583,1.70389667229,-0.463918254617,-0.0922123175351,-1.12947846868,-0.498435759283
29694000000,ocean_waves,wamv,0.0,0.0,0.0,0.0,0.0,0.0,1.0,-0.0662154923757,8.55344301177,2.33661554715,0.181578263313,-0.275031925057,0.599748893228,0.7291694176,0.0,0.0,0.0,0.0,0.0,0.0,0.286336335355,1.70311862977,-0.46091172824,-0.0953478671541,-1.12910104308,-0.498638300711
29694000000,ocean_waves,wamv,0.0,0.0,0.0,0.0,0.0,0.0,1.0,-0.0659294235178,8.55514542841,2.33615746756,0.181135248858,-0.275459144479,0.59968292858,0.729172590348,0.0,0.0,0.0,0.0,0.0,0.0,0.286037239487,1.70234358228,-0.457908055885,-0.0984838883914,-1.12872504292,-0.49883836628
29696000000,ocean_waves,wamv,0.0,0.0,0.0,0.0,0.0,0.0,1.0,-0.0656436556999,8.55684707293,2.33570238859,0.180691106498,-0.275885199353,0.599617060183,0.729175878611,0.0,0.0,0.0,0.0,0.0,0.0,0.285736098774,1.70157151837,-0.454907431383,-0.101620356167,-1.12835072938,-0.499036045213
29697000000,ocean_waves,wamv,0.0,0.0,0.0,0.0,0.0,0.0,1.0,-0.0653581908907,8.55854794832,2.33525030701,0.180245835922,-0.276310089954,0.599551289886,0.729179280848,0.0,0.0,0.0,0.0,0.0,0.0,0.285432989302,1.70080242646,-0.451910055699,-0.104757245796,-1.1279783676,-0.499231432268
29698000000,ocean_waves,wamv,0.0,0.0,0.0,0.0,0.0,0.0,1.0,-0.0650730309869,8.56024805753,2.33480121937,0.179799436739,-0.276733816661,0.599485619515,0.729182795504,0.0,0.0,0.0,0.0,0.0,0.0,0.285127982713,1.70003629533,-0.448916123681,-0.10789453538,-1.12760820925,-0.499424621582
29699000000,ocean_waves,wamv,0.0,0.0,0.0,0.0,0.0,0.0,1.0,-0.0647881778167,8.56194740351,2.33435512201,0.179351908476,-0.277156379962,0.599420050876,0.729186421006,0.0,0.0,0.0,0.0,0.0,0.0,0.28482114789,1.69927311401,-0.445925833552,-0.11103220382,-1.12724050411,-0.499615711187
29700000000,ocean_waves,wamv,0.0,0.0,0.0,0.0,0.0,0.0,1.0,-0.0645036331438,8.5636459892,2.33391201111,0.178903250582,-0.277577780445,0.599354585751,0.729190155771,0.0,0.0,0.0,0.0,0.0,0.0,0.284512549132,1.69851287205,-0.442939380947,-0.114170231687,-1.12687549239,-0.499804800149
29701000000,ocean_waves,wamv,0.0,0.0,0.0,0.0,0.0,0.0,1.0,-0.0642193986717,8.56534381753,2.33347188263,0.17845346243,-0.277998018798,0.599289225895,0.729193998204,0.0,0.0,0.0,0.0,0.0,0.0,0.284202246619,1.69775555953,-0.439956962007,-0.117308600324,-1.12651340867,-0.499991989912
29702000000,ocean_waves,wamv,0.0,0.0,0.0,0.0,0.0,0.0,1.0,-0.0639354760472,8.56704089143,2.33303473232,0.178002543315,-0.278417095807,0.59922397304,0.729197946699,0.0,0.0,0.0,0.0,0.0,0.0,0.283890296933,1.69700116705,-0.43697877609,-0.120447290982,-1.12615448574,-0.500177385379
29704000000,ocean_waves,wamv,0.0,0.0,0.0,0.0,0.0,0.0,1.0,-0.0636518668649,8.56873721379,2.33260055576,0.177550492457,-0.278835012356,0.599158828886,0.729201999641,0.0,0.0,0.0,0.0,0.0,0.0,0.283576752522,1.69624968582,-0.434005023182,-0.123586284939,-1.12579895183,-0.50036109343
29705000000,ocean_waves,wamv,0.0,0.0,0.0,0.0,0.0,0.0,1.0,-0.0633685726725,8.57043278754,2.33216934831,0.177097309001,-0.279251769423,0.599093795108,0.729206155406,0.0,0.0,0.0,0.0,0.0,0.0,0.283261660104,1.69550110786,-0.43103589605,-0.126725564614,-1.12544702148,-0.500543218895
29705000000,ocean_waves,wamv,0.0,0.0,0.0,0.0,0.0,0.0,1.0,-0.0630855949727,8.57212761555,2.33174110514,0.17664299202,-0.279667368077,0.599028873348,0.729210412363,0.0,0.0,0.0,0.0,0.0,0.0,0.282945064463,1.69475542556,-0.428071594766,-0.129865110477,-1.12509891496,-0.500723871026
29706000000,ocean_waves,wamv,0.0,0.0,0.0,0.0,0.0,0.0,1.0,-0.0628029352289,8.57382170073,2.33131582124,0.176187540517,-0.280081809481,0.598964065219,0.729214768872,0.0,0.0,0.0,0.0,0.0,0.0,0.282627005402,1.69401263204,-0.425112311466,-0.133004903607,-1.12475484,-0.500903155914
29707000000,ocean_waves,wamv,0.0,0.0,0.0,0.0,0.0,0.0,1.0,-0.0625205948658,8.57551504595,2.33089349139,0.175730953424,-0.280495094886,0.598899372302,0.729219223286,0.0,0.0,0.0,0.0,0.0,0.0,0.282307521024,1.69327272071,-0.422158241714,-0.13614492328,-1.12441500746,-0.501081181437
29708000000,ocean_waves,wamv,0.0,0.0,0.0,0.0,0.0,0.0,1.0,-0.0622385752725,8.57720765409,2.33047411017,0.175273229603,-0.280907225635,0.598834796147,0.72922377395,0.0,0.0,0.0,0.0,0.0,0.0,0.281986647382,1.69253568528,-0.419209580107,-0.139285147578,-1.12407962689,-0.501258054797
29709000000,ocean_waves,wamv,0.0,0.0,0.0,0.0,0.0,0.0,1.0,-0.0619568778031,8.57889952802,2.33005767198,0.174814367847,-0.281318203162,0.598770338273,0.7292284192,0.0,0.0,0.0,0.0,0.0,0.0,0.281664419144,1.69180151963,-0.4162665201,-0.142425553252,-1.12374890748,-0.501433882064
29710000000,ocean_waves,wamv,0.0,0.0,0.0,0.0,0.0,0.0,1.0,-0.0616755037776,8.58059067061,2.32964417102,0.174354366879,-0.281728028995,0.598706000166,0.729233157361,0.0,0.0,0.0,0.0,0.0,0.0,0.281340870496,1.69107021765,-0.413329254899,-0.145566115444,-1.12342306027,-0.50160876828
29711000000,ocean_waves,wamv,0.0,0.0,0.0,0.0,0.0,0.0,1.0,-0.0613944544837,8.58228108471,2.32923360132,0.173893225359,-0.282136704747,0.598641783282,0.729237986749,0.0,0.0,0.0,0.0,0.0,0.0,0.281016033725,1.6903417734,-0.410397968593,-0.148706809304,-1.12310228785,-0.501782813001
29712000000,ocean_waves,wamv,0.0,0.0,0.0,0.0,0.0,0.0,1.0,-0.0611137311737,8.58397077317,2.32882595668,0.173430941875,-0.28254423213,0.598577689046,0.729242905667,0.0,0.0,0.0,0.0,0.0,0.0,0.280689944279,1.68961618038,-0.407472855258,-0.151847606358,-1.12278680935,-0.501956119095
29713000000,ocean_waves,wamv,0.0,0.0,0.0,0.0,0.0,0.0,1.0,-0.0608333350659,8.58565973885,2.32842123076,0.172967514948,-0.282950612944,0.598513718855,0.729247912406,0.0,0.0,0.0,0.0,0.0,0.0,0.280362636042,1.68889343209,-0.404554096503,-0.15498847876,-1.12247683267,-0.502128782008
29713000000,ocean_waves,wamv,0.0,0.0,0.0,0.0,0.0,0.0,1.0,-0.0605532673423,8.58734798457,2.32801941701,0.172502943036,-0.283355849085,0.598449874075,0.729253005241,0.0,0.0,0.0,0.0,0.0,0.0,0.280034145194,1.68817352152,-0.401641876087,-0.158129396584,-1.12217257342,-0.502300896574
29714000000,ocean_waves,wamv,0.0,0.0,0.0,0.0,0.0,0.0,1.0,-0.0602735291464,8.58903551317,2.32762050871,0.172037224523,-0.283759942544,0.598386156043,0.729258182431,0.0,0.0,0.0,0.0,0.0,0.0,0.279704510543,1.68745644106,-0.398736379861,-0.161270327897,-1.12187425527,-0.502472556951
29716000000,ocean_waves,wamv,0.0,0.0,0.0,0.0,0.0,0.0,1.0,-0.0599941215821,8.59072232747,2.32722449894,0.17157035773,-0.284162895409,0.59832256607,0.729263442216,0.0,0.0,0.0,0.0,0.0,0.0,0.279373771287,1.68674218271,-0.395837784925,-0.16441124089,-1.12158209631,-0.50264385154
29717000000,ocean_waves,wamv,0.0,0.0,0.0,0.0,0.0,0.0,1.0,-0.0597150457112,8.59240843029,2.32683138063,0.171102340909,-0.284564709864,0.598259105439,0.729268782819,0.0,0.0,0.0,0.0,0.0,0.0,0.279041969821,1.68603073776,-0.392946270799,-0.167552101878,-1.12129632331,-0.502814868315
29717000000,ocean_waves,wamv,0.0,0.0,0.0,0.0,0.0,0.0,1.0,-0.0594363025513,8.59409382443,2.32644114652,0.170633172244,-0.284965388192,0.598195775409,0.729274202441,0.0,0.0,0.0,0.0,0.0,0.0,0.278709150092,1.68532209693,-0.390062011749,-0.170692876857,-1.12101716195,-0.502985691306
29718000000,ocean_waves,wamv,0.0,0.0,0.0,0.0,0.0,0.0,1.0,-0.0591578930728,8.59577851269,2.32605378916,0.170162849848,-0.285364932775,0.598132577211,0.72927969926,0.0,0.0,0.0,0.0,0.0,0.0,0.278375359321,1.68461625012,-0.387185183795,-0.173833530319,-1.12074484559,-0.503156404038
29719000000,ocean_waves,wamv,0.0,0.0,0.0,0.0,0.0,0.0,1.0,-0.058879818198,8.59746249784,2.32566930096,0.169691371771,-0.285763346095,0.598069512052,0.729285271433,0.0,0.0,0.0,0.0,0.0,0.0,0.27804064578,1.68391318672,-0.384315954988,-0.176974027225,-1.12047960266,-0.5033270851
29721000000,ocean_waves,wamv,0.0,0.0,0.0,0.0,0.0,0.0,1.0,-0.0586020787966,8.59914578266,2.32528767415,0.16921873599,-0.286160630735,0.598006581115,0.729290917091,0.0,0.0,0.0,0.0,0.0,0.0,0.277705061803,1.68321289514,-0.381454498362,-0.180114330725,-1.12022167284,-0.503497814427
29722000000,ocean_waves,wamv,0.0,0.0,0.0,0.0,0.0,0.0,1.0,-0.0583246756843,8.60082836992,2.32490890076,0.168744940412,-0.286556789379,0.59794378556,0.729296634338,0.0,0.0,0.0,0.0,0.0,0.0,0.277368661562,1.68251536313,-0.378600982585,-0.183254404091,-1.11997129487,-0.503668669082
29723000000,ocean_waves,wamv,0.0,0.0,0.0,0.0,0.0,0.0,1.0,-0.0580476096199,8.60251026236,2.32453297271,0.168269982876,-0.286951824817,0.597881126522,0.729302421253,0.0,0.0,0.0,0.0,0.0,0.0,0.277031501655,1.6818205777,-0.375755574831,-0.186394210372,-1.1197287097,-0.503839724805
29724000000,ocean_waves,wamv,0.0,0.0,0.0,0.0,0.0,0.0,1.0,-0.0577708813043,8.60419146271,2.32415988169,0.16779386115,-0.287345739938,0.597818605114,0.729308275889,0.0,0.0,0.0,0.0,0.0,0.0,0.276693640278,1.68112852516,-0.372918437748,-0.189533713175,-1.11949415625,-0.504011054793
29725000000,ocean_waves,wamv,0.0,0.0,0.0,0.0,0.0,0.0,1.0,-0.0574944913771,8.60587197369,2.32378961929,0.167316572934,-0.287738537734,0.597756222425,0.729314196267,0.0,0.0,0.0,0.0,0.0,0.0,0.27635513861,1.68043919101,-0.370089736182,-0.192672875619,-1.11926787931,-0.504182733081
29726000000,ocean_waves,wamv,0.0,0.0,0.0,0.0,0.0,0.0,1.0,-0.0572184404152,8.60755179801,2.32342217689,0.166838115854,-0.2881302213,0.597693979523,0.729320180383,0.0,0.0,0.0,0.0,0.0,0.0,0.276016059084,1.67975256009,-0.367269630682,-0.195811661793,-1.11905012077,-0.504354831708
29727000000,ocean_waves,wamv,0.0,0.0,0.0,0.0,0.0,0.0,1.0,-0.0569427289316,8.60923093835,2.32305754575,0.166358487467,-0.288520793834,0.597631877452,0.729326226202,0.0,0.0,0.0,0.0,0.0,0.0,0.275676465952,1.67906861659,-0.364458281131,-0.198950036314,-1.11884112347,-0.504527422649
29728000000,ocean_waves,wamv,0.0,0.0,0.0,0.0,0.0,0.0,1.0,-0.0566673573742,8.61090939739,2.32269571693,0.165877685262,-0.288910258631,0.597569917232,0.729332331663,0.0,0.0,0.0,0.0,0.0,0.0,0.275336424093,1.67838734415,-0.361655843062,-0.202087965263,-1.11864112584,-0.504700576317
29729000000,ocean_waves,wamv,0.0,0.0,0.0,0.0,0.0,0.0,1.0,-0.0563923261232,8.61258717778,2.32233668136,0.165395706653,-0.289298619093,0.597508099862,0.729338494672,0.0,0.0,0.0,0.0,0.0,0.0,0.274996001141,1.67770872563,-0.358862478611,-0.205225414344,-1.11845037501,-0.504874366953
29730000000,ocean_waves,wamv,0.0,0.0,0.0,0.0,0.0,0.0,1.0,-0.0561176354923,8.61426428216,2.32198042981,0.164912548985,-0.289685878716,0.597446426316,0.729344713111,0.0,0.0,0.0,0.0,0.0,0.0,0.274655263754,1.67703274364,-0.356078342411,-0.20836235176,-1.11826910797,-0.505048866219
29731000000,ocean_waves,wamv,0.0,0.0,0.0,0.0,0.0,0.0,1.0,-0.055843285728,8.61594071314,2.3216269529,0.164428209532,-0.290072041098,0.597384897542,0.72935098483,0.0,0.0,0.0,0.0,0.0,0.0,0.274314278815,1.67635938039,-0.353303589087,-0.211498746985,-1.11809756029,-0.505224146954
29732000000,ocean_waves,wamv,0.0,0.0,0.0,0.0,0.0,0.0,1.0,-0.0555692770096,8.61761647334,2.32127624107,0.163942685496,-0.290457109932,0.597323514466,0.729357307654,0.0,0.0,0.0,0.0,0.0,0.0,0.2739731137,1.67568861771,-0.350538376889,-0.214634570213,-1.11793596976,-0.505400285103
29733000000,ocean_waves,wamv,0.0,0.0,0.0,0.0,0.0,0.0,1.0,-0.0552956094517,8.61929156533,2.32092828463,0.16345597401,-0.290841089007,0.597262277987,0.729363679381,0.0,0.0,0.0,0.0,0.0,0.0,0.273631833192,1.67502043755,-0.347782857085,-0.217769794456,-1.11778456207,-0.505577354912
