%time,field.name0,field.name1,field.pose0.position.x,field.pose0.position.y,field.pose0.position.z,field.pose0.orientation.x,field.pose0.orientation.y,field.pose0.orientation.z,field.pose0.orientation.w,field.pose1.position.x,field.pose1.position.y,field.pose1.position.z,field.pose1.orientation.x,field.pose1.orientation.y,field.pose1.orientation.z,field.pose1.orientation.w,field.twist0.linear.x,field.twist0.linear.y,field.twist0.linear.z,field.twist0.angular.x,field.twist0.angular.y,field.twist0.angular.z,field.twist1.linear.x,field.twist1.linear.y,field.twist1.linear.z,field.twist1.angular.x,field.twist1.angular.y,field.twist1.angular.z
17810000000,ocean_waves,wamv,0.0,0.0,0.0,0.0,0.0,0.0,1.0,0.33209103692,8.56832739508,-1.44310288912,0.0184163266514,0.00480021963711,0.696895464943,0.716920154372,0.0,0.0,0.0,0.0,0.0,0.0,0.080025284471,2.33221583517,0.454214607002,0.199326003001,-0.133201366088,0.015631063203
17810000000,ocean_waves,wamv,0.0,0.0,0.0,0.0,0.0,0.0,1.0,0.332171607319,8.57065906174,-1.44264780858,0.0184398940745,0.00468304806419,0.696902768807,0.716913223617,0.0,0.0,0.0,0.0,0.0,0.0,0.0805699766447,2.33166687816,0.455087817851,0.197429996492,-0.135359747212,0.0155906002539
17810000000,ocean_waves,wamv,0.0,0.0,0.0,0.0,0.0,0.0,1.0,0.332252710622,8.57299017431,-1.44219182283,0.0184620367235,0.00456578721004,0.696910063138,0.716906319322,0.0,0.0,0.0,0.0,0.0,0.0,0.0811028863519,2.33111279882,0.455993004287,0.195510493429,-0.137473515142,0.0155501048945
17815000000,ocean_waves,wamv,0.0,0.0,0.0,0.0,0.0,0.0,1.0,0.332334334931,8.57532072771,-1.44173489993,0.0184827619138,0.0044484613747,0.69691734763,0.716899441537,0.0,0.0,0.0,0.0,0.0,0.0,0.08162389894,2.33055364091,0.456930135346,0.193567626569,-0.139542247235,0.0155095897671
17815000000,ocean_waves,wamv,0.0,0.0,0.0,0.0,0.0,0.0,1.0,0.332416468239,8.57765071692,-1.44127700797,0.0185020771552,0.00433109495589,0.696924621975,0.71689259031,0.0,0.0,0.0,0.0,0.0,0.0,0.0821329030071,2.32998945041,0.457899174676,0.191601537911,-0.141565532817,0.0154690686393
17815000000,ocean_waves,wamv,0.0,0.0,0.0,0.0,0.0,0.0,1.0,0.332499098427,8.57998013695,-1.44081811507,0.0185199901505,0.00421371244335,0.696931885873,0.716885765688,0.0,0.0,0.0,0.0,0.0,0.0,0.0826297900679,2.32942027467,0.458900085322,0.189612375557,-0.143542971191,0.0154285566165
17816000000,ocean_waves,wamv,0.0,0.0,0.0,0.0,0.0,0.0,1.0,0.332582213275,8.58230898286,-1.44035818941,0.0185365087898,0.00409633841597,0.696939139024,0.716878967714,0.0,0.0,0.0,0.0,0.0,0.0,0.0831144554261,2.32884615953,0.459932821092,0.187600282775,-0.14547417432,0.0153880703119
17816000000,ocean_waves,wamv,0.0,0.0,0.0,0.0,0.0,0.0,1.0,0.332665800458,8.58463724976,-1.4398971992,0.0185516411544,0.00397899753546,0.696946381135,0.716872196428,0.0,0.0,0.0,0.0,0.0,0.0,0.0835867958403,2.32826715453,0.460997344147,0.185565417861,-0.147358757285,0.0153476279573
17816000000,ocean_waves,wamv,0.0,0.0,0.0,0.0,0.0,0.0,1.0,0.332749847551,8.58696493281,-1.4394351127,0.0185653955098,0.0038617145428,0.69695361192,0.716865451868,0.0,0.0,0.0,0.0,0.0,0.0,0.0840467128204,2.32768330755,0.462093605173,0.183507933776,-0.149196350322,0.0153072494747
17817000000,ocean_waves,wamv,0.0,0.0,0.0,0.0,0.0,0.0,1.0,0.332834342035,8.58929202721,-1.43897189823,0.0185777803069,0.00374451425328,0.696960831097,0.716858734067,0.0,0.0,0.0,0.0,0.0,0.0,0.084494110265,2.32709466841,0.463221551432,0.181427991807,-0.150986589293,0.0152669565391
17818000000,ocean_waves,wamv,0.0,0.0,0.0,0.0,0.0,0.0,1.0,0.332919271301,8.59161852822,-1.43850752415,0.0185888041756,0.00362742154936,0.696968038394,0.716852043053,0.0,0.0,0.0,0.0,0.0,0.0,0.0849288979639,2.32650128708,0.46438112573,0.179325754913,-0.152729128561,0.0152267725407
17819000000,ocean_waves,wamv,0.0,0.0,0.0,0.0,0.0,0.0,1.0,0.333004622649,8.59394443116,-1.43804195889,0.0185984759288,0.00351046137799,0.696975233544,0.716845378851,0.0,0.0,0.0,0.0,0.0,0.0,0.0853509866296,2.32590321551,0.465572280552,0.177201394588,-0.15442362167,0.0151867226668
17819000000,ocean_waves,wamv,0.0,0.0,0.0,0.0,0.0,0.0,1.0,0.333090383297,8.59626973139,-1.43757517093,0.0186068045547,0.00339365874508,0.696982416293,0.716838741477,0.0,0.0,0.0,0.0,0.0,0.0,0.0857602929691,2.32530050462,0.46679494823,0.175055079409,-0.156069740304,0.0151468337849
17821000000,ocean_waves,wamv,0.0,0.0,0.0,0.0,0.0,0.0,1.0,0.333176540383,8.59859442431,-1.43710712882,0.0186137992149,0.00327703870986,0.696989586394,0.716832130945,0.0,0.0,0.0,0.0,0.0,0.0,0.0861567378285,2.32469320645,0.468049061465,0.17288698336,-0.157667166919,0.015107134392
17821000000,ocean_waves,wamv,0.0,0.0,0.0,0.0,0.0,0.0,1.0,0.333263080968,8.6009185054,-1.43663780119,0.0186194692487,0.00316062638265,0.69699674361,0.716825547258,0.0,0.0,0.0,0.0,0.0,0.0,0.0865402427002,2.32408137511,0.469334556059,0.17069728933,-0.159215581236,0.0150676545897
17823000000,ocean_waves,wamv,0.0,0.0,0.0,0.0,0.0,0.0,1.0,0.33334999204,8.60324197017,-1.43616715672,0.0186238241639,0.00304444691869,0.697003887719,0.716818990416,0.0,0.0,0.0,0.0,0.0,0.0,0.0869107362022,2.32346506329,0.470651362241,0.168486175852,-0.160714684809,0.0150284258316
17824000000,ocean_waves,wamv,0.0,0.0,0.0,0.0,0.0,0.0,1.0,0.333437260521,8.6055648142,-1.43569516416,0.0186268736336,0.0029285255095,0.697011018506,0.716812460409,0.0,0.0,0.0,0.0,0.0,0.0,0.0872681527983,2.32284432523,0.47199941146,0.166253828526,-0.162164196134,0.014989480744
17826000000,ocean_waves,wamv,0.0,0.0,0.0,0.0,0.0,0.0,1.0,0.33352487327,8.60788703311,-1.43522179235,0.0186286274997,0.0028128873841,0.697018135772,0.71680595722,0.0,0.0,0.0,0.0,0.0,0.0,0.0876124264993,2.32221921589,0.473378619341,0.164000436689,-0.163563826837,0.0149508530736
17826000000,ocean_waves,wamv,0.0,0.0,0.0,0.0,0.0,0.0,1.0,0.333612817088,8.6102086226,-1.43474701023,0.0186290957605,0.00269755779668,0.69702523933,0.716799480824,0.0,0.0,0.0,0.0,0.0,0.0,0.0879435017787,2.32158978981,0.474788906954,0.161726189103,-0.164913323514,0.0149125771671
17827000000,ocean_waves,wamv,0.0,0.0,0.0,0.0,0.0,0.0,1.0,0.333701078718,8.6125295784,-1.43427078677,0.018628288578,0.002582562029,0.697032329004,0.716793031189,0.0,0.0,0.0,0.0,0.0,0.0,0.0882613207364,2.32095610306,0.476230191279,0.159431281401,-0.166212419337,0.0148746879698
17828000000,ocean_waves,wamv,0.0,0.0,0.0,0.0,0.0,0.0,1.0,0.333789644852,8.6148498963,-1.43379309109,0.0186262162707,0.0024679253834,0.697039404634,0.716786608272,0.0,0.0,0.0,0.0,0.0,0.0,0.0885658317066,2.32031821129,0.477702382672,0.157115908687,-0.167460867465,0.0148372204873
17829000000,ocean_waves,wamv,0.0,0.0,0.0,0.0,0.0,0.0,1.0,0.333878502136,8.61716957216,-1.43331389235,0.018622889309,0.00235367317611,0.697046466073,0.716780212026,0.0,0.0,0.0,0.0,0.0,0.0,0.0888569879747,2.31967617069,0.479205394864,0.154780268975,-0.168658436961,0.0148002094276
17830000000,ocean_waves,wamv,0.0,0.0,0.0,0.0,0.0,0.0,1.0,0.333967637167,8.61948860188,-1.43283315984,0.0186183183175,0.00223983074065,0.697053513185,0.716773842392,0.0,0.0,0.0,0.0,0.0,0.0,0.0891347413412,2.31903003666,0.480739132048,0.152424558209,-0.169804889275,0.0147636889848
17831000000,ocean_waves,wamv,0.0,0.0,0.0,0.0,0.0,0.0,1.0,0.334057036501,8.62180698143,-1.43235086292,0.018612514066,0.00212642341421,0.697060545849,0.716767499308,0.0,0.0,0.0,0.0,0.0,0.0,0.0893990520267,2.31837986623,0.482303490307,0.150048979478,-0.170900016992,0.0147276921421
17832000000,ocean_waves,wamv,0.0,0.0,0.0,0.0,0.0,0.0,1.0,0.334146686657,8.62412470682,-1.43186697107,0.0186054874704,0.00201347653731,0.697067563957,0.716761182701,0.0,0.0,0.0,0.0,0.0,0.0,0.0896498802738,2.31772571633,0.483898374097,0.147653736259,-0.171943613066,0.0146922505031
17833000000,ocean_waves,wamv,0.0,0.0,0.0,0.0,0.0,0.0,1.0,0.334236574115,8.62644177414,-1.43138145387,0.0185972495876,0.00190101545054,0.697074567412,0.716754892495,0.0,0.0,0.0,0.0,0.0,0.0,0.089887188718,2.3170676433,0.48552367945,0.145239030562,-0.172935481043,0.0146573938523
17835000000,ocean_waves,wamv,0.0,0.0,0.0,0.0,0.0,0.0,1.0,0.334326685318,8.62875817952,-1.43089428101,0.0185878116144,0.00178906549325,0.697081556129,0.716748628606,0.0,0.0,0.0,0.0,0.0,0.0,0.0901109404137,2.3164057031,0.48717928971,0.142805063688,-0.173875428723,0.0146231498709
17835000000,ocean_waves,wamv,0.0,0.0,0.0,0.0,0.0,0.0,1.0,0.334417006675,8.63107391914,-1.43040542229,0.0185771848835,0.0016776519948,0.697088530033,0.716742390948,0.0,0.0,0.0,0.0,0.0,0.0,0.0903211021647,2.31573995318,0.488865105023,0.140352043374,-0.174763281892,0.0145895437468
17836000000,ocean_waves,wamv,0.0,0.0,0.0,0.0,0.0,0.0,1.0,0.334507524563,8.63338898926,-1.42991484762,0.0185653808627,0.00156680027585,0.697095489061,0.716736179428,0.0,0.0,0.0,0.0,0.0,0.0,0.0905176391777,2.31507045026,0.490581004025,0.137880175114,-0.175598864956,0.0145565981468
17837000000,ocean_waves,wamv,0.0,0.0,0.0,0.0,0.0,0.0,1.0,0.334598225325,8.63570338618,-1.42942252703,0.01855241115,0.00145653564244,0.697102433155,0.716729993954,0.0,0.0,0.0,0.0,0.0,0.0,0.0907005194585,2.31439725095,0.49232686569,0.135389664696,-0.1763820184,0.0145243329715
17838000000,ocean_waves,wamv,0.0,0.0,0.0,0.0,0.0,0.0,1.0,0.334689095272,8.63801710626,-1.42892843069,0.01853828747,0.0013468833807,0.697109362271,0.716723834428,0.0,0.0,0.0,0.0,0.0,0.0,0.0908697126253,2.31372041239,0.494102569608,0.132880720599,-0.177112594799,0.0144927653631
17839000000,ocean_waves,wamv,0.0,0.0,0.0,0.0,0.0,0.0,1.0,0.33478012069,8.64033014592,-1.42843252888,0.0185230216709,0.00123786875271,0.697116276366,0.716717700755,0.0,0.0,0.0,0.0,0.0,0.0,0.0910251892737,2.31303999199,0.495907984933,0.130353552828,-0.177790456676,0.0144619098007
17840000000,ocean_waves,wamv,0.0,0.0,0.0,0.0,0.0,0.0,1.0,0.334871287828,8.64264250163,-1.42793479202,0.0185066257245,0.00112951700048,0.697123175408,0.716711592836,0.0,0.0,0.0,0.0,0.0,0.0,0.0911669169707,2.31235604539,0.497742983584,0.127808365371,-0.178415461287,0.0144317784008
17842000000,ocean_waves,wamv,0.0,0.0,0.0,0.0,0.0,0.0,1.0,0.33496258291,8.64495416992,-1.42743519064,0.0184891117248,0.00102185333304,0.697130059368,0.716705510575,0.0,0.0,0.0,0.0,0.0,0.0,0.0912948670415,2.31166863226,0.499607438763,0.125245378232,-0.178987486185,0.014402380905
17842000000,ocean_waves,wamv,0.0,0.0,0.0,0.0,0.0,0.0,1.0,0.335053992131,8.64726514739,-1.42693369544,0.0184704918796,0.00091490292563,0.697136928225,0.716699453877,0.0,0.0,0.0,0.0,0.0,0.0,0.0914090125907,2.31097780938,0.501501204974,0.122664801022,-0.179506421332,0.0143737250911
17842000000,ocean_waves,wamv,0.0,0.0,0.0,0.0,0.0,0.0,1.0,0.335145501655,8.64957543069,-1.42643027724,0.0184507785155,0.000808690919727,0.69714378196,0.716693422648,0.0,0.0,0.0,0.0,0.0,0.0,0.0915093237253,2.310283635,0.503424148998,0.120066849715,-0.179972150267,0.014345817225
17844000000,ocean_waves,wamv,0.0,0.0,0.0,0.0,0.0,0.0,1.0,0.335237097628,8.65188501652,-1.425924907,0.0184299840652,0.000703242411717,0.697150620559,0.716687416795,0.0,0.0,0.0,0.0,0.0,0.0,0.0915957781849,2.30958616672,0.505376126671,0.117451738513,-0.180384589885,0.0143186621082
17845000000,ocean_waves,wamv,0.0,0.0,0.0,0.0,0.0,0.0,1.0,0.335328766167,8.65419390164,-1.42541755583,0.0184081210729,0.000598582450403,0.697157444012,0.716681436229,0.0,0.0,0.0,0.0,0.0,0.0,0.0916683518916,2.30888546472,0.507356991022,0.114819692256,-0.180743653627,0.0142922637075
17846000000,ocean_waves,wamv,0.0,0.0,0.0,0.0,0.0,0.0,1.0,0.335420493369,8.65650208288,-1.424908195,0.0183852021896,0.000494736039178,0.697164252314,0.716675480864,0.0,0.0,0.0,0.0,0.0,0.0,0.0917270208953,2.30818158648,0.509366598284,0.112170926289,-0.181049258095,0.0142666254914
17847000000,ocean_waves,wamv,0.0,0.0,0.0,0.0,0.0,0.0,1.0,0.33551226531,8.65880955713,-1.42439679591,0.0183612401686,0.000391728123766,0.697171045463,0.716669550613,0.0,0.0,0.0,0.0,0.0,0.0,0.0917717670088,2.30747459207,0.511404788333,0.109505666689,-0.181301343637,0.0142417505319
17848000000,ocean_waves,wamv,0.0,0.0,0.0,0.0,0.0,0.0,1.0,0.335604068048,8.66111632133,-1.42388333012,0.0183362478666,0.000289583593739,0.69717782346,0.716663645395,0.0,0.0,0.0,0.0,0.0,0.0,0.09180257077,2.30676454122,0.513471418749,0.106824139113,-0.181499846773,0.0142176420404
17849000000,ocean_waves,wamv,0.0,0.0,0.0,0.0,0.0,0.0,1.0,0.335695887627,8.66342237248,-1.42336776937,0.0183102382365,0.000188327273239,0.697184586311,0.716657765129,0.0,0.0,0.0,0.0,0.0,0.0,0.0918194189675,2.3060514939,0.515566322492,0.104126571055,-0.181644728115,0.0141943033672
17850000000,ocean_waves,wamv,0.0,0.0,0.0,0.0,0.0,0.0,1.0,0.335787710083,8.66572770765,-1.42285008553,0.018283224323,8.79839146149e-05,0.697191334025,0.716651909735,0.0,0.0,0.0,0.0,0.0,0.0,0.0918223022465,2.30533551077,0.517689344397,0.101413193582,-0.181735962574,0.0141717382714
17851000000,ocean_waves,wamv,0.0,0.0,0.0,0.0,0.0,0.0,1.0,0.335879521439,8.66803232396,-1.42233025064,0.0182552192658,-1.14217991862e-05,0.697198066619,0.716646079137,0.0,0.0,0.0,0.0,0.0,0.0,0.0918112095537,2.30461665246,0.519840321998,0.0986842385347,-0.181773517627,0.0141499512706
17851000000,ocean_waves,wamv,0.0,0.0,0.0,0.0,0.0,0.0,1.0,0.335971307717,8.6703362186,-1.42180823692,0.0182262362922,-0.000109865266048,0.69720478411,0.716640273257,0.0,0.0,0.0,0.0,0.0,0.0,0.0917861372837,2.30389498067,0.522019086662,0.0959399429472,-0.181757387616,0.0141289474414
17851000000,ocean_waves,wamv,0.0,0.0,0.0,0.0,0.0,0.0,1.0,0.336063054933,8.67263938881,-1.42128401675,0.0181962887159,-0.000207321965962,0.697211486524,0.716634492021,0.0,0.0,0.0,0.0,0.0,0.0,0.0917470830981,2.30317055705,0.524225470145,0.0931805445284,-0.181687569793,0.0141087327063
17854000000,ocean_waves,wamv,0.0,0.0,0.0,0.0,0.0,0.0,1.0,0.336154758814,8.67494183493,-1.42075758654,0.0181653812192,-0.000303784761021,0.697218174095,0.716628735365,0.0,0.0,0.0,0.0,0.0,0.0,0.0917037539219,2.30244646442,0.526435433351,0.0904179080058,-0.181601021694,0.0140889567001
17856000000,ocean_waves,wamv,0.0,0.0,0.0,0.0,0.0,0.0,1.0,0.336246415637,8.67724355752,-1.42022894421,0.0181335180732,-0.000399247594463,0.697224847069,0.716623003226,0.0,0.0,0.0,0.0,0.0,0.0,0.0916567033536,2.30172293474,0.528647491496,0.087652952025,-0.181499865879,0.0140695951855
17856000000,ocean_waves,wamv,0.0,0.0,0.0,0.0,0.0,0.0,1.0,0.336338021623,8.67954455719,-1.41969808764,0.0181007036857,-0.000493704394475,0.697231505684,0.716617295538,0.0,0.0,0.0,0.0,0.0,0.0,0.0916058727272,2.3010000062,0.530861662663,0.0848858505084,-0.181383890763,0.0140506478059
17856000000,ocean_waves,wamv,0.0,0.0,0.0,0.0,0.0,0.0,1.0,0.336429572933,8.68184483457,-1.4191650147,0.0180669426054,-0.000587149076811,0.697238150176,0.716611612228,0.0,0.0,0.0,0.0,0.0,0.0,0.0915512037146,2.30027771983,0.533077969271,0.0821167884211,-0.181252881372,0.0140321161329
17858000000,ocean_waves,wamv,0.0,0.0,0.0,0.0,0.0,0.0,1.0,0.336521065677,8.68414439034,-1.41862972323,0.0180322395127,-0.000679575549533,0.697244780778,0.716605953222,0.0,0.0,0.0,0.0,0.0,0.0,0.0914926445422,2.29955611466,0.535296441024,0.0793459433332,-0.181106643187,0.0140140032962
17859000000,ocean_waves,wamv,0.0,0.0,0.0,0.0,0.0,0.0,1.0,0.336612495908,8.68644322523,-1.41809221103,0.0179965992306,-0.000770977706488,0.69725139772,0.716600318439,0.0,0.0,0.0,0.0,0.0,0.0,0.0914301380869,2.2988352314,0.537517096692,0.0765734995821,-0.180944956938,0.0139963141764
17860000000,ocean_waves,wamv,0.0,0.0,0.0,0.0,0.0,0.0,1.0,0.33670385963,8.68874134,-1.41755247591,0.0179600267138,-0.000861349434338,0.69725800123,0.716594707794,0.0,0.0,0.0,0.0,0.0,0.0,0.0913636349465,2.29811510917,0.539739966148,0.0737996357148,-0.180767628638,0.0139790547656
17861000000,ocean_waves,wamv,0.0,0.0,0.0,0.0,0.0,0.0,1.0,0.336795152794,8.69103873545,-1.41701051562,0.0179225270517,-0.000950684610836,0.697264591535,0.716589121195,0.0,0.0,0.0,0.0,0.0,0.0,0.0912930848731,2.29739578763,0.541965068819,0.0710245326601,-0.180574457174,0.0139622322435
17862000000,ocean_waves,wamv,0.0,0.0,0.0,0.0,0.0,0.0,1.0,0.336886371305,8.69333541242,-1.41646632792,0.0178841054697,-0.00103897710318,0.69727116886,0.716583558544,0.0,0.0,0.0,0.0,0.0,0.0,0.0912184377818,2.29667730593,0.544192427122,0.0682483697225,-0.180365238467,0.0139458547321
17863000000,ocean_waves,wamv,0.0,0.0,0.0,0.0,0.0,0.0,1.0,0.33697751102,8.69563137179,-1.41591991051,0.0178447673257,-0.00112622077521,0.697277733428,0.716578019738,0.0,0.0,0.0,0.0,0.0,0.0,0.0911396480555,2.29595970483,0.546422075208,0.0654713326241,-0.180139782209,0.0139299308999
17864000000,ocean_waves,wamv,0.0,0.0,0.0,0.0,0.0,0.0,1.0,0.337068567748,8.69792661448,-1.41537126108,0.0178045181107,-0.0012124094815,0.697284285464,0.716572504666,0.0,0.0,0.0,0.0,0.0,0.0,0.0910566687182,2.29524302274,0.548654039459,0.0626935984886,-0.179897890135,0.0139144699581
17865000000,ocean_waves,wamv,0.0,0.0,0.0,0.0,0.0,0.0,1.0,0.337159537256,8.70022114144,-1.4148203773,0.0177633634474,-0.00129753707088,0.69729082519,0.716567013211,0.0,0.0,0.0,0.0,0.0,0.0,0.0909694549306,2.29452729906,0.550888339621,0.0599153483584,-0.179639369809,0.0138994812665
17866000000,ocean_waves,wamv,0.0,0.0,0.0,0.0,0.0,0.0,1.0,0.337250415266,8.70251495368,-1.41426725679,0.0177213090903,-0.00138159738727,0.697297352827,0.716561545251,0.0,0.0,0.0,0.0,0.0,0.0,0.0908779627857,2.29381257323,0.553125009164,0.057136763854,-0.179364030622,0.0138849741263
17868000000,ocean_waves,wamv,0.0,0.0,0.0,0.0,0.0,0.0,1.0,0.337341197457,8.70480805223,-1.41371189716,0.0176783609202,-0.00146458427079,0.697303868597,0.716556100656,0.0,0.0,0.0,0.0,0.0,0.0,0.090782150967,2.29309888316,0.55536407495,0.0543580208331,-0.179071690762,0.0138709574698
17868000000,ocean_waves,wamv,0.0,0.0,0.0,0.0,0.0,0.0,1.0,0.337431879465,8.70710043817,-1.413154296,0.0176345249511,-0.00154649155292,0.69731037272,0.71655067929,0.0,0.0,0.0,0.0,0.0,0.0,0.0906819740654,2.29238626729,0.557605558953,0.0515792974385,-0.17876215243,0.0138574398351
17870000000,ocean_waves,wamv,0.0,0.0,0.0,0.0,0.0,0.0,1.0,0.337522456883,8.7093921126,-1.41259445085,0.0175898073222,-0.00162731306346,0.697316865413,0.716545281012,0.0,0.0,0.0,0.0,0.0,0.0,0.0905773919313,2.29167476379,0.559849498583,0.0488007710678,-0.17843523821,0.01384442878
17870000000,ocean_waves,wamv,0.0,0.0,0.0,0.0,0.0,0.0,1.0,0.337612925266,8.71168307668,-1.41203235923,0.0175442143014,-0.00170704262827,0.697323346894,0.716539905676,0.0,0.0,0.0,0.0,0.0,0.0,0.0904683620895,2.29096441118,0.562095920445,0.0460226203867,-0.178090762907,0.0138319309263
17872000000,ocean_waves,wamv,0.0,0.0,0.0,0.0,0.0,0.0,1.0,0.337703280122,8.7139733316,-1.41146801863,0.0174977522824,-0.00178567406602,0.697329817378,0.71653455313,0.0,0.0,0.0,0.0,0.0,0.0,0.0903548415295,2.29025524554,0.564344849468,0.0432450150401,-0.177728541104,0.0138199517102
17872000000,ocean_waves,wamv,0.0,0.0,0.0,0.0,0.0,0.0,1.0,0.337793516918,8.71626287858,-1.41090142651,0.0174504277839,-0.00186320119386,0.697336277076,0.716529223218,0.0,0.0,0.0,0.0,0.0,0.0,0.0902367887878,2.28954730495,0.566596319306,0.0404681323393,-0.177348395726,0.0138084951152
17874000000,ocean_waves,wamv,0.0,0.0,0.0,0.0,0.0,0.0,1.0,0.337883631078,8.71855171888,-1.41033258031,0.0174022474522,-0.00193961782172,0.697342726199,0.716523915779,0.0,0.0,0.0,0.0,0.0,0.0,0.0901141586897,2.28884062613,0.568850355057,0.0376921444729,-0.176950138611,0.0137975637723
17874000000,ocean_waves,wamv,0.0,0.0,0.0,0.0,0.0,0.0,1.0,0.337973617982,8.72083985381,-1.40976147744,0.0173532180545,-0.00201491775842,0.697349164952,0.716518630651,0.0,0.0,0.0,0.0,0.0,0.0,0.0899869097626,2.28813524568,0.571106989562,0.0349172231807,-0.176533599195,0.0137871586159
17875000000,ocean_waves,wamv,0.0,0.0,0.0,0.0,0.0,0.0,1.0,0.338063472967,8.72312728469,-1.40918811526,0.0173033464834,-0.00208909480559,0.697355593536,0.716513367668,0.0,0.0,0.0,0.0,0.0,0.0,0.0898549957296,2.28743119944,0.573366251414,0.0321435374539,-0.176098592417,0.013777279204
17877000000,ocean_waves,wamv,0.0,0.0,0.0,0.0,0.0,0.0,1.0,0.338153191322,8.72541401289,-1.40861249112,0.0172526397505,-0.00216214276305,0.697362012149,0.716508126662,0.0,0.0,0.0,0.0,0.0,0.0,0.0897183734441,2.28672852307,0.575628169279,0.0293712555151,-0.175644949088,0.0137679234793
17877000000,ocean_waves,wamv,0.0,0.0,0.0,0.0,0.0,0.0,1.0,0.338242768293,8.72770003983,-1.40803460233,0.0172011049927,-0.00223405542452,0.697368420982,0.716502907462,0.0,0.0,0.0,0.0,0.0,0.0,0.089576995074,2.2860272527,0.577892775053,0.0266005475146,-0.175172486081,0.0137590881763
17878000000,ocean_waves,wamv,0.0,0.0,0.0,0.0,0.0,0.0,1.0,0.338332199079,8.72998536693,-1.40745444617,0.0171487494636,-0.0023048265824,0.697374820222,0.716497709897,0.0,0.0,0.0,0.0,0.0,0.0,0.0894308164796,2.28532742324,0.5801601013,0.0238315788742,-0.174681038073,0.0137507686869
17880000000,ocean_waves,wamv,0.0,0.0,0.0,0.0,0.0,0.0,1.0,0.338421478831,8.73226999569,-1.40687201991,0.0170955805382,-0.00237445002331,0.697381210049,0.716492533795,0.0,0.0,0.0,0.0,0.0,0.0,0.0892797894047,2.28462906958,0.582430172133,0.0210645150395,-0.174170427436,0.01374295956
17880000000,ocean_waves,wamv,0.0,0.0,0.0,0.0,0.0,0.0,1.0,0.338510602656,8.73455392761,-1.40628732076,0.0170416057107,-0.00244291953328,0.697387590639,0.716487378983,0.0,0.0,0.0,0.0,0.0,0.0,0.0891238674165,2.28393222776,0.584703027061,0.0182995260037,-0.173640486396,0.0137356545131
17881000000,ocean_waves,wamv,0.0,0.0,0.0,0.0,0.0,0.0,1.0,0.33859956561,8.73683716423,-1.4057003459,0.0169868325925,-0.00251022889412,0.697393962159,0.716482245288,0.0,0.0,0.0,0.0,0.0,0.0,0.0889630031276,2.28323693148,0.586978690363,0.0155367727865,-0.173091045908,0.0137288468153
17882000000,ocean_waves,wamv,0.0,0.0,0.0,0.0,0.0,0.0,1.0,0.338688362703,8.73911970714,-1.4051110925,0.0169312689145,-0.00257637188673,0.697400324773,0.716477132536,0.0,0.0,0.0,0.0,0.0,0.0,0.0887971487458,2.28254321681,0.589257201893,0.0127764255996,-0.172521937097,0.0137225295009
17883000000,ocean_waves,wamv,0.0,0.0,0.0,0.0,0.0,0.0,1.0,0.338776988899,8.74140155795,-1.40451955769,0.0168749225224,-0.0026413422905,0.697406678636,0.716472040553,0.0,0.0,0.0,0.0,0.0,0.0,0.0886262579485,2.28185111754,0.59153858567,0.0100186461454,-0.171932997781,0.0137166955738
17884000000,ocean_waves,wamv,0.0,0.0,0.0,0.0,0.0,0.0,1.0,0.338865439117,8.74368271832,-1.40392573854,0.0168178013775,-0.00270513388564,0.697413023899,0.716466969164,0.0,0.0,0.0,0.0,0.0,0.0,0.0884502847118,2.28116066877,0.593822880906,0.00726360112394,-0.171324067347,0.0137113382599
17885000000,ocean_waves,wamv,0.0,0.0,0.0,0.0,0.0,0.0,1.0,0.338953708225,8.74596318993,-1.40332963213,0.016759913558,-0.00276774045259,0.697419360706,0.716461918194,0.0,0.0,0.0,0.0,0.0,0.0,0.0882691825188,2.28047190565,0.596110119259,0.00451145771794,-0.170694983141,0.0137064512429
17886000000,ocean_waves,wamv,0.0,0.0,0.0,0.0,0.0,0.0,1.0,0.339041791053,8.74824297449,-1.40273123546,0.0167012672537,-0.00282915577251,0.697425689195,0.716456887468,0.0,0.0,0.0,0.0,0.0,0.0,0.088082906972,2.27978486167,0.598400336428,0.00176237686348,-0.170045589873,0.0137020287353
17887000000,ocean_waves,wamv,0.0,0.0,0.0,0.0,0.0,0.0,1.0,0.33912968238,8.75052207377,-1.40213054555,0.0166418707692,-0.00288937362786,0.6974320095,0.716451876808,0.0,0.0,0.0,0.0,0.0,0.0,0.0878914132386,2.27909957149,0.600693560638,-0.000983475809764,-0.169375729395,0.013698065685
17888000000,ocean_waves,wamv,0.0,0.0,0.0,0.0,0.0,0.0,1.0,0.339217376949,8.75280048955,-1.40152755933,0.0165817325179,-0.00294838780732,0.69743832175,0.716446886036,0.0,0.0,0.0,0.0,0.0,0.0,0.0876946608214,2.27841606944,0.602989830815,-0.00372593584391,-0.16868525848,0.0136945576842
17888000000,ocean_waves,wamv,0.0,0.0,0.0,0.0,0.0,0.0,1.0,0.33930486946,8.75507822365,-1.40092227374,0.0165208610228,-0.00300619210383,0.697444626067,0.716441914973,0.0,0.0,0.0,0.0,0.0,0.0,0.0874926087382,2.27773438929,0.605289182425,-0.0064648406624,-0.16797403014,0.0136915012001
17889000000,ocean_waves,wamv,0.0,0.0,0.0,0.0,0.0,0.0,1.0,0.339392154572,8.75735527793,-1.40031468566,0.016459264919,-0.00306278031345,0.697450922572,0.716436963436,0.0,0.0,0.0,0.0,0.0,0.0,0.0872852152251,2.27705456533,0.607591647423,-0.00920002551036,-0.167241892239,0.0136888935938
17891000000,ocean_waves,wamv,0.0,0.0,0.0,0.0,0.0,0.0,1.0,0.339479226905,8.75963165428,-1.39970479194,0.0163969529486,-0.00311814623982,0.69745721138,0.716432031244,0.0,0.0,0.0,0.0,0.0,0.0,0.0870724426717,2.27637663149,0.609897260961,-0.0119313268473,-0.166488706139,0.0136867329158
17892000000,ocean_waves,wamv,0.0,0.0,0.0,0.0,0.0,0.0,1.0,0.339566081046,8.76190735462,-1.39909258939,0.0163339339579,-0.00317228369556,0.697463492602,0.716427118208,0.0,0.0,0.0,0.0,0.0,0.0,0.0868542556955,2.27570062114,0.612206061893,-0.0146585831434,-0.165714339272,0.0136850179326
17893000000,ocean_waves,wamv,0.0,0.0,0.0,0.0,0.0,0.0,1.0,0.339652711543,8.76418238091,-1.3984780748,0.0162702169004,-0.00322518650115,0.697469766348,0.716422224142,0.0,0.0,0.0,0.0,0.0,0.0,0.0866306180324,2.27502656828,0.614518085165,-0.0173816302276,-0.164918653244,0.0136837481703
17894000000,ocean_waves,wamv,0.0,0.0,0.0,0.0,0.0,0.0,1.0,0.33973911291,8.76645673514,-1.39786124491,0.0162058108368,-0.00327684848288,0.697476032721,0.716417348854,0.0,0.0,0.0,0.0,0.0,0.0,0.0864014932209,2.27435450619,0.616833362081,-0.0201003065735,-0.164101506483,0.0136829238055
17896000000,ocean_waves,wamv,0.0,0.0,0.0,0.0,0.0,0.0,1.0,0.33982527963,8.76873041934,-1.39724209643,0.0161407249242,-0.0033272634813,0.697482291824,0.71641249215,0.0,0.0,0.0,0.0,0.0,0.0,0.0861668525903,2.27368446715,0.61915193084,-0.0228144542979,-0.163262784759,0.0136825452542
17896000000,ocean_waves,wamv,0.0,0.0,0.0,0.0,0.0,0.0,1.0,0.339911206155,8.77100343555,-1.39662062604,0.0160749684259,-0.00337642534769,0.697488543757,0.716407653832,0.0,0.0,0.0,0.0,0.0,0.0,0.0859266632386,2.27301648564,0.621473830533,-0.0255239070415,-0.162402355501,0.0136826134949
17897000000,ocean_waves,wamv,0.0,0.0,0.0,0.0,0.0,0.0,1.0,0.339996886907,8.77327578588,-1.39599683036,0.0160085507042,-0.00342432794459,0.697494788617,0.7164028337,0.0,0.0,0.0,0.0,0.0,0.0,0.0856808954021,2.27235059386,0.623799098566,-0.0282285069903,-0.161520096092,0.0136831296747
17898000000,ocean_waves,wamv,0.0,0.0,0.0,0.0,0.0,0.0,1.0,0.34008231628,8.77554747245,-1.39537070598,0.0159414812177,-0.00347096514886,0.697501026498,0.716398031552,0.0,0.0,0.0,0.0,0.0,0.0,0.0854295221375,2.27168682387,0.626127772564,-0.0309280968363,-0.160615892893,0.0136840949677
17899000000,ocean_waves,wamv,0.0,0.0,0.0,0.0,0.0,0.0,1.0,0.34016748864,8.7778184974,-1.39474224948,0.0158737695243,-0.00351633084803,0.697507257492,0.716393247179,0.0,0.0,0.0,0.0,0.0,0.0,0.0851725142788,2.27102520762,0.62845988274,-0.0336225195095,-0.159689622326,0.0136855106123
17900000000,ocean_waves,wamv,0.0,0.0,0.0,0.0,0.0,0.0,1.0,0.340252398329,8.78008886292,-1.39411145738,0.0158054252721,-0.00356041894806,0.697513481689,0.716388480373,0.0,0.0,0.0,0.0,0.0,0.0,0.0849098492874,2.27036577642,0.63079546988,-0.0363116205307,-0.158741184962,0.0136873774158
17901000000,ocean_waves,wamv,0.0,0.0,0.0,0.0,0.0,0.0,1.0,0.340337039661,8.78235857123,-1.39347832617,0.0157364582105,-0.00360322336447,0.697519699174,0.716383730921,0.0,0.0,0.0,0.0,0.0,0.0,0.0846414972742,2.26970856257,0.63313456723,-0.0389952413726,-0.157770452656,0.0136896961086
17902000000,ocean_waves,wamv,0.0,0.0,0.0,0.0,0.0,0.0,1.0,0.340421406928,8.78462762458,-1.39284285231,0.0156668781742,-0.00364473803253,0.697525910032,0.716378998608,0.0,0.0,0.0,0.0,0.0,0.0,0.0843674383562,2.26905359589,0.635477214413,-0.0416732331963,-0.156777335164,0.0136924665298
17903000000,ocean_waves,wamv,0.0,0.0,0.0,0.0,0.0,0.0,1.0,0.3405054944,8.78689602524,-1.39220503219,0.0155966950902,-0.00368495690376,0.697532114345,0.716374283216,0.0,0.0,0.0,0.0,0.0,0.0,0.0840876483446,2.26840090786,0.637823447543,-0.0443454407308,-0.155761726105,0.0136956879779
17904000000,ocean_waves,wamv,0.0,0.0,0.0,0.0,0.0,0.0,1.0,0.340589296322,8.78916377553,-1.39156486221,0.015525918976,-0.00372387394447,0.697538312188,0.716369584525,0.0,0.0,0.0,0.0,0.0,0.0,0.08380210326,2.26775052846,0.640173302215,-0.0470117144582,-0.154723520713,0.0136993588843
17905000000,ocean_waves,wamv,0.0,0.0,0.0,0.0,0.0,0.0,1.0,0.340672806917,8.79143087779,-1.39092233872,0.0154545599343,-0.00376148313724,0.697544503637,0.716364902314,0.0,0.0,0.0,0.0,0.0,0.0,0.0835107810317,2.26710248647,0.642526813476,-0.0496719096178,-0.153662622883,0.0137034765891
17906000000,ocean_waves,wamv,0.0,0.0,0.0,0.0,0.0,0.0,1.0,0.340756020383,8.79369733437,-1.390277458,0.0153826281571,-0.00379777848297,0.697550688762,0.716360236359,0.0,0.0,0.0,0.0,0.0,0.0,0.0832136585171,2.26645681277,0.644884023155,-0.0523258733889,-0.152578934357,0.0137080372961
17907000000,ocean_waves,wamv,0.0,0.0,0.0,0.0,0.0,0.0,1.0,0.340838930901,8.79596314767,-1.38963021634,0.0153101339165,-0.00383275399935,0.697556867629,0.716355586437,0.0,0.0,0.0,0.0,0.0,0.0,0.0829107145467,2.26581353447,0.647244958151,-0.054973467651,-0.151472366906,0.013713035861
17908000000,ocean_waves,wamv,0.0,0.0,0.0,0.0,0.0,0.0,1.0,0.340921532626,8.79822832013,-1.38898060998,0.0152370875685,-0.00386640372329,0.697563040298,0.716350952324,0.0,0.0,0.0,0.0,0.0,0.0,0.0826019268162,2.26517268087,0.649609659532,-0.0576145458972,-0.150342830953,0.0137184657953
17909000000,ocean_waves,wamv,0.0,0.0,0.0,0.0,0.0,0.0,1.0,0.341003819692,8.80049285419,-1.38832863511,0.0151634995488,-0.00389872171003,0.697569206824,0.716346333795,0.0,0.0,0.0,0.0,0.0,0.0,0.082287273228,2.2645342795,0.65197816384,-0.0602489686514,-0.149190241127,0.0137243191799
17910000000,ocean_waves,wamv,0.0,0.0,0.0,0.0,0.0,0.0,1.0,0.341085786209,8.80275675233,-1.38767428789,0.0150893803752,-0.00392970203149,0.697575367259,0.716341730626,0.0,0.0,0.0,0.0,0.0,0.0,0.0819667292862,2.26389835813,0.654350504116,-0.0628765956107,-0.148014506643,0.0137305867471
17911000000,ocean_waves,wamv,0.0,0.0,0.0,0.0,0.0,0.0,1.0,0.341167426266,8.80502001707,-1.38701756447,0.0150147406394,-0.00395933878071,0.697581521644,0.716337142594,0.0,0.0,0.0,0.0,0.0,0.0,0.081640274014,2.26326494328,0.656726712511,-0.0654972914857,-0.146815554047,0.0137372577112
17912000000,ocean_waves,wamv,0.0,0.0,0.0,0.0,0.0,0.0,1.0,0.341248733927,8.80728265092,-1.38635846092,0.0149395910124,-0.00398762606986,0.697587670018,0.71633256948,0.0,0.0,0.0,0.0,0.0,0.0,0.0813078828213,2.26263406263,0.659106828426,-0.0681109166861,-0.145593300074,0.0137443201168
17913000000,ocean_waves,wamv,0.0,0.0,0.0,0.0,0.0,0.0,1.0,0.341329703233,8.80954465646,-1.38569697332,0.0148639422392,-0.00401455803188,0.697593812411,0.716328011061,0.0,0.0,0.0,0.0,0.0,0.0,0.0809695325084,2.26200574267,0.66149089071,-0.0707173364208,-0.144347670606,0.0137517608095
17914000000,ocean_waves,wamv,0.0,0.0,0.0,0.0,0.0,0.0,1.0,0.3414103282,8.81180603628,-1.38503309768,0.0147878051377,-0.00404012881806,0.697599948844,0.716323467123,0.0,0.0,0.0,0.0,0.0,0.0,0.0806251985668,2.26138000851,0.66387892316,-0.0733164212689,-0.143078590114,0.0137595657286
17915000000,ocean_waves,wamv,0.0,0.0,0.0,0.0,0.0,0.0,1.0,0.341490602822,8.81406679297,-1.38436683,0.014711190597,-0.00406433260337,0.697606079333,0.71631893745,0.0,0.0,0.0,0.0,0.0,0.0,0.0802748581405,2.26075688673,0.666270971095,-0.0759080363713,-0.141785992499,0.0137677200223
17916000000,ocean_waves,wamv,0.0,0.0,0.0,0.0,0.0,0.0,1.0,0.341570521067,8.81632692918,-1.38369816623,0.0146341095787,-0.00408716358316,0.697612203886,0.716314421829,0.0,0.0,0.0,0.0,0.0,0.0,0.079918486113,2.26013640315,0.668667061746,-0.0784920499996,-0.140469805645,0.0137762084581
17917000000,ocean_waves,wamv,0.0,0.0,0.0,0.0,0.0,0.0,1.0,0.34165007688,8.81858644758,-1.3830271023,0.0145565731144,-0.0041086159748,0.697618322503,0.71630992005,0.0,0.0,0.0,0.0,0.0,0.0,0.0795560583368,2.25951858326,0.671067232893,-0.0810683316522,-0.139129963045,0.0137850155828
17918000000,ocean_waves,wamv,0.0,0.0,0.0,0.0,0.0,0.0,1.0,0.341729264184,8.82084535086,-1.38235363408,0.0144785922998,-0.00412868402154,0.697624435175,0.716305431908,0.0,0.0,0.0,0.0,0.0,0.0,0.07918755387,2.25890345196,0.673471517849,-0.0836367533692,-0.13776641161,0.0137941259207
17919000000,ocean_waves,wamv,0.0,0.0,0.0,0.0,0.0,0.0,1.0,0.34180807688,8.82310364172,-1.38167775744,0.0144001782963,-0.00414736199084,0.697630541887,0.716300957196,0.0,0.0,0.0,0.0,0.0,0.0,0.0788129506758,2.25829103385,0.675879953811,-0.0861971883197,-0.136379094518,0.0138035243963
17920000000,ocean_waves,wamv,0.0,0.0,0.0,0.0,0.0,0.0,1.0,0.341886508849,8.8253613229,-1.38099946819,0.0143213423315,-0.00416464417753,0.697636642618,0.716296495713,0.0,0.0,0.0,0.0,0.0,0.0,0.0784322275988,2.25768135514,0.678292574312,-0.0887495035523,-0.134967957987,0.013813196499
17921000000,ocean_waves,wamv,0.0,0.0,0.0,0.0,0.0,0.0,1.0,0.34196455395,8.82761839718,-1.3803187621,0.0142420956954,-0.00418052490219,0.697642737337,0.716292047257,0.0,0.0,0.0,0.0,0.0,0.0,0.0780453644824,2.25707444008,0.680709412825,-0.0912935737518,-0.133532951041,0.01382312849
17922000000,ocean_waves,wamv,0.0,0.0,0.0,0.0,0.0,0.0,1.0,0.342042206025,8.82987486733,-1.37963563494,0.0141624497412,-0.00419499851338,0.697648826008,0.71628761163,0.0,0.0,0.0,0.0,0.0,0.0,0.077652342481,2.25647031373,0.683130505665,-0.0938292704741,-0.13207402604,0.0138333075504
17923000000,ocean_waves,wamv,0.0,0.0,0.0,0.0,0.0,0.0,1.0,0.342119458901,8.83213073618,-1.3789500824,0.0140824158763,-0.00420805939104,0.697654908591,0.716283188633,0.0,0.0,0.0,0.0,0.0,0.0,0.077253147564,2.25586899933,0.685555885168,-0.0963564722833,-0.13059115151,0.0138437217759
17924000000,ocean_waves,wamv,0.0,0.0,0.0,0.0,0.0,0.0,1.0,0.342196306389,8.83438600655,-1.37826210018,0.0140020055691,-0.00421970194664,0.697660985036,0.71627877807,0.0,0.0,0.0,0.0,0.0,0.0,0.0768477640118,2.2552705227,0.687985591838,-0.098875047867,-0.129084286923,0.0138543604524
17925000000,ocean_waves,wamv,0.0,0.0,0.0,0.0,0.0,0.0,1.0,0.342272742287,8.83664068131,-1.3775716839,0.013921230346,-0.00422992062245,0.697667055292,0.716274379744,0.0,0.0,0.0,0.0,0.0,0.0,0.0764361779624,2.254674908,0.69041965404,-0.101384872283,-0.127553395899,0.013865213959
17926000000,ocean_waves,wamv,0.0,0.0,0.0,0.0,0.0,0.0,1.0,0.342348760384,8.83889476335,-1.37687882919,0.0138401017817,-0.00423870989759,0.697673119301,0.716269993457,0.0,0.0,0.0,0.0,0.0,0.0,0.0760183818495,2.25408217836,0.692858107018,-0.10388582457,-0.125998462895,0.0138762735852
17927000000,ocean_waves,wamv,0.0,0.0,0.0,0.0,0.0,0.0,1.0,0.34242435446,8.84114825557,-1.37618353161,0.013758631508,-0.00424606428345,0.697679176999,0.716265619012,0.0,0.0,0.0,0.0,0.0,0.0,0.0755943642928,2.25349235823,0.695300986765,-0.10637777872,-0.124419454598,0.0138875317984
17928000000,ocean_waves,wamv,0.0,0.0,0.0,0.0,0.0,0.0,1.0,0.342499518288,8.84340116092,-1.37548578671,0.0136768312046,-0.00425197832911,0.697685228322,0.716261256212,0.0,0.0,0.0,0.0,0.0,0.0,0.0751641199764,2.25290547082,0.697748328256,-0.108860613474,-0.122816357533,0.0138989818161
17929000000,ocean_waves,wamv,0.0,0.0,0.0,0.0,0.0,0.0,1.0,0.342574245636,8.84565348233,-1.37478559,0.0135947125999,-0.00425644662151,0.697691273199,0.716256904856,0.0,0.0,0.0,0.0,0.0,0.0,0.0747276444071,2.25232153948,0.700200166074,-0.11133420707,-0.121189158169,0.0139106176519
17930000000,ocean_waves,wamv,0.0,0.0,0.0,0.0,0.0,0.0,1.0,0.342648530273,8.8479052228,-1.37408293693,0.0135122874646,-0.00425946378787,0.697697311556,0.716252564745,0.0,0.0,0.0,0.0,0.0,0.0,0.0742849368775,2.25174058638,0.70265653463,-0.113798442374,-0.119537854347,0.0139224338747
17931000000,ocean_waves,wamv,0.0,0.0,0.0,0.0,0.0,0.0,1.0,0.342722365965,8.85015638532,-1.37337782295,0.013429567617,-0.004261024496,0.697703343316,0.716248235676,0.0,0.0,0.0,0.0,0.0,0.0,0.0738359959255,2.25116263542,0.705117471493,-0.11625319557,-0.117862438182,0.0139344255905
17932000000,ocean_waves,wamv,0.0,0.0,0.0,0.0,0.0,0.0,1.0,0.342795746478,8.85240697292,-1.37267024346,0.0133465649183,-0.00426112345152,0.6977093684,0.716243917446,0.0,0.0,0.0,0.0,0.0,0.0,0.0733808211619,2.25058770808,0.707582999158,-0.118698352307,-0.116162903281,0.013946588222
17933000000,ocean_waves,wamv,0.0,0.0,0.0,0.0,0.0,0.0,1.0,0.342868665584,8.85465698865,-1.37196019384,0.0132632912686,-0.00425975540425,0.697715386725,0.716239609849,0.0,0.0,0.0,0.0,0.0,0.0,0.0729194168825,2.25001582647,0.710053158423,-0.121133795846,-0.114439258794,0.0139589172072
17934000000,ocean_waves,wamv,0.0,0.0,0.0,0.0,0.0,0.0,1.0,0.342941117058,8.85690643556,-1.37124766941,0.0131797586035,-0.00425691514908,0.697721398203,0.716235312677,0.0,0.0,0.0,0.0,0.0,0.0,0.0724517892766,2.24944701194,0.712527985627,-0.123559412408,-0.112691519133,0.0139714079127
17935000000,ocean_waves,wamv,0.0,0.0,0.0,0.0,0.0,0.0,1.0,0.343013094683,8.85915531676,-1.3705326655,0.0130959788953,-0.00425259752297,0.697727402746,0.716231025723,0.0,0.0,0.0,0.0,0.0,0.0,0.0719779435512,2.24888128509,0.715007505323,-0.12597509135,-0.110919693417,0.0139840555417
17936000000,ocean_waves,wamv,0.0,0.0,0.0,0.0,0.0,0.0,1.0,0.343084592247,8.86140363534,-1.36981517736,0.0130119641522,-0.00424679740539,0.697733400261,0.716226748775,0.0,0.0,0.0,0.0,0.0,0.0,0.0714978855004,2.24831866655,0.717491748985,-0.12838072196,-0.109123791883,0.0139968548941
17937000000,ocean_waves,wamv,0.0,0.0,0.0,0.0,0.0,0.0,1.0,0.343155603548,8.86365139444,-1.36909520025,0.0129277264116,-0.00423950972476,0.697739390652,0.716222481621,0.0,0.0,0.0,0.0,0.0,0.0,0.0710116261856,2.24775917663,0.719980755466,-0.130776194932,-0.107303844184,0.0140098000334
17938000000,ocean_waves,wamv,0.0,0.0,0.0,0.0,0.0,0.0,1.0,0.343226122395,8.8658985972,-1.36837272938,0.0128432777384,-0.00423072945429,0.697745373818,0.716218224049,0.0,0.0,0.0,0.0,0.0,0.0,0.0705191754511,2.24720283381,0.722474551101,-0.133161408128,-0.105459875254,0.0140228843078
17939000000,ocean_waves,wamv,0.0,0.0,0.0,0.0,0.0,0.0,1.0,0.343296142605,8.86814524679,-1.36764775992,0.0127586302287,-0.00422045161418,0.697751349657,0.716213975844,0.0,0.0,0.0,0.0,0.0,0.0,0.0700205427243,2.24664965859,0.724973169523,-0.135536251977,-0.103591908914,0.0140361001275
17940000000,ocean_waves,wamv,0.0,0.0,0.0,0.0,0.0,0.0,1.0,0.34336565801,8.87039134639,-1.36692028702,0.0126737960001,-0.00420867127092,0.697757318059,0.716209736793,0.0,0.0,0.0,0.0,0.0,0.0,0.0695157403062,2.24609966775,0.727476636486,-0.137900631278,-0.101699981046,0.0140494386967
17941000000,ocean_waves,wamv,0.0,0.0,0.0,0.0,0.0,0.0,1.0,0.343434662451,8.87263689922,-1.36619030581,0.0125887871957,-0.0041953835391,0.697763278911,0.716205506679,0.0,0.0,0.0,0.0,0.0,0.0,0.0690047793518,2.24555288019,0.729984983815,-0.140254443013,-0.0997841249301,0.0140628899483
17942000000,ocean_waves,wamv,0.0,0.0,0.0,0.0,0.0,0.0,1.0,0.343503149785,8.87488190848,-1.36545781138,0.012503615973,-0.00418058358497,0.697769232095,0.71620128529,0.0,0.0,0.0,0.0,0.0,0.0,0.068487675595,2.24500931221,0.732498242804,-0.142597594416,-0.0978443937303,0.0140764422234
17943000000,ocean_waves,wamv,0.0,0.0,0.0,0.0,0.0,0.0,1.0,0.343571113878,8.87712637742,-1.36472279879,0.0124182945128,-0.00416426661823,0.697775177486,0.716197072411,0.0,0.0,0.0,0.0,0.0,0.0,0.0679644377569,2.24446898035,0.735016433432,-0.144929992078,-0.0958808170568,0.0140900824653
17944000000,ocean_waves,wamv,0.0,0.0,0.0,0.0,0.0,0.0,1.0,0.34363854861,8.87937030928,-1.36398526309,0.0123328350119,-0.00414642790062,0.697781114952,0.716192867831,0.0,0.0,0.0,0.0,0.0,0.0,0.0674350794677,2.24393190164,0.737539593638,-0.147251540999,-0.093893446994,0.0141037957517
17945000000,ocean_waves,wamv,0.0,0.0,0.0,0.0,0.0,0.0,1.0,0.343705447872,8.88161370734,-1.36324519927,0.0122472496787,-0.0041270627424,0.697787044356,0.716188671341,0.0,0.0,0.0,0.0,0.0,0.0,0.0668996133028,2.24339809041,0.74006774498,-0.149562156896,-0.0918823360295,0.0141175653973
17946000000,ocean_waves,wamv,0.0,0.0,0.0,0.0,0.0,0.0,1.0,0.343771805568,8.88385657487,-1.36250260232,0.0121615507362,-0.00410616650071,0.697792965552,0.716184482732,0.0,0.0,0.0,0.0,0.0,0.0,0.0663580489823,2.24286756149,0.742600912776,-0.151861753908,-0.089847530723,0.014131372959
17948000000,ocean_waves,wamv,0.0,0.0,0.0,0.0,0.0,0.0,1.0,0.343837615611,8.88609891518,-1.36175746721,0.0120757504153,-0.00408373458579,0.697798878384,0.716180301802,0.0,0.0,0.0,0.0,0.0,0.0,0.0658103996566,2.2423403295,0.745139128994,-0.154150247424,-0.0877890960343,0.0141451980755
17948000000,ocean_waves,wamv,0.0,0.0,0.0,0.0,0.0,0.0,1.0,0.343902871926,8.88834073157,-1.36100978885,0.0119898609553,-0.00405976245546,0.69780478269,0.71617612835,0.0,0.0,0.0,0.0,0.0,0.0,0.0652566744911,2.24181640757,0.747682410143,-0.156427558826,-0.0857070873767,0.014159018752
17949000000,ocean_waves,wamv,0.0,0.0,0.0,0.0,0.0,0.0,1.0,0.343967568448,8.89058202737,-1.36025956216,0.0119038946013,-0.0040342456185,0.697810678295,0.71617196218,0.0,0.0,0.0,0.0,0.0,0.0,0.0646968836132,2.24129580895,0.750230787026,-0.158693609371,-0.0836015695056,0.0141728113581
17949000000,ocean_waves,wamv,0.0,0.0,0.0,0.0,0.0,0.0,1.0,0.34403169912,8.89282280592,-1.35950678203,0.0118178636038,-0.00400717963552,0.697816565017,0.716167803101,0.0,0.0,0.0,0.0,0.0,0.0,0.0641310361083,2.24077854721,0.752784278605,-0.160948319568,-0.0814726087704,0.0141865508868
17951000000,ocean_waves,wamv,0.0,0.0,0.0,0.0,0.0,0.0,1.0,0.344095257894,8.89506307056,-1.35875144332,0.0117317802135,-0.00397856011972,0.697822442662,0.716163650927,0.0,0.0,0.0,0.0,0.0,0.0,0.063559141849,2.24026463439,0.755342915276,-0.163191616057,-0.0793202797282,0.0142002111787
17952000000,ocean_waves,wamv,0.0,0.0,0.0,0.0,0.0,0.0,1.0,0.344158238732,8.89730282465,-1.35799354085,0.0116456566844,-0.00394838273479,0.697828311025,0.716159505478,0.0,0.0,0.0,0.0,0.0,0.0,0.062981207508,2.23975408304,0.757906715878,-0.16542342396,-0.0771446494131,0.014213765349
17953000000,ocean_waves,wamv,0.0,0.0,0.0,0.0,0.0,0.0,1.0,0.344220635601,8.89954207157,-1.35723306944,0.011559505269,-0.00391664319734,0.69783416989,0.716155366577,0.0,0.0,0.0,0.0,0.0,0.0,0.0623972415073,2.2392469048,0.760475705379,-0.167643672053,-0.0749457953947,0.0142271860319
17954000000,ocean_waves,wamv,0.0,0.0,0.0,0.0,0.0,0.0,1.0,0.34428244248,8.90178081471,-1.35647002389,0.0114733382171,-0.00388333727922,0.697840019032,0.716151234056,0.0,0.0,0.0,0.0,0.0,0.0,0.0618072528064,2.23874311178,0.763049905711,-0.169852287714,-0.0727238002308,0.0142404458152
17955000000,ocean_waves,wamv,0.0,0.0,0.0,0.0,0.0,0.0,1.0,0.344343653354,8.90401905745,-1.35570439896,0.0113871677717,-0.00384846080776,0.697845858211,0.716147107749,0.0,0.0,0.0,0.0,0.0,0.0,0.0612112513422,2.23824271484,0.765629341894,-0.172049203317,-0.0704787520768,0.0142535176481
17956000000,ocean_waves,wamv,0.0,0.0,0.0,0.0,0.0,0.0,1.0,0.344404262221,8.90625680321,-1.35493618939,0.0113010061716,-0.0038120096668,0.697851687182,0.716142987496,0.0,0.0,0.0,0.0,0.0,0.0,0.0606092465077,2.23774572605,0.768214031234,-0.174234346862,-0.0682107377482,0.014266375283
17957000000,ocean_waves,wamv,0.0,0.0,0.0,0.0,0.0,0.0,1.0,0.344464263088,8.90849405541,-1.35416538991,0.0112148656485,-0.00377397979687,0.697857505685,0.716138873141,0.0,0.0,0.0,0.0,0.0,0.0,0.0600012487128,2.23725215673,0.77080399967,-0.176407649337,-0.0659198474996,0.0142789936183
17958000000,ocean_waves,wamv,0.0,0.0,0.0,0.0,0.0,0.0,1.0,0.344523649977,8.91073081747,-1.35339199523,0.0111287584221,-0.00373436719957,0.697863313454,0.716134764533,0.0,0.0,0.0,0.0,0.0,0.0,0.0593872724284,2.23676201779,0.773399267031,-0.178569043514,-0.0636061854687,0.0142913489598
17959000000,ocean_waves,wamv,0.0,0.0,0.0,0.0,0.0,0.0,1.0,0.344582416923,8.91296709285,-1.35261600001,0.0110426967018,-0.00369316793775,0.69786911021,0.716130661524,0.0,0.0,0.0,0.0,0.0,0.0,0.0587673321277,2.23627532105,0.775999859009,-0.180718458768,-0.0612698532121,0.0143034193835
17960000000,ocean_waves,wamv,0.0,0.0,0.0,0.0,0.0,0.0,1.0,0.344640557983,8.91520288499,-1.35183739892,0.0109566926795,-0.00365037813901,0.697874895671,0.716126563966,0.0,0.0,0.0,0.0,0.0,0.0,0.0581414472439,2.23579207683,0.778605795875,-0.182855830333,-0.0589109676602,0.0143151848222
17961000000,ocean_waves,wamv,0.0,0.0,0.0,0.0,0.0,0.0,1.0,0.344698067229,8.91743819735,-1.3510561866,0.0108707585341,-0.00360599399472,0.697880669543,0.716122471715,0.0,0.0,0.0,0.0,0.0,0.0,0.0575096362534,2.23531229689,0.781217099331,-0.184981088103,-0.056529637891,0.0143266273102
17962000000,ocean_waves,wamv,0.0,0.0,0.0,0.0,0.0,0.0,1.0,0.344754938759,8.91967303341,-1.35027235765,0.0107849064265,-0.0035600117627,0.697886431527,0.716118384627,0.0,0.0,0.0,0.0,0.0,0.0,0.0568719217807,2.23483599203,0.783833789422,-0.187094165548,-0.0541259839949,0.0143377309079
17963000000,ocean_waves,wamv,0.0,0.0,0.0,0.0,0.0,0.0,1.0,0.344811166695,8.92190739667,-1.34948590666,0.0106991484968,-0.00351242776935,0.697892181318,0.716114302558,0.0,0.0,0.0,0.0,0.0,0.0,0.0562283295405,2.23436317292,0.786455890598,-0.189194996865,-0.0517001327016,0.0143484816839
17964000000,ocean_waves,wamv,0.0,0.0,0.0,0.0,0.0,0.0,1.0,0.344866745185,8.9241412906,-1.34869682822,0.0106134968662,-0.00346323840958,0.697897918605,0.716110225364,0.0,0.0,0.0,0.0,0.0,0.0,0.0555788860863,2.23389385077,0.789083423897,-0.191283514201,-0.0492522086538,0.0143588676536
17966000000,ocean_waves,wamv,0.0,0.0,0.0,0.0,0.0,0.0,1.0,0.344921668411,8.92637471873,-1.34790511686,0.010527963629,-0.00341244015002,0.697903643072,0.7161061529,0.0,0.0,0.0,0.0,0.0,0.0,0.0549236233074,2.23342803517,0.791716405681,-0.193359655906,-0.0467823514977,0.0143688785223
17966000000,ocean_waves,wamv,0.0,0.0,0.0,0.0,0.0,0.0,1.0,0.344975930587,8.92860768456,-1.34711076712,0.0104425608523,-0.00336002953039,0.6979093544,0.716102085017,0.0,0.0,0.0,0.0,0.0,0.0,0.0542625752208,2.23296573597,0.794354859793,-0.195423359472,-0.044290703832,0.0143785055409
17968000000,ocean_waves,wamv,0.0,0.0,0.0,0.0,0.0,0.0,1.0,0.345029525965,8.93084019163,-1.34631377352,0.0103573005753,-0.00330600316576,0.697915052265,0.716098021565,0.0,0.0,0.0,0.0,0.0,0.0,0.0535957782617,2.23250696364,0.796998805812,-0.197474560158,-0.041777412571,0.0143877412565
17969000000,ocean_waves,wamv,0.0,0.0,0.0,0.0,0.0,0.0,1.0,0.345082448835,8.93307224347,-1.34551413053,0.0102721948033,-0.00325035774715,0.69792073634,0.716093962392,0.0,0.0,0.0,0.0,0.0,0.0,0.0529232722781,2.23205172678,0.799648259514,-0.199513200384,-0.0392426330818,0.0143965792349
17969000000,ocean_waves,wamv,0.0,0.0,0.0,0.0,0.0,0.0,1.0,0.345134693528,8.93530384362,-1.34471183264,0.0101872555126,-0.00319309004254,0.697926406296,0.716089907341,0.0,0.0,0.0,0.0,0.0,0.0,0.0522450970301,2.23160003604,0.802303248362,-0.201539214912,-0.036686516306,0.0144050138474
17970000000,ocean_waves,wamv,0.0,0.0,0.0,0.0,0.0,0.0,1.0,0.345186254418,8.93753499564,-1.34390687429,0.0101024946427,-0.0031341968972,0.697932061798,0.716085856253,0.0,0.0,0.0,0.0,0.0,0.0,0.0515612960746,2.23115189942,0.80496378321,-0.203552548787,-0.0341092240041,0.0144130399291
17971000000,ocean_waves,wamv,0.0,0.0,0.0,0.0,0.0,0.0,1.0,0.345237125925,8.9397657031,-1.34309924993,0.0100179240958,-0.00307367523451,0.697937702511,0.716081808965,0.0,0.0,0.0,0.0,0.0,0.0,0.0508719142365,2.2307073251,0.807629883065,-0.205553146467,-0.0315109196672,0.0144206525487
17973000000,ocean_waves,wamv,0.0,0.0,0.0,0.0,0.0,0.0,1.0,0.345287302518,8.94199596956,-1.34228895396,0.00993355573047,-0.00301152206047,0.697943328096,0.71607776531,0.0,0.0,0.0,0.0,0.0,0.0,0.0501770012309,2.23026632041,0.810301569131,-0.207540955874,-0.0288917828318,0.0144278466812
17973000000,ocean_waves,wamv,0.0,0.0,0.0,0.0,0.0,0.0,1.0,0.345336778714,8.94422579859,-1.3414759808,0.00984940136329,-0.00294773446207,0.697948938211,0.716073725118,0.0,0.0,0.0,0.0,0.0,0.0,0.0494766058405,2.22982889298,0.812978851756,-0.209515923999,-0.0262519875468,0.0144346170522
17976000000,ocean_waves,wamv,0.0,0.0,0.0,0.0,0.0,0.0,1.0,0.345385549081,8.94645519379,-1.34066032482,0.00976547276721,-0.002882309607,0.697954532511,0.716069688215,0.0,0.0,0.0,0.0,0.0,0.0,0.0487707778237,2.2293950496,0.815661755792,-0.21147800122,-0.0235917102385,0.0144409578569
17976000000,ocean_waves,wamv,0.0,0.0,0.0,0.0,0.0,0.0,1.0,0.345433608238,8.94868415874,-1.3398419804,0.00968178166695,-0.00281524474596,0.697960110645,0.716065654426,0.0,0.0,0.0,0.0,0.0,0.0,0.0480595696292,2.22896479633,0.818350290349,-0.213427140943,-0.0209111368706,0.0144468624949
17976000000,ocean_waves,wamv,0.0,0.0,0.0,0.0,0.0,0.0,1.0,0.345480950858,8.95091269704,-1.33902094189,0.00959833973868,-0.00274653721276,0.697965672263,0.71606162357,0.0,0.0,0.0,0.0,0.0,0.0,0.0473430338758,2.22853813918,0.821044471293,-0.21536329705,-0.0182104540566,0.0144523233821
17977000000,ocean_waves,wamv,0.0,0.0,0.0,0.0,0.0,0.0,1.0,0.345527571667,8.95314081229,-1.33819720363,0.00951515860763,-0.00267618442309,0.697971217006,0.716057595466,0.0,0.0,0.0,0.0,0.0,0.0,0.0466212233907,2.22811508289,0.823744315117,-0.217286428533,-0.015489849933,0.0144573317314
17979000000,ocean_waves,wamv,0.0,0.0,0.0,0.0,0.0,0.0,1.0,0.345573465445,8.95536850809,-1.33737075995,0.00943224984144,-0.00260418387797,0.697976744512,0.71605356993,0.0,0.0,0.0,0.0,0.0,0.0,0.0458941943619,2.22769563106,0.826449832118,-0.219196499083,-0.0127495268896,0.0144618772992
17979000000,ocean_waves,wamv,0.0,0.0,0.0,0.0,0.0,0.0,1.0,0.345618627028,8.95759578806,-1.33654160517,0.00934962495527,-0.00253053316112,0.697982254414,0.716049546776,0.0,0.0,0.0,0.0,0.0,0.0,0.0451619994826,2.22727978832,0.829161033318,-0.221093468734,-0.00998967633628,0.014465948284
17980000000,ocean_waves,wamv,0.0,0.0,0.0,0.0,0.0,0.0,1.0,0.345663051304,8.9598226558,-1.33570973359,0.00926729540296,-0.00245522994194,0.697987746337,0.716045525819,0.0,0.0,0.0,0.0,0.0,0.0,0.0444246950153,2.22686755714,0.831877932391,-0.222977306118,-0.00721050635052,0.0144695310522
17981000000,ocean_waves,wamv,0.0,0.0,0.0,0.0,0.0,0.0,1.0,0.34570673322,8.96204911493,-1.33487513951,0.00918527257761,-0.00237827197243,0.697993219901,0.716041506871,0.0,0.0,0.0,0.0,0.0,0.0,0.0436823347895,2.22645893923,0.834600538671,-0.224847983185,-0.00441221972346,0.0144726100594
17982000000,ocean_waves,wamv,0.0,0.0,0.0,0.0,0.0,0.0,1.0,0.345749667773,8.96427516906,-1.33403781721,0.00910356780786,-0.00229965708975,0.697998674718,0.716037489746,0.0,0.0,0.0,0.0,0.0,0.0,0.0429349737157,2.22605393586,0.837328860612,-0.226705473875,-0.00159502812102,0.0144751676721
17982000000,ocean_waves,wamv,0.0,0.0,0.0,0.0,0.0,0.0,1.0,0.345791850016,8.96650082181,-1.33319776097,0.00902219235977,-0.00221938321438,0.69800411039,0.71603347426,0.0,0.0,0.0,0.0,0.0,0.0,0.0421826638443,2.22565254853,0.840062902983,-0.228549751763,0.00124086209614,0.0144771841214
17982000000,ocean_waves,wamv,0.0,0.0,0.0,0.0,0.0,0.0,1.0,0.345833275053,8.9687260768,-1.33235496507,0.00894115742896,-0.00213744835305,0.698009526512,0.71602946023,0.0,0.0,0.0,0.0,0.0,0.0,0.0414254595867,2.22525477691,0.842802680617,-0.230380797793,0.00409522934954,0.0144786373969
17986000000,ocean_waves,wamv,0.0,0.0,0.0,0.0,0.0,0.0,1.0,0.345873938042,8.97095093763,-1.33150942376,0.00886047414273,-0.00205385059658,0.698014922666,0.716025447474,0.0,0.0,0.0,0.0,0.0,0.0,0.0406634119208,2.2248606208,0.845548197094,-0.232198592822,0.00696785825079,0.0144795033196
17986000000,ocean_waves,wamv,0.0,0.0,0.0,0.0,0.0,0.0,1.0,0.345913834188,8.97317540793,-1.3306611313,0.00878015356022,-0.00196858811947,0.698020298427,0.716021435816,0.0,0.0,0.0,0.0,0.0,0.0,0.0398965697369,2.22447008004,0.848299463121,-0.234003118037,0.00985853406753,0.014479755598
17989000000,ocean_waves,wamv,0.0,0.0,0.0,0.0,0.0,0.0,1.0,0.345952958745,8.97539949131,-1.32981008195,0.00870020666468,-0.00188165917975,0.698025653354,0.716017425083,0.0,0.0,0.0,0.0,0.0,0.0,0.0391249826895,2.22408315161,0.851056472901,-0.235794365995,0.012767031674,0.0144793659545
17989000000,ocean_waves,wamv,0.0,0.0,0.0,0.0,0.0,0.0,1.0,0.345991307019,8.97762319138,-1.32895626995,0.00862064436509,-0.00179306212257,0.698030986997,0.716013415106,0.0,0.0,0.0,0.0,0.0,0.0,0.0383486992705,2.22369983454,0.853819240138,-0.23757232184,0.0156931228925,0.0144783043656
17989000000,ocean_waves,wamv,0.0,0.0,0.0,0.0,0.0,0.0,1.0,0.346028874356,8.97984651174,-1.32809968954,0.00854147749749,-0.0017027953749,0.698036298892,0.71600940572,0.0,0.0,0.0,0.0,0.0,0.0,0.0375677635462,2.22332012654,0.856587763365,-0.239336976263,0.0186365891404,0.0144765394053
17990000000,ocean_waves,wamv,0.0,0.0,0.0,0.0,0.0,0.0,1.0,0.346065656152,8.98206945601,-1.32724033497,0.00846271681617,-0.00161085745121,0.698041588561,0.716005396768,0.0,0.0,0.0,0.0,0.0,0.0,0.0367822232326,2.22294402417,0.859362047786,-0.241088324698,0.0215971913718,0.0144740385632
17992000000,ocean_waves,wamv,0.0,0.0,0.0,0.0,0.0,0.0,1.0,0.346101647845,8.98429202778,-1.32637820048,0.00838437299956,-0.0015172469512,0.698046855514,0.716001388098,0.0,0.0,0.0,0.0,0.0,0.0,0.0359921215214,2.22257152551,0.862142099272,-0.242826357204,0.0245747019256,0.0144707687638
17992000000,ocean_waves,wamv,0.0,0.0,0.0,0.0,0.0,0.0,1.0,0.346136844921,8.98651423066,-1.32551328029,0.00830645664198,-0.00142196256304,0.698052099247,0.71599737956,0.0,0.0,0.0,0.0,0.0,0.0,0.0351975046104,2.22220262679,0.864927918785,-0.244551071224,0.0275688770649,0.0144666968258
17993000000,ocean_waves,wamv,0.0,0.0,0.0,0.0,0.0,0.0,1.0,0.346171242906,8.98873606824,-1.32464556865,0.00822897825955,-0.00132500306162,0.698057319242,0.715993371014,0.0,0.0,0.0,0.0,0.0,0.0,0.0343984149857,2.2218373259,0.867719508231,-0.246262458162,0.0305794837792,0.0144617900471
17994000000,ocean_waves,wamv,0.0,0.0,0.0,0.0,0.0,0.0,1.0,0.346204837376,8.99095754413,-1.32377505977,0.00815194827932,-0.00122636731354,0.698062514968,0.715989362323,0.0,0.0,0.0,0.0,0.0,0.0,0.0335949005288,2.22147561858,0.870516868934,-0.247960517969,0.0336062667264,0.0144560167085
17995000000,ocean_waves,wamv,0.0,0.0,0.0,0.0,0.0,0.0,1.0,0.346237623949,8.9931786619,-1.3229017479,0.00807537704876,-0.0011260542724,0.698067685881,0.715985353353,0.0,0.0,0.0,0.0,0.0,0.0,0.0327870037937,2.22111750244,0.873320003557,-0.249645243687,0.0366489904654,0.0144493466653
17996000000,ocean_waves,wamv,0.0,0.0,0.0,0.0,0.0,0.0,1.0,0.346269598291,8.99539942514,-1.32202562726,0.0079992748262,-0.00102406298494,0.698072831428,0.715981343975,0.0,0.0,0.0,0.0,0.0,0.0,0.0319747734874,2.2207629738,0.876128906573,-0.251316633342,0.039707397512,0.0144417517841
17997000000,ocean_waves,wamv,0.0,0.0,0.0,0.0,0.0,0.0,1.0,0.346300756116,8.99761983745,-1.32114669208,0.0079236517843,-0.000920392591557,0.69807795104,0.715977334062,0.0,0.0,0.0,0.0,0.0,0.0,0.0311582580001,2.22041203053,0.878943584773,-0.252974679359,0.0427812343859,0.0144332063953
17998000000,ocean_waves,wamv,0.0,0.0,0.0,0.0,0.0,0.0,1.0,0.346331093193,8.99983990241,-1.32026493658,0.00784851800457,-0.000815042329494,0.698083044143,0.715973323491,0.0,0.0,0.0,0.0,0.0,0.0,0.0303375100522,2.22006466962,0.88176404431,-0.254619377494,0.0458702353666,0.0144236876147
17999000000,ocean_waves,wamv,0.0,0.0,0.0,0.0,0.0,0.0,1.0,0.346360605345,9.00205962358,-1.31938035499,0.00777388347441,-0.000708011534687,0.698088110151,0.715969312137,0.0,0.0,0.0,0.0,0.0,0.0,0.0295125855553,2.21972088766,0.884590280365,-0.256250725152,0.0489741279906,0.0144131755817
18002000000,ocean_waves,wamv,0.0,0.0,0.0,0.0,0.0,0.0,1.0,0.34638928845,9.00427900456,-1.31849294153,0.00769975809295,-0.000599299639227,0.69809314847,0.715965299874,0.0,0.0,0.0,0.0,0.0,0.0,0.0286835389944,2.2193806825,0.887422293314,-0.257868714962,0.0520926514822,0.0144016535857
18002000000,ocean_waves,wamv,0.0,0.0,0.0,0.0,0.0,0.0,1.0,0.346417138446,9.00649804891,-1.31760269043,0.00762615166483,-0.000488906176955,0.698098158502,0.715961286578,0.0,0.0,0.0,0.0,0.0,0.0,0.0278504310776,2.21904405175,0.890260087199,-0.259473340536,0.0552255284331,0.0143891080603
18002000000,ocean_waves,wamv,0.0,0.0,0.0,0.0,0.0,0.0,1.0,0.346444151336,9.0087167602,-1.31670959591,0.00755307389746,-0.000376830785409,0.698103139639,0.715957272118,0.0,0.0,0.0,0.0,0.0,0.0,0.0270133262242,2.21871099265,0.893103661515,-0.261064596804,0.0583724747081,0.0143755284972
18004000000,ocean_waves,wamv,0.0,0.0,0.0,0.0,0.0,0.0,1.0,0.346470323192,9.01093514201,-1.31581365218,0.00748053439846,-0.000263073206166,0.698108091273,0.715953256363,0.0,0.0,0.0,0.0,0.0,0.0,0.026172291883,2.21838150166,0.895953016594,-0.262642481774,0.0615332021619,0.0143609072633
18004000000,ocean_waves,wamv,0.0,0.0,0.0,0.0,0.0,0.0,1.0,0.346495650154,9.0131531979,-1.31491485348,0.00740854267434,-0.000147633287965,0.698113012788,0.715949239175,0.0,0.0,0.0,0.0,0.0,0.0,0.0253273991168,2.21805557588,0.898808148884,-0.264206990985,0.0647074163237,0.0143452393343
18005000000,ocean_waves,wamv,0.0,0.0,0.0,0.0,0.0,0.0,1.0,0.346520128435,9.01537093142,-1.31401319404,0.00733710813415,-3.05109841913e-05,0.698117903568,0.715945220412,0.0,0.0,0.0,0.0,0.0,0.0,0.0244787185808,2.21773321285,0.901669055415,-0.265758118344,0.0678948313319,0.0143285219723
18007000000,ocean_waves,wamv,0.0,0.0,0.0,0.0,0.0,0.0,1.0,0.346543754326,9.01758834615,-1.31310866806,0.00726624007967,8.82936402643e-05,0.698122762994,0.715941199924,0.0,0.0,0.0,0.0,0.0,0.0,0.0236263288513,2.21741440898,0.904535740442,-0.267295862071,0.0710951379231,0.0143107543777
18007000000,ocean_waves,wamv,0.0,0.0,0.0,0.0,0.0,0.0,1.0,0.346566524195,9.01980544563,-1.3122012698,0.00719594770852,0.000208780411893,0.698127590444,0.715937177557,0.0,0.0,0.0,0.0,0.0,0.0,0.0227703078875,2.21709916078,0.90740820106,-0.268820220096,0.0743080351915,0.0142919372971
18008000000,ocean_waves,wamv,0.0,0.0,0.0,0.0,0.0,0.0,1.0,0.346588434493,9.02202223343,-1.31129099346,0.00712624011025,0.000330949044734,0.698132385296,0.715933153148,0.0,0.0,0.0,0.0,0.0,0.0,0.021910737943,2.21678746473,0.910286433597,-0.270331190536,0.0775332113237,0.0142720726426
18009000000,ocean_waves,wamv,0.0,0.0,0.0,0.0,0.0,0.0,1.0,0.346609481755,9.02423871307,-1.3103778333,0.00705712626448,0.000454799143353,0.698137146925,0.715929126527,0.0,0.0,0.0,0.0,0.0,0.0,0.0210477020382,2.21647931554,0.913170430664,-0.271828778288,0.0807703562284,0.0142511631054
18009000000,ocean_waves,wamv,0.0,0.0,0.0,0.0,0.0,0.0,1.0,0.346629662602,9.02645488811,-1.30946178354,0.00698861503811,0.000580330195289,0.698141874708,0.715925097518,0.0,0.0,0.0,0.0,0.0,0.0,0.0201812881236,2.21617470965,0.916060196585,-0.273312981767,0.0840191450289,0.0142292117903
18009000000,ocean_waves,wamv,0.0,0.0,0.0,0.0,0.0,0.0,1.0,0.34664897374,9.02867076209,-1.30854283844,0.00692071518981,0.000707541579263,0.698146568018,0.715921065936,0.0,0.0,0.0,0.0,0.0,0.0,0.0193115801921,2.21587364225,0.918955720585,-0.274783804374,0.0872792709219,0.0142062218365
18012000000,ocean_waves,wamv,0.0,0.0,0.0,0.0,0.0,0.0,1.0,0.346667411966,9.03088633854,-1.30762099223,0.00685343536075,0.000836432559257,0.69815122623,0.715917031589,0.0,0.0,0.0,0.0,0.0,0.0,0.0184386685116,2.21557610723,0.921856998209,-0.276241254574,0.0905504056526,0.0141821961298
18012000000,ocean_waves,wamv,0.0,0.0,0.0,0.0,0.0,0.0,1.0,0.346684974169,9.03310162098,-1.30669623918,0.00678678407047,0.000967002281386,0.698155848713,0.715912994278,0.0,0.0,0.0,0.0,0.0,0.0,0.0175626464377,2.21528209811,0.924764024811,-0.277685342313,0.0938322107818,0.0141571369852
18012000000,ocean_waves,wamv,0.0,0.0,0.0,0.0,0.0,0.0,1.0,0.346701657326,9.03531661294,-1.30576857354,0.00672076972571,0.00109924978146,0.698160434839,0.715908953799,0.0,0.0,0.0,0.0,0.0,0.0,0.0166836013919,2.21499160905,0.927676792907,-0.279116075496,0.0971243710076,0.0141310457998
18015000000,ocean_waves,wamv,0.0,0.0,0.0,0.0,0.0,0.0,1.0,0.346717458507,9.03753131792,-1.30483798959,0.0066554006106,0.00123317397822,0.698164983976,0.715904909939,0.0,0.0,0.0,0.0,0.0,0.0,0.0158016269291,2.21470463302,0.93059528924,-0.280533466653,0.100426547658,0.0141039228645
18017000000,ocean_waves,wamv,0.0,0.0,0.0,0.0,0.0,0.0,1.0,0.346732374875,9.03974573943,-1.3039044816,0.00659068488749,0.00136877367739,0.698169495488,0.715900862481,0.0,0.0,0.0,0.0,0.0,0.0,0.0149168144836,2.21442116188,0.933519509114,-0.281937532766,0.103738409057,0.0140757670621
18017000000,ocean_waves,wamv,0.0,0.0,0.0,0.0,0.0,0.0,1.0,0.346746403685,9.04195988097,-1.30296804388,0.00652663059304,0.00150604756947,0.698173968739,0.715896811202,0.0,0.0,0.0,0.0,0.0,0.0,0.0140292572832,2.21414118692,0.936449438561,-0.28332829335,0.10705961482,0.0140465756649
18018000000,ocean_waves,wamv,0.0,0.0,0.0,0.0,0.0,0.0,1.0,0.346759542284,9.04417374602,-1.30202867072,0.00646324564012,0.00164499423083,0.698178403085,0.715892755876,0.0,0.0,0.0,0.0,0.0,0.0,0.01313904665,2.21386469978,0.939385068286,-0.284705766777,0.110389828936,0.0140163440898
